{
  "station": "礦業所前",
  "lat": 43.018611,
  "lng": 141.97975,
  "plus_code": {
    "compound_code": "2X9H+CV 日本、北海道夕張市",
    "global_code": "8RM32X9H+CV"
  },
  "results": [
    {
      "address_components": [
        {
          "long_name": "１",
          "short_name": "１",
          "types": [
            "premise"
          ]
        },
        {
          "long_name": "平和",
          "short_name": "平和",
          "types": [
            "political",
            "sublocality",
            "sublocality_level_2"
          ]
        },
        {
          "long_name": "夕張市",
          "short_name": "夕張市",
          "types": [
            "locality",
            "political"
          ]
        },
        {
          "long_name": "北海道",
          "short_name": "北海道",
          "types": [
            "administrative_area_level_1",
            "political"
          ]
        },
        {
          "long_name": "日本",
          "short_name": "JP",
          "types": [
            "country",
            "political"
          ]
        },
        {
          "long_name": "068-0423",
          "short_name": "068-0423",
          "types": [
            "postal_code"
          ]
        }
      ],
      "formatted_address": "日本、〒068-0423 北海道夕張市平和１",
      "geometry": {
        "location": {
          "lat": 43.0185805,
          "lng": 141.9799738
        },
        "location_type": "ROOFTOP",
        "viewport": {
          "northeast": {
            "lat": 43.0199294802915,
            "lng": 141.9813227802915
          },
          "southwest": {
            "lat": 43.0172315197085,
            "lng": 141.9786248197085
          }
        }
      },
      "place_id": "ChIJ_9vrznG4dF8RlllSl_8TplE",
      "plus_code": {
        "compound_code": "2X9H+CX 日本、北海道夕張市",
        "global_code": "8RM32X9H+CX"
      },
      "types": [
        "street_address"
      ]
    },
    {
      "address_components": [
        {
          "long_name": "夕張岩見沢線",
          "short_name": "道道38号",
          "types": [
            "route"
          ]
        },
        {
          "long_name": "平和",
          "short_name": "平和",
          "types": [
            "political",
            "sublocality",
            "sublocality_level_2"
          ]
        },
        {
          "long_name": "夕張市",
          "short_name": "夕張市",
          "types": [
            "locality",
            "political"
          ]
        },
        {
          "long_name": "北海道",
          "short_name": "北海道",
          "types": [
            "administrative_area_level_1",
            "political"
          ]
        },
        {
          "long_name": "日本",
          "short_name": "JP",
          "types": [
            "country",
            "political"
          ]
        },
        {
          "long_name": "068-0423",
          "short_name": "068-0423",
          "types": [
            "postal_code"
          ]
        }
      ],
      "formatted_address": "日本、〒068-0423 北海道夕張市平和 道道38号",
      "geometry": {
        "bounds": {
          "northeast": {
            "lat": 43.0200391,
            "lng": 141.9810329
          },
          "southwest": {
            "lat": 43.0198648,
            "lng": 141.9795946
          }
        },
        "location": {
          "lat": 43.019912,
          "lng": 141.9803047
        },
        "location_type": "GEOMETRIC_CENTER",
        "viewport": {
          "northeast": {
            "lat": 43.0213009302915,
            "lng": 141.9816627302915
          },
          "southwest": {
            "lat": 43.0186029697085,
            "lng": 141.9789647697085
          }
        }
      },
      "place_id": "ChIJ0TktGm64dF8R2Cit7FP5_ks",
      "types": [
        "route"
      ]
    },
    {
      "address_components": [
        {
          "long_name": "068-0423",
          "short_name": "068-0423",
          "types": [
            "postal_code"
          ]
        },
        {
          "long_name": "平和",
          "short_name": "平和",
          "types": [
            "political",
            "sublocality",
            "sublocality_level_2"
          ]
        },
        {
          "long_name": "夕張市",
          "short_name": "夕張市",
          "types": [
            "locality",
            "political"
          ]
        },
        {
          "long_name": "北海道",
          "short_name": "北海道",
          "types": [
            "administrative_area_level_1",
            "political"
          ]
        },
        {
          "long_name": "日本",
          "short_name": "JP",
          "types": [
            "country",
            "political"
          ]
        }
      ],
      "formatted_address": "日本 〒068-0423",
      "geometry": {
        "bounds": {
          "northeast": {
            "lat": 43.0249961,
            "lng": 141.9975755
          },
          "southwest": {
            "lat": 43.01484,
            "lng": 141.9705402
          }
        },
        "location": {
          "lat": 43.0205414,
          "lng": 141.9761296
        },
        "location_type": "APPROXIMATE",
        "viewport": {
          "northeast": {
            "lat": 43.0249961,
            "lng": 141.9975755
          },
          "southwest": {
            "lat": 43.01484,
            "lng": 141.9705402
          }
        }
      },
      "place_id": "ChIJMZVwunK4dF8Rt0tzTPLXaSo",
      "types": [
        "postal_code"
      ]
    },
    {
      "address_components": [
        {
          "long_name": "平和",
          "short_name": "平和",
          "types": [
            "political",
            "sublocality",
            "sublocality_level_2"
          ]
        },
        {
          "long_name": "夕張市",
          "short_name": "夕張市",
          "types": [
            "locality",
            "political"
          ]
        },
        {
          "long_name": "北海道",
          "short_name": "北海道",
          "types": [
            "administrative_area_level_1",
            "political"
          ]
        },
        {
          "long_name": "日本",
          "short_name": "JP",
          "types": [
            "country",
            "political"
          ]
        },
        {
          "long_name": "068-0423",
          "short_name": "068-0423",
          "types": [
            "postal_code"
          ]
        }
      ],
      "formatted_address": "日本、〒068-0423 北海道夕張市平和",
      "geometry": {
        "bounds": {
          "northeast": {
            "lat": 43.024996,
            "lng": 141.9975758
          },
          "southwest": {
            "lat": 43.01484,
            "lng": 141.97054
          }
        },
        "location": {
          "lat": 43.0205414,
          "lng": 141.9761296
        },
        "location_type": "APPROXIMATE",
        "viewport": {
          "northeast": {
            "lat": 43.024996,
            "lng": 141.9975758
          },
          "southwest": {
            "lat": 43.01484,
            "lng": 141.97054
          }
        }
      },
      "place_id": "ChIJhTHrVW64dF8RBAVjakMkWBM",
      "types": [
        "political",
        "sublocality",
        "sublocality_level_2"
      ]
    },
    {
      "address_components": [
        {
          "long_name": "夕張市",
          "short_name": "夕張市",
          "types": [
            "locality",
            "political"
          ]
        },
        {
          "long_name": "北海道",
          "short_name": "北海道",
          "types": [
            "administrative_area_level_1",
            "political"
          ]
        },
        {
          "long_name": "日本",
          "short_name": "JP",
          "types": [
            "country",
            "political"
          ]
        }
      ],
      "formatted_address": "日本、北海道夕張市",
      "geometry": {
        "bounds": {
          "northeast": {
            "lat": 43.225438,
            "lng": 142.3301761
          },
          "southwest": {
            "lat": 42.859774,
            "lng": 141.9024839
          }
        },
        "location": {
          "lat": 43.0567681,
          "lng": 141.9739433
        },
        "location_type": "APPROXIMATE",
        "viewport": {
          "northeast": {
            "lat": 43.225438,
            "lng": 142.3301761
          },
          "southwest": {
            "lat": 42.859774,
            "lng": 141.9024839
          }
        }
      },
      "place_id": "ChIJ-5cXU7-7dF8RjeaX1D-RqaQ",
      "types": [
        "locality",
        "political"
      ]
    },
    {
      "address_components": [
        {
          "long_name": "北海道",
          "short_name": "北海道",
          "types": [
            "administrative_area_level_1",
            "political"
          ]
        },
        {
          "long_name": "日本",
          "short_name": "JP",
          "types": [
            "country",
            "political"
          ]
        }
      ],
      "formatted_address": "日本、北海道",
      "geometry": {
        "bounds": {
          "northeast": {
            "lat": 45.5265181,
            "lng": 145.817624
          },
          "southwest": {
            "lat": 41.3516002,
            "lng": 139.3340799
          }
        },
        "location": {
          "lat": 43.2203266,
          "lng": 142.8634737
        },
        "location_type": "APPROXIMATE",
        "viewport": {
          "northeast": {
            "lat": 45.5265181,
            "lng": 145.817624
          },
          "southwest": {
            "lat": 41.3516002,
            "lng": 139.3340799
          }
        }
      },
      "place_id": "ChIJi4hsnyBZn18RjwPOT1bDPBw",
      "types": [
        "administrative_area_level_1",
        "political"
      ]
    },
    {
      "address_components": [
        {
          "long_name": "日本",
          "short_name": "JP",
          "types": [
            "country",
            "political"
          ]
        }
      ],
      "formatted_address": "日本",
      "geometry": {
        "bounds": {
          "northeast": {
            "lat": 45.6412626,
            "lng": 154.0031455
          },
          "southwest": {
            "lat": 20.3585295,
            "lng": 122.8554688
          }
        },
        "location": {
          "lat": 36.204824,
          "lng": 138.252924
        },
        "location_type": "APPROXIMATE",
        "viewport": {
          "northeast": {
            "lat": 45.6412626,
            "lng": 154.0031455
          },
          "southwest": {
            "lat": 20.3585295,
            "lng": 122.8554688
          }
        }
      },
      "place_id": "ChIJLxl_1w9OZzQRRFJmfNR1QvU",
      "types": [
        "country",
        "political"
      ]
    }
  ]
}