{
  "station": "新雨竜",
  "lat": 43.937667,
  "lng": 141.926556,
  "plus_code": {
    "compound_code": "WWQG+3J 日本、北海道沼田町",
    "global_code": "8RM3WWQG+3J"
  },
  "results": [
    {
      "address_components": [
        {
          "long_name": "達布石狩沼田停車場線",
          "short_name": "道道867号",
          "types": [
            "route"
          ]
        },
        {
          "long_name": "字浅野",
          "short_name": "字浅野",
          "types": [
            "political",
            "sublocality",
            "sublocality_level_2"
          ]
        },
        {
          "long_name": "沼田町",
          "short_name": "沼田町",
          "types": [
            "locality",
            "political"
          ]
        },
        {
          "long_name": "雨竜郡",
          "short_name": "雨竜郡",
          "types": [
            "administrative_area_level_2",
            "political"
          ]
        },
        {
          "long_name": "北海道",
          "short_name": "北海道",
          "types": [
            "administrative_area_level_1",
            "political"
          ]
        },
        {
          "long_name": "日本",
          "short_name": "JP",
          "types": [
            "country",
            "political"
          ]
        },
        {
          "long_name": "078-2200",
          "short_name": "078-2200",
          "types": [
            "postal_code"
          ]
        }
      ],
      "formatted_address": "日本、〒078-2200 北海道雨竜郡沼田町字浅野 道道867号",
      "geometry": {
        "bounds": {
          "northeast": {
            "lat": 43.9424377,
            "lng": 141.9321129
          },
          "southwest": {
            "lat": 43.93320079999999,
            "lng": 141.929704
          }
        },
        "location": {
          "lat": 43.9379965,
          "lng": 141.9302003
        },
        "location_type": "GEOMETRIC_CENTER",
        "viewport": {
          "northeast": {
            "lat": 43.9424377,
            "lng": 141.9322574302915
          },
          "southwest": {
            "lat": 43.93320079999999,
            "lng": 141.9295594697085
          }
        }
      },
      "place_id": "ChIJ90LYaUVZDF8R6ocHIAiSNaY",
      "types": [
        "route"
      ]
    },
    {
      "address_components": [
        {
          "long_name": "字浅野",
          "short_name": "字浅野",
          "types": [
            "political",
            "sublocality",
            "sublocality_level_2"
          ]
        },
        {
          "long_name": "沼田町",
          "short_name": "沼田町",
          "types": [
            "locality",
            "political"
          ]
        },
        {
          "long_name": "雨竜郡",
          "short_name": "雨竜郡",
          "types": [
            "administrative_area_level_2",
            "political"
          ]
        },
        {
          "long_name": "北海道",
          "short_name": "北海道",
          "types": [
            "administrative_area_level_1",
            "political"
          ]
        },
        {
          "long_name": "日本",
          "short_name": "JP",
          "types": [
            "country",
            "political"
          ]
        }
      ],
      "formatted_address": "日本、北海道雨竜郡沼田町字浅野",
      "geometry": {
        "bounds": {
          "northeast": {
            "lat": 44.000332,
            "lng": 141.9908039
          },
          "southwest": {
            "lat": 43.9073369,
            "lng": 141.8812861
          }
        },
        "location": {
          "lat": 43.938249,
          "lng": 141.9286164
        },
        "location_type": "APPROXIMATE",
        "viewport": {
          "northeast": {
            "lat": 44.000332,
            "lng": 141.9908039
          },
          "southwest": {
            "lat": 43.9073369,
            "lng": 141.8812861
          }
        }
      },
      "place_id": "ChIJc5egt0xZDF8RiuWd3ZI9AYM",
      "types": [
        "political",
        "sublocality",
        "sublocality_level_2"
      ]
    },
    {
      "address_components": [
        {
          "long_name": "078-2200",
          "short_name": "078-2200",
          "types": [
            "postal_code"
          ]
        },
        {
          "long_name": "沼田町",
          "short_name": "沼田町",
          "types": [
            "locality",
            "political"
          ]
        },
        {
          "long_name": "雨竜郡",
          "short_name": "雨竜郡",
          "types": [
            "administrative_area_level_2",
            "political"
          ]
        },
        {
          "long_name": "北海道",
          "short_name": "北海道",
          "types": [
            "administrative_area_level_1",
            "political"
          ]
        },
        {
          "long_name": "日本",
          "short_name": "JP",
          "types": [
            "country",
            "political"
          ]
        }
      ],
      "formatted_address": "日本 〒078-2200",
      "geometry": {
        "bounds": {
          "northeast": {
            "lat": 44.000332,
            "lng": 141.9906242
          },
          "southwest": {
            "lat": 43.9096243,
            "lng": 141.8812857
          }
        },
        "location": {
          "lat": 43.938249,
          "lng": 141.9286164
        },
        "location_type": "APPROXIMATE",
        "viewport": {
          "northeast": {
            "lat": 44.000332,
            "lng": 141.9906242
          },
          "southwest": {
            "lat": 43.9096243,
            "lng": 141.8812857
          }
        }
      },
      "place_id": "ChIJC430kbJeDF8RjI9wP8-kA0k",
      "types": [
        "postal_code"
      ]
    },
    {
      "address_components": [
        {
          "long_name": "沼田町",
          "short_name": "沼田町",
          "types": [
            "locality",
            "political"
          ]
        },
        {
          "long_name": "雨竜郡",
          "short_name": "雨竜郡",
          "types": [
            "administrative_area_level_2",
            "political"
          ]
        },
        {
          "long_name": "北海道",
          "short_name": "北海道",
          "types": [
            "administrative_area_level_1",
            "political"
          ]
        },
        {
          "long_name": "日本",
          "short_name": "JP",
          "types": [
            "country",
            "political"
          ]
        }
      ],
      "formatted_address": "日本、北海道雨竜郡沼田町",
      "geometry": {
        "bounds": {
          "northeast": {
            "lat": 44.006327,
            "lng": 142.0856941
          },
          "southwest": {
            "lat": 43.7675099,
            "lng": 141.8584381
          }
        },
        "location": {
          "lat": 43.8068287,
          "lng": 141.9334172
        },
        "location_type": "APPROXIMATE",
        "viewport": {
          "northeast": {
            "lat": 44.006327,
            "lng": 142.0856941
          },
          "southwest": {
            "lat": 43.7675099,
            "lng": 141.8584381
          }
        }
      },
      "place_id": "ChIJt2Amt1BfDF8RuEu1v3_Lvos",
      "types": [
        "locality",
        "political"
      ]
    },
    {
      "address_components": [
        {
          "long_name": "雨竜郡",
          "short_name": "雨竜郡",
          "types": [
            "administrative_area_level_2",
            "political"
          ]
        },
        {
          "long_name": "北海道",
          "short_name": "北海道",
          "types": [
            "administrative_area_level_1",
            "political"
          ]
        },
        {
          "long_name": "日本",
          "short_name": "JP",
          "types": [
            "country",
            "political"
          ]
        }
      ],
      "formatted_address": "日本、北海道雨竜郡",
      "geometry": {
        "bounds": {
          "northeast": {
            "lat": 44.4787571,
            "lng": 142.3239735
          },
          "southwest": {
            "lat": 43.6069629,
            "lng": 141.5229191
          }
        },
        "location": {
          "lat": 43.7147286,
          "lng": 141.8706657
        },
        "location_type": "APPROXIMATE",
        "viewport": {
          "northeast": {
            "lat": 44.4787571,
            "lng": 142.3239735
          },
          "southwest": {
            "lat": 43.6069629,
            "lng": 141.5229191
          }
        }
      },
      "place_id": "ChIJ98u29O9PDF8RNohcbWoWOrM",
      "types": [
        "administrative_area_level_2",
        "political"
      ]
    },
    {
      "address_components": [
        {
          "long_name": "北海道",
          "short_name": "北海道",
          "types": [
            "administrative_area_level_1",
            "political"
          ]
        },
        {
          "long_name": "日本",
          "short_name": "JP",
          "types": [
            "country",
            "political"
          ]
        }
      ],
      "formatted_address": "日本、北海道",
      "geometry": {
        "bounds": {
          "northeast": {
            "lat": 45.5265181,
            "lng": 145.817624
          },
          "southwest": {
            "lat": 41.3516002,
            "lng": 139.3340799
          }
        },
        "location": {
          "lat": 43.2203266,
          "lng": 142.8634737
        },
        "location_type": "APPROXIMATE",
        "viewport": {
          "northeast": {
            "lat": 45.5265181,
            "lng": 145.817624
          },
          "southwest": {
            "lat": 41.3516002,
            "lng": 139.3340799
          }
        }
      },
      "place_id": "ChIJi4hsnyBZn18RjwPOT1bDPBw",
      "types": [
        "administrative_area_level_1",
        "political"
      ]
    },
    {
      "address_components": [
        {
          "long_name": "日本",
          "short_name": "JP",
          "types": [
            "country",
            "political"
          ]
        }
      ],
      "formatted_address": "日本",
      "geometry": {
        "bounds": {
          "northeast": {
            "lat": 45.6412626,
            "lng": 154.0031455
          },
          "southwest": {
            "lat": 20.3585295,
            "lng": 122.8554688
          }
        },
        "location": {
          "lat": 36.204824,
          "lng": 138.252924
        },
        "location_type": "APPROXIMATE",
        "viewport": {
          "northeast": {
            "lat": 45.6412626,
            "lng": 154.0031455
          },
          "southwest": {
            "lat": 20.3585295,
            "lng": 122.8554688
          }
        }
      },
      "place_id": "ChIJLxl_1w9OZzQRRFJmfNR1QvU",
      "types": [
        "country",
        "political"
      ]
    }
  ]
}