{
  "station": "鹿野",
  "lat": 39.922228,
  "lng": 141.047909,
  "plus_code": {
    "compound_code": "W2CX+V5 日本、岩手県八幡平市",
    "global_code": "8RF3W2CX+V5"
  },
  "results": [
    {
      "address_components": [
        {
          "long_name": "４０−９",
          "short_name": "４０−９",
          "types": [
            "premise"
          ]
        },
        {
          "long_name": "第２９地割",
          "short_name": "第２９地割",
          "types": [
            "political",
            "sublocality",
            "sublocality_level_3"
          ]
        },
        {
          "long_name": "松尾寄木",
          "short_name": "松尾寄木",
          "types": [
            "political",
            "sublocality",
            "sublocality_level_2"
          ]
        },
        {
          "long_name": "八幡平市",
          "short_name": "八幡平市",
          "types": [
            "locality",
            "political"
          ]
        },
        {
          "long_name": "岩手県",
          "short_name": "岩手県",
          "types": [
            "administrative_area_level_1",
            "political"
          ]
        },
        {
          "long_name": "日本",
          "short_name": "JP",
          "types": [
            "country",
            "political"
          ]
        },
        {
          "long_name": "028-7302",
          "short_name": "028-7302",
          "types": [
            "postal_code"
          ]
        }
      ],
      "formatted_address": "日本、〒028-7302 岩手県八幡平市松尾寄木第２９地割４０−９",
      "geometry": {
        "location": {
          "lat": 39.9222154,
          "lng": 141.047794
        },
        "location_type": "ROOFTOP",
        "viewport": {
          "northeast": {
            "lat": 39.9235643802915,
            "lng": 141.0491429802915
          },
          "southwest": {
            "lat": 39.9208664197085,
            "lng": 141.0464450197085
          }
        }
      },
      "place_id": "ChIJqUiQ9_0UhV8RRP8Se5T6X4w",
      "plus_code": {
        "compound_code": "W2CX+V4 日本、岩手県八幡平市",
        "global_code": "8RF3W2CX+V4"
      },
      "types": [
        "street_address"
      ]
    },
    {
      "address_components": [
        {
          "long_name": "２８−１",
          "short_name": "２８−１",
          "types": [
            "premise"
          ]
        },
        {
          "long_name": "第２９地割",
          "short_name": "第２９地割",
          "types": [
            "political",
            "sublocality",
            "sublocality_level_3"
          ]
        },
        {
          "long_name": "松尾寄木",
          "short_name": "松尾寄木",
          "types": [
            "political",
            "sublocality",
            "sublocality_level_2"
          ]
        },
        {
          "long_name": "八幡平市",
          "short_name": "八幡平市",
          "types": [
            "locality",
            "political"
          ]
        },
        {
          "long_name": "岩手県",
          "short_name": "岩手県",
          "types": [
            "administrative_area_level_1",
            "political"
          ]
        },
        {
          "long_name": "日本",
          "short_name": "JP",
          "types": [
            "country",
            "political"
          ]
        },
        {
          "long_name": "028-7302",
          "short_name": "028-7302",
          "types": [
            "postal_code"
          ]
        }
      ],
      "formatted_address": "日本、〒028-7302 岩手県八幡平市松尾寄木第２９地割２８−１",
      "geometry": {
        "location": {
          "lat": 39.9224014,
          "lng": 141.0491887
        },
        "location_type": "ROOFTOP",
        "viewport": {
          "northeast": {
            "lat": 39.92375038029149,
            "lng": 141.0505376802915
          },
          "southwest": {
            "lat": 39.9210524197085,
            "lng": 141.0478397197085
          }
        }
      },
      "place_id": "ChIJ6wlvBv4UhV8RPL0Lz5gVhFQ",
      "plus_code": {
        "compound_code": "W2CX+XM 日本、岩手県八幡平市",
        "global_code": "8RF3W2CX+XM"
      },
      "types": [
        "establishment",
        "point_of_interest"
      ]
    },
    {
      "address_components": [
        {
          "long_name": "Unnamed Road",
          "short_name": "Unnamed Road",
          "types": [
            "route"
          ]
        },
        {
          "long_name": "第２９地割",
          "short_name": "第２９地割",
          "types": [
            "political",
            "sublocality",
            "sublocality_level_3"
          ]
        },
        {
          "long_name": "松尾寄木",
          "short_name": "松尾寄木",
          "types": [
            "political",
            "sublocality",
            "sublocality_level_2"
          ]
        },
        {
          "long_name": "八幡平市",
          "short_name": "八幡平市",
          "types": [
            "locality",
            "political"
          ]
        },
        {
          "long_name": "岩手県",
          "short_name": "岩手県",
          "types": [
            "administrative_area_level_1",
            "political"
          ]
        },
        {
          "long_name": "日本",
          "short_name": "JP",
          "types": [
            "country",
            "political"
          ]
        },
        {
          "long_name": "028-7302",
          "short_name": "028-7302",
          "types": [
            "postal_code"
          ]
        }
      ],
      "formatted_address": "Unnamed Road, 第２９地割 松尾寄木 八幡平市 岩手県 028-7302 日本",
      "geometry": {
        "bounds": {
          "northeast": {
            "lat": 39.9223589,
            "lng": 141.0478816
          },
          "southwest": {
            "lat": 39.9223471,
            "lng": 141.0478087
          }
        },
        "location": {
          "lat": 39.922353,
          "lng": 141.0478451
        },
        "location_type": "GEOMETRIC_CENTER",
        "viewport": {
          "northeast": {
            "lat": 39.9237019802915,
            "lng": 141.0491941302915
          },
          "southwest": {
            "lat": 39.9210040197085,
            "lng": 141.0464961697085
          }
        }
      },
      "place_id": "ChIJQdN3-P0UhV8RQnuSoptVas0",
      "types": [
        "route"
      ]
    },
    {
      "address_components": [
        {
          "long_name": "第２９地割",
          "short_name": "第２９地割",
          "types": [
            "political",
            "sublocality",
            "sublocality_level_3"
          ]
        },
        {
          "long_name": "松尾寄木",
          "short_name": "松尾寄木",
          "types": [
            "political",
            "sublocality",
            "sublocality_level_2"
          ]
        },
        {
          "long_name": "八幡平市",
          "short_name": "八幡平市",
          "types": [
            "locality",
            "political"
          ]
        },
        {
          "long_name": "岩手県",
          "short_name": "岩手県",
          "types": [
            "administrative_area_level_1",
            "political"
          ]
        },
        {
          "long_name": "日本",
          "short_name": "JP",
          "types": [
            "country",
            "political"
          ]
        },
        {
          "long_name": "028-7302",
          "short_name": "028-7302",
          "types": [
            "postal_code"
          ]
        }
      ],
      "formatted_address": "日本、〒028-7302 岩手県八幡平市松尾寄木第２９地割",
      "geometry": {
        "bounds": {
          "northeast": {
            "lat": 39.926097,
            "lng": 141.0550529
          },
          "southwest": {
            "lat": 39.921717,
            "lng": 141.0446931
          }
        },
        "location": {
          "lat": 39.92376549999999,
          "lng": 141.0498652
        },
        "location_type": "APPROXIMATE",
        "viewport": {
          "northeast": {
            "lat": 39.926097,
            "lng": 141.0550529
          },
          "southwest": {
            "lat": 39.921717,
            "lng": 141.0446931
          }
        }
      },
      "place_id": "ChIJDQEHzwEVhV8RnEQELW_dwQo",
      "types": [
        "political",
        "sublocality",
        "sublocality_level_3"
      ]
    },
    {
      "address_components": [
        {
          "long_name": "松尾寄木",
          "short_name": "松尾寄木",
          "types": [
            "political",
            "sublocality",
            "sublocality_level_2"
          ]
        },
        {
          "long_name": "八幡平市",
          "short_name": "八幡平市",
          "types": [
            "locality",
            "political"
          ]
        },
        {
          "long_name": "岩手県",
          "short_name": "岩手県",
          "types": [
            "administrative_area_level_1",
            "political"
          ]
        },
        {
          "long_name": "日本",
          "short_name": "JP",
          "types": [
            "country",
            "political"
          ]
        },
        {
          "long_name": "028-7302",
          "short_name": "028-7302",
          "types": [
            "postal_code"
          ]
        }
      ],
      "formatted_address": "日本、〒028-7302 岩手県八幡平市松尾寄木",
      "geometry": {
        "bounds": {
          "northeast": {
            "lat": 39.963217,
            "lng": 141.061723
          },
          "southwest": {
            "lat": 39.83996399999999,
            "lng": 140.8521928
          }
        },
        "location": {
          "lat": 39.8927618,
          "lng": 140.9253837
        },
        "location_type": "APPROXIMATE",
        "viewport": {
          "northeast": {
            "lat": 39.963217,
            "lng": 141.061723
          },
          "southwest": {
            "lat": 39.83996399999999,
            "lng": 140.8521928
          }
        }
      },
      "place_id": "ChIJERpu5M1qhV8Rg8ih7dD0Kmk",
      "types": [
        "political",
        "sublocality",
        "sublocality_level_2"
      ]
    },
    {
      "address_components": [
        {
          "long_name": "028-7302",
          "short_name": "028-7302",
          "types": [
            "postal_code"
          ]
        },
        {
          "long_name": "松尾寄木",
          "short_name": "松尾寄木",
          "types": [
            "political",
            "sublocality",
            "sublocality_level_2"
          ]
        },
        {
          "long_name": "八幡平市",
          "short_name": "八幡平市",
          "types": [
            "locality",
            "political"
          ]
        },
        {
          "long_name": "岩手県",
          "short_name": "岩手県",
          "types": [
            "administrative_area_level_1",
            "political"
          ]
        },
        {
          "long_name": "日本",
          "short_name": "JP",
          "types": [
            "country",
            "political"
          ]
        }
      ],
      "formatted_address": "日本 〒028-7302",
      "geometry": {
        "bounds": {
          "northeast": {
            "lat": 39.9632172,
            "lng": 141.0617233
          },
          "southwest": {
            "lat": 39.8399644,
            "lng": 140.8521925
          }
        },
        "location": {
          "lat": 39.8927618,
          "lng": 140.9253837
        },
        "location_type": "APPROXIMATE",
        "viewport": {
          "northeast": {
            "lat": 39.9632172,
            "lng": 141.0617233
          },
          "southwest": {
            "lat": 39.8399644,
            "lng": 140.8521925
          }
        }
      },
      "place_id": "ChIJs6zIBTsVhV8RHNoARIHB44s",
      "types": [
        "postal_code"
      ]
    },
    {
      "address_components": [
        {
          "long_name": "八幡平市",
          "short_name": "八幡平市",
          "types": [
            "locality",
            "political"
          ]
        },
        {
          "long_name": "岩手県",
          "short_name": "岩手県",
          "types": [
            "administrative_area_level_1",
            "political"
          ]
        },
        {
          "long_name": "日本",
          "short_name": "JP",
          "types": [
            "country",
            "political"
          ]
        }
      ],
      "formatted_address": "日本、岩手県八幡平市",
      "geometry": {
        "bounds": {
          "northeast": {
            "lat": 40.247663,
            "lng": 141.1691539
          },
          "southwest": {
            "lat": 39.8399329,
            "lng": 140.844453
          }
        },
        "location": {
          "lat": 39.9565121,
          "lng": 141.0712561
        },
        "location_type": "APPROXIMATE",
        "viewport": {
          "northeast": {
            "lat": 40.247663,
            "lng": 141.1691539
          },
          "southwest": {
            "lat": 39.8399329,
            "lng": 140.844453
          }
        }
      },
      "place_id": "ChIJ5yn2VAo7hV8RRmTIinmmd5E",
      "types": [
        "locality",
        "political"
      ]
    },
    {
      "address_components": [
        {
          "long_name": "岩手県",
          "short_name": "岩手県",
          "types": [
            "administrative_area_level_1",
            "political"
          ]
        },
        {
          "long_name": "日本",
          "short_name": "JP",
          "types": [
            "country",
            "political"
          ]
        }
      ],
      "formatted_address": "日本、岩手県",
      "geometry": {
        "bounds": {
          "northeast": {
            "lat": 40.4502692,
            "lng": 142.0723994
          },
          "southwest": {
            "lat": 38.7475831,
            "lng": 140.6530857
          }
        },
        "location": {
          "lat": 39.5832989,
          "lng": 141.2534574
        },
        "location_type": "APPROXIMATE",
        "viewport": {
          "northeast": {
            "lat": 40.4502692,
            "lng": 142.0723994
          },
          "southwest": {
            "lat": 38.7475831,
            "lng": 140.6530857
          }
        }
      },
      "place_id": "ChIJIzoJ7dCQhV8RbEB_6H6BLGY",
      "types": [
        "administrative_area_level_1",
        "political"
      ]
    },
    {
      "address_components": [
        {
          "long_name": "日本",
          "short_name": "JP",
          "types": [
            "country",
            "political"
          ]
        }
      ],
      "formatted_address": "日本",
      "geometry": {
        "bounds": {
          "northeast": {
            "lat": 45.6412626,
            "lng": 154.0031455
          },
          "southwest": {
            "lat": 20.3585295,
            "lng": 122.8554688
          }
        },
        "location": {
          "lat": 36.204824,
          "lng": 138.252924
        },
        "location_type": "APPROXIMATE",
        "viewport": {
          "northeast": {
            "lat": 45.6412626,
            "lng": 154.0031455
          },
          "southwest": {
            "lat": 20.3585295,
            "lng": 122.8554688
          }
        }
      },
      "place_id": "ChIJLxl_1w9OZzQRRFJmfNR1QvU",
      "types": [
        "country",
        "political"
      ]
    }
  ]
}