{
  "station": "五城目駅",
  "lat": 39.944361,
  "lng": 140.116889,
  "plus_code": {
    "compound_code": "W4V8+PQ 日本、秋田県五城目町",
    "global_code": "8RF2W4V8+PQ"
  },
  "results": [
    {
      "address_components": [
        {
          "long_name": "五城目駅",
          "short_name": "五城目駅",
          "types": [
            "bus_station",
            "establishment",
            "point_of_interest",
            "transit_station"
          ]
        },
        {
          "long_name": "字鵜ノ木",
          "short_name": "字鵜ノ木",
          "types": [
            "political",
            "sublocality",
            "sublocality_level_2"
          ]
        },
        {
          "long_name": "五城目町",
          "short_name": "五城目町",
          "types": [
            "locality",
            "political"
          ]
        },
        {
          "long_name": "南秋田郡",
          "short_name": "南秋田郡",
          "types": [
            "administrative_area_level_2",
            "political"
          ]
        },
        {
          "long_name": "秋田県",
          "short_name": "秋田県",
          "types": [
            "administrative_area_level_1",
            "political"
          ]
        },
        {
          "long_name": "日本",
          "short_name": "JP",
          "types": [
            "country",
            "political"
          ]
        },
        {
          "long_name": "018-1722",
          "short_name": "018-1722",
          "types": [
            "postal_code"
          ]
        }
      ],
      "formatted_address": "日本、〒018-1722 秋田県南秋田郡五城目町字鵜ノ木 五城目駅",
      "geometry": {
        "location": {
          "lat": 39.944318,
          "lng": 140.116773
        },
        "location_type": "GEOMETRIC_CENTER",
        "viewport": {
          "northeast": {
            "lat": 39.9456669802915,
            "lng": 140.1181219802915
          },
          "southwest": {
            "lat": 39.9429690197085,
            "lng": 140.1154240197085
          }
        }
      },
      "place_id": "ChIJj7LaLhEDkF8REbWJS2xnNxw",
      "plus_code": {
        "compound_code": "W4V8+PP 日本、秋田県五城目町",
        "global_code": "8RF2W4V8+PP"
      },
      "types": [
        "bus_station",
        "establishment",
        "point_of_interest",
        "transit_station"
      ]
    },
    {
      "address_components": [
        {
          "long_name": "３４",
          "short_name": "３４",
          "types": [
            "premise"
          ]
        },
        {
          "long_name": "字鵜ノ木",
          "short_name": "字鵜ノ木",
          "types": [
            "political",
            "sublocality",
            "sublocality_level_2"
          ]
        },
        {
          "long_name": "五城目町",
          "short_name": "五城目町",
          "types": [
            "locality",
            "political"
          ]
        },
        {
          "long_name": "南秋田郡",
          "short_name": "南秋田郡",
          "types": [
            "administrative_area_level_2",
            "political"
          ]
        },
        {
          "long_name": "秋田県",
          "short_name": "秋田県",
          "types": [
            "administrative_area_level_1",
            "political"
          ]
        },
        {
          "long_name": "日本",
          "short_name": "JP",
          "types": [
            "country",
            "political"
          ]
        },
        {
          "long_name": "018-1722",
          "short_name": "018-1722",
          "types": [
            "postal_code"
          ]
        }
      ],
      "formatted_address": "日本、〒018-1722 秋田県南秋田郡五城目町字鵜ノ木３４",
      "geometry": {
        "bounds": {
          "northeast": {
            "lat": 39.94453,
            "lng": 140.1172456
          },
          "southwest": {
            "lat": 39.9443382,
            "lng": 140.1170485
          }
        },
        "location": {
          "lat": 39.9444141,
          "lng": 140.1171504
        },
        "location_type": "ROOFTOP",
        "viewport": {
          "northeast": {
            "lat": 39.94578308029149,
            "lng": 140.1184960302915
          },
          "southwest": {
            "lat": 39.9430851197085,
            "lng": 140.1157980697085
          }
        }
      },
      "place_id": "ChIJufrUJREDkF8RuDBhjeE8yOY",
      "types": [
        "premise"
      ]
    },
    {
      "address_components": [
        {
          "long_name": "９０−１",
          "short_name": "９０−１",
          "types": [
            "premise"
          ]
        },
        {
          "long_name": "字鵜ノ木",
          "short_name": "字鵜ノ木",
          "types": [
            "political",
            "sublocality",
            "sublocality_level_2"
          ]
        },
        {
          "long_name": "五城目町",
          "short_name": "五城目町",
          "types": [
            "locality",
            "political"
          ]
        },
        {
          "long_name": "南秋田郡",
          "short_name": "南秋田郡",
          "types": [
            "administrative_area_level_2",
            "political"
          ]
        },
        {
          "long_name": "秋田県",
          "short_name": "秋田県",
          "types": [
            "administrative_area_level_1",
            "political"
          ]
        },
        {
          "long_name": "日本",
          "short_name": "JP",
          "types": [
            "country",
            "political"
          ]
        },
        {
          "long_name": "018-1722",
          "short_name": "018-1722",
          "types": [
            "postal_code"
          ]
        }
      ],
      "formatted_address": "日本、〒018-1722 秋田県南秋田郡五城目町字鵜ノ木９０−１",
      "geometry": {
        "location": {
          "lat": 39.944154,
          "lng": 140.1167489
        },
        "location_type": "ROOFTOP",
        "viewport": {
          "northeast": {
            "lat": 39.94550298029149,
            "lng": 140.1180978802915
          },
          "southwest": {
            "lat": 39.9428050197085,
            "lng": 140.1153999197085
          }
        }
      },
      "place_id": "ChIJ3QazPIQDkF8RSV-hjPQzgJM",
      "plus_code": {
        "compound_code": "W4V8+MM 日本、秋田県五城目町",
        "global_code": "8RF2W4V8+MM"
      },
      "types": [
        "establishment",
        "point_of_interest"
      ]
    },
    {
      "address_components": [
        {
          "long_name": "１５−３７",
          "short_name": "１５−３７",
          "types": [
            "premise"
          ]
        },
        {
          "long_name": "字鵜ノ木",
          "short_name": "字鵜ノ木",
          "types": [
            "political",
            "sublocality",
            "sublocality_level_2"
          ]
        },
        {
          "long_name": "五城目町",
          "short_name": "五城目町",
          "types": [
            "locality",
            "political"
          ]
        },
        {
          "long_name": "南秋田郡",
          "short_name": "南秋田郡",
          "types": [
            "administrative_area_level_2",
            "political"
          ]
        },
        {
          "long_name": "秋田県",
          "short_name": "秋田県",
          "types": [
            "administrative_area_level_1",
            "political"
          ]
        },
        {
          "long_name": "日本",
          "short_name": "JP",
          "types": [
            "country",
            "political"
          ]
        },
        {
          "long_name": "018-1722",
          "short_name": "018-1722",
          "types": [
            "postal_code"
          ]
        }
      ],
      "formatted_address": "日本、〒018-1722 秋田県南秋田郡五城目町字鵜ノ木１５−３７",
      "geometry": {
        "location": {
          "lat": 39.9447134,
          "lng": 140.1168378
        },
        "location_type": "ROOFTOP",
        "viewport": {
          "northeast": {
            "lat": 39.94606238029149,
            "lng": 140.1181867802915
          },
          "southwest": {
            "lat": 39.9433644197085,
            "lng": 140.1154888197085
          }
        }
      },
      "place_id": "ChIJUXkPOxEDkF8Rt3up6-6P88I",
      "plus_code": {
        "compound_code": "W4V8+VP 日本、秋田県五城目町",
        "global_code": "8RF2W4V8+VP"
      },
      "types": [
        "street_address"
      ]
    },
    {
      "address_components": [
        {
          "long_name": "ウッドロード",
          "short_name": "県道15号",
          "types": [
            "route"
          ]
        },
        {
          "long_name": "字鵜ノ木",
          "short_name": "字鵜ノ木",
          "types": [
            "political",
            "sublocality",
            "sublocality_level_2"
          ]
        },
        {
          "long_name": "五城目町",
          "short_name": "五城目町",
          "types": [
            "locality",
            "political"
          ]
        },
        {
          "long_name": "南秋田郡",
          "short_name": "南秋田郡",
          "types": [
            "administrative_area_level_2",
            "political"
          ]
        },
        {
          "long_name": "秋田県",
          "short_name": "秋田県",
          "types": [
            "administrative_area_level_1",
            "political"
          ]
        },
        {
          "long_name": "日本",
          "short_name": "JP",
          "types": [
            "country",
            "political"
          ]
        },
        {
          "long_name": "018-1722",
          "short_name": "018-1722",
          "types": [
            "postal_code"
          ]
        }
      ],
      "formatted_address": "日本、〒018-1722 秋田県南秋田郡五城目町字鵜ノ木 県道15号",
      "geometry": {
        "bounds": {
          "northeast": {
            "lat": 39.9443086,
            "lng": 140.1168909
          },
          "southwest": {
            "lat": 39.9442903,
            "lng": 140.1167787
          }
        },
        "location": {
          "lat": 39.9442995,
          "lng": 140.1168348
        },
        "location_type": "GEOMETRIC_CENTER",
        "viewport": {
          "northeast": {
            "lat": 39.9456484302915,
            "lng": 140.1181837802915
          },
          "southwest": {
            "lat": 39.9429504697085,
            "lng": 140.1154858197085
          }
        }
      },
      "place_id": "ChIJu7wsKREDkF8RbHRYJR4nb_o",
      "types": [
        "route"
      ]
    },
    {
      "address_components": [
        {
          "long_name": "字鵜ノ木",
          "short_name": "字鵜ノ木",
          "types": [
            "political",
            "sublocality",
            "sublocality_level_2"
          ]
        },
        {
          "long_name": "五城目町",
          "short_name": "五城目町",
          "types": [
            "locality",
            "political"
          ]
        },
        {
          "long_name": "南秋田郡",
          "short_name": "南秋田郡",
          "types": [
            "administrative_area_level_2",
            "political"
          ]
        },
        {
          "long_name": "秋田県",
          "short_name": "秋田県",
          "types": [
            "administrative_area_level_1",
            "political"
          ]
        },
        {
          "long_name": "日本",
          "short_name": "JP",
          "types": [
            "country",
            "political"
          ]
        },
        {
          "long_name": "018-1722",
          "short_name": "018-1722",
          "types": [
            "postal_code"
          ]
        }
      ],
      "formatted_address": "日本、〒018-1722 秋田県南秋田郡五城目町字鵜ノ木",
      "geometry": {
        "bounds": {
          "northeast": {
            "lat": 39.945434,
            "lng": 140.1190579
          },
          "southwest": {
            "lat": 39.941236,
            "lng": 140.1122939
          }
        },
        "location": {
          "lat": 39.94360500000001,
          "lng": 140.1166111
        },
        "location_type": "APPROXIMATE",
        "viewport": {
          "northeast": {
            "lat": 39.945434,
            "lng": 140.1190579
          },
          "southwest": {
            "lat": 39.941236,
            "lng": 140.1122939
          }
        }
      },
      "place_id": "ChIJP3YDIRcDkF8RMopKO3ce_HA",
      "types": [
        "political",
        "sublocality",
        "sublocality_level_2"
      ]
    },
    {
      "address_components": [
        {
          "long_name": "018-1722",
          "short_name": "018-1722",
          "types": [
            "postal_code"
          ]
        },
        {
          "long_name": "字鵜ノ木",
          "short_name": "字鵜ノ木",
          "types": [
            "political",
            "sublocality",
            "sublocality_level_2"
          ]
        },
        {
          "long_name": "五城目町",
          "short_name": "五城目町",
          "types": [
            "locality",
            "political"
          ]
        },
        {
          "long_name": "南秋田郡",
          "short_name": "南秋田郡",
          "types": [
            "administrative_area_level_2",
            "political"
          ]
        },
        {
          "long_name": "秋田県",
          "short_name": "秋田県",
          "types": [
            "administrative_area_level_1",
            "political"
          ]
        },
        {
          "long_name": "日本",
          "short_name": "JP",
          "types": [
            "country",
            "political"
          ]
        }
      ],
      "formatted_address": "日本 〒018-1722",
      "geometry": {
        "bounds": {
          "northeast": {
            "lat": 39.9454339,
            "lng": 140.1190538
          },
          "southwest": {
            "lat": 39.9412356,
            "lng": 140.112294
          }
        },
        "location": {
          "lat": 39.94360500000001,
          "lng": 140.1166111
        },
        "location_type": "APPROXIMATE",
        "viewport": {
          "northeast": {
            "lat": 39.9454339,
            "lng": 140.1190538
          },
          "southwest": {
            "lat": 39.9412356,
            "lng": 140.112294
          }
        }
      },
      "place_id": "ChIJp-HKMBcDkF8R2kDBI7IR9Ss",
      "types": [
        "postal_code"
      ]
    },
    {
      "address_components": [
        {
          "long_name": "五城目町",
          "short_name": "五城目町",
          "types": [
            "locality",
            "political"
          ]
        },
        {
          "long_name": "南秋田郡",
          "short_name": "南秋田郡",
          "types": [
            "administrative_area_level_2",
            "political"
          ]
        },
        {
          "long_name": "秋田県",
          "short_name": "秋田県",
          "types": [
            "administrative_area_level_1",
            "political"
          ]
        },
        {
          "long_name": "日本",
          "short_name": "JP",
          "types": [
            "country",
            "political"
          ]
        }
      ],
      "formatted_address": "日本、秋田県南秋田郡五城目町",
      "geometry": {
        "bounds": {
          "northeast": {
            "lat": 40.01295,
            "lng": 140.3065219
          },
          "southwest": {
            "lat": 39.827055,
            "lng": 140.015862
          }
        },
        "location": {
          "lat": 39.9438973,
          "lng": 140.1115349
        },
        "location_type": "APPROXIMATE",
        "viewport": {
          "northeast": {
            "lat": 40.01295,
            "lng": 140.3065219
          },
          "southwest": {
            "lat": 39.827055,
            "lng": 140.015862
          }
        }
      },
      "place_id": "ChIJMbooL5sCkF8RuOf3Beh8rS0",
      "types": [
        "locality",
        "political"
      ]
    },
    {
      "address_components": [
        {
          "long_name": "南秋田郡",
          "short_name": "南秋田郡",
          "types": [
            "administrative_area_level_2",
            "political"
          ]
        },
        {
          "long_name": "秋田県",
          "short_name": "秋田県",
          "types": [
            "administrative_area_level_1",
            "political"
          ]
        },
        {
          "long_name": "日本",
          "short_name": "JP",
          "types": [
            "country",
            "political"
          ]
        }
      ],
      "formatted_address": "日本、秋田県南秋田郡",
      "geometry": {
        "bounds": {
          "northeast": {
            "lat": 40.0941936,
            "lng": 140.306522
          },
          "southwest": {
            "lat": 39.8270548,
            "lng": 139.9224724
          }
        },
        "location": {
          "lat": 39.9434931,
          "lng": 140.1450889
        },
        "location_type": "APPROXIMATE",
        "viewport": {
          "northeast": {
            "lat": 40.0941936,
            "lng": 140.306522
          },
          "southwest": {
            "lat": 39.8270548,
            "lng": 139.9224724
          }
        }
      },
      "place_id": "ChIJX2-AGngDkF8RhYXDCS8_mJc",
      "types": [
        "administrative_area_level_2",
        "political"
      ]
    },
    {
      "address_components": [
        {
          "long_name": "秋田県",
          "short_name": "秋田県",
          "types": [
            "administrative_area_level_1",
            "political"
          ]
        },
        {
          "long_name": "日本",
          "short_name": "JP",
          "types": [
            "country",
            "political"
          ]
        }
      ],
      "formatted_address": "日本、秋田県",
      "geometry": {
        "bounds": {
          "northeast": {
            "lat": 40.511142,
            "lng": 140.9953804
          },
          "southwest": {
            "lat": 38.873028,
            "lng": 139.6917816
          }
        },
        "location": {
          "lat": 40.1376293,
          "lng": 140.334341
        },
        "location_type": "APPROXIMATE",
        "viewport": {
          "northeast": {
            "lat": 40.511142,
            "lng": 140.9953804
          },
          "southwest": {
            "lat": 38.873028,
            "lng": 139.6917816
          }
        }
      },
      "place_id": "ChIJv_Eu0V7rj18REhxcYOz7fZo",
      "types": [
        "administrative_area_level_1",
        "political"
      ]
    },
    {
      "address_components": [
        {
          "long_name": "日本",
          "short_name": "JP",
          "types": [
            "country",
            "political"
          ]
        }
      ],
      "formatted_address": "日本",
      "geometry": {
        "bounds": {
          "northeast": {
            "lat": 45.6412626,
            "lng": 154.0031455
          },
          "southwest": {
            "lat": 20.3585295,
            "lng": 122.8554688
          }
        },
        "location": {
          "lat": 36.204824,
          "lng": 138.252924
        },
        "location_type": "APPROXIMATE",
        "viewport": {
          "northeast": {
            "lat": 45.6412626,
            "lng": 154.0031455
          },
          "southwest": {
            "lat": 20.3585295,
            "lng": 122.8554688
          }
        }
      },
      "place_id": "ChIJLxl_1w9OZzQRRFJmfNR1QvU",
      "types": [
        "country",
        "political"
      ]
    }
  ]
}