{
  "station": "小坂",
  "lat": 40.323828,
  "lng": 140.74555,
  "plus_code": {
    "compound_code": "8PFW+G6 日本、秋田県小坂町",
    "global_code": "8RG28PFW+G6"
  },
  "results": [
    {
      "address_components": [
        {
          "long_name": "２０",
          "short_name": "２０",
          "types": [
            "premise"
          ]
        },
        {
          "long_name": "古川",
          "short_name": "古川",
          "types": [
            "political",
            "sublocality",
            "sublocality_level_3"
          ]
        },
        {
          "long_name": "小坂鉱山",
          "short_name": "小坂鉱山",
          "types": [
            "political",
            "sublocality",
            "sublocality_level_2"
          ]
        },
        {
          "long_name": "小坂町",
          "short_name": "小坂町",
          "types": [
            "locality",
            "political"
          ]
        },
        {
          "long_name": "鹿角郡",
          "short_name": "鹿角郡",
          "types": [
            "administrative_area_level_2",
            "political"
          ]
        },
        {
          "long_name": "秋田県",
          "short_name": "秋田県",
          "types": [
            "administrative_area_level_1",
            "political"
          ]
        },
        {
          "long_name": "日本",
          "short_name": "JP",
          "types": [
            "country",
            "political"
          ]
        },
        {
          "long_name": "017-0202",
          "short_name": "017-0202",
          "types": [
            "postal_code"
          ]
        }
      ],
      "formatted_address": "日本、〒017-0202 秋田県鹿角郡小坂町小坂鉱山古川２０",
      "geometry": {
        "location": {
          "lat": 40.3238298,
          "lng": 140.7456337
        },
        "location_type": "ROOFTOP",
        "viewport": {
          "northeast": {
            "lat": 40.3251787802915,
            "lng": 140.7469826802915
          },
          "southwest": {
            "lat": 40.3224808197085,
            "lng": 140.7442847197085
          }
        }
      },
      "place_id": "ChIJNwsVdxjaml8Rp4zJqx0yLEw",
      "plus_code": {
        "compound_code": "8PFW+G7 日本、秋田県小坂町",
        "global_code": "8RG28PFW+G7"
      },
      "types": [
        "establishment",
        "point_of_interest"
      ]
    },
    {
      "address_components": [
        {
          "long_name": "２０−９",
          "short_name": "２０−９",
          "types": [
            "premise"
          ]
        },
        {
          "long_name": "古川",
          "short_name": "古川",
          "types": [
            "political",
            "sublocality",
            "sublocality_level_3"
          ]
        },
        {
          "long_name": "小坂鉱山",
          "short_name": "小坂鉱山",
          "types": [
            "political",
            "sublocality",
            "sublocality_level_2"
          ]
        },
        {
          "long_name": "小坂町",
          "short_name": "小坂町",
          "types": [
            "locality",
            "political"
          ]
        },
        {
          "long_name": "鹿角郡",
          "short_name": "鹿角郡",
          "types": [
            "administrative_area_level_2",
            "political"
          ]
        },
        {
          "long_name": "秋田県",
          "short_name": "秋田県",
          "types": [
            "administrative_area_level_1",
            "political"
          ]
        },
        {
          "long_name": "日本",
          "short_name": "JP",
          "types": [
            "country",
            "political"
          ]
        },
        {
          "long_name": "017-0202",
          "short_name": "017-0202",
          "types": [
            "postal_code"
          ]
        }
      ],
      "formatted_address": "日本、〒017-0202 秋田県鹿角郡小坂町小坂鉱山古川２０−９",
      "geometry": {
        "location": {
          "lat": 40.3242957,
          "lng": 140.745172
        },
        "location_type": "ROOFTOP",
        "viewport": {
          "northeast": {
            "lat": 40.3256446802915,
            "lng": 140.7465209802915
          },
          "southwest": {
            "lat": 40.3229467197085,
            "lng": 140.7438230197085
          }
        }
      },
      "place_id": "ChIJBdUfeBjaml8RKJbRsOtFOB4",
      "plus_code": {
        "compound_code": "8PFW+P3 日本、秋田県小坂町",
        "global_code": "8RG28PFW+P3"
      },
      "types": [
        "street_address"
      ]
    },
    {
      "address_components": [
        {
          "long_name": "３２−１",
          "short_name": "３２−１",
          "types": [
            "premise"
          ]
        },
        {
          "long_name": "古川",
          "short_name": "古川",
          "types": [
            "political",
            "sublocality",
            "sublocality_level_3"
          ]
        },
        {
          "long_name": "小坂鉱山",
          "short_name": "小坂鉱山",
          "types": [
            "political",
            "sublocality",
            "sublocality_level_2"
          ]
        },
        {
          "long_name": "小坂町",
          "short_name": "小坂町",
          "types": [
            "locality",
            "political"
          ]
        },
        {
          "long_name": "鹿角郡",
          "short_name": "鹿角郡",
          "types": [
            "administrative_area_level_2",
            "political"
          ]
        },
        {
          "long_name": "秋田県",
          "short_name": "秋田県",
          "types": [
            "administrative_area_level_1",
            "political"
          ]
        },
        {
          "long_name": "日本",
          "short_name": "JP",
          "types": [
            "country",
            "political"
          ]
        },
        {
          "long_name": "017-0202",
          "short_name": "017-0202",
          "types": [
            "postal_code"
          ]
        }
      ],
      "formatted_address": "日本、〒017-0202 秋田県鹿角郡小坂町小坂鉱山古川３２−１",
      "geometry": {
        "bounds": {
          "northeast": {
            "lat": 40.3239671,
            "lng": 140.7448689
          },
          "southwest": {
            "lat": 40.3237747,
            "lng": 140.7446839
          }
        },
        "location": {
          "lat": 40.3238882,
          "lng": 140.744799
        },
        "location_type": "ROOFTOP",
        "viewport": {
          "northeast": {
            "lat": 40.3252198802915,
            "lng": 140.7461253802915
          },
          "southwest": {
            "lat": 40.3225219197085,
            "lng": 140.7434274197085
          }
        }
      },
      "place_id": "ChIJn04InyLaml8RrBXv7ed0ipc",
      "types": [
        "premise"
      ]
    },
    {
      "address_components": [
        {
          "long_name": "樹海ライン",
          "short_name": "県道2号",
          "types": [
            "route"
          ]
        },
        {
          "long_name": "松ノ下",
          "short_name": "松ノ下",
          "types": [
            "political",
            "sublocality",
            "sublocality_level_3"
          ]
        },
        {
          "long_name": "小坂鉱山",
          "short_name": "小坂鉱山",
          "types": [
            "political",
            "sublocality",
            "sublocality_level_2"
          ]
        },
        {
          "long_name": "小坂町",
          "short_name": "小坂町",
          "types": [
            "locality",
            "political"
          ]
        },
        {
          "long_name": "鹿角郡",
          "short_name": "鹿角郡",
          "types": [
            "administrative_area_level_2",
            "political"
          ]
        },
        {
          "long_name": "秋田県",
          "short_name": "秋田県",
          "types": [
            "administrative_area_level_1",
            "political"
          ]
        },
        {
          "long_name": "日本",
          "short_name": "JP",
          "types": [
            "country",
            "political"
          ]
        },
        {
          "long_name": "017-0202",
          "short_name": "017-0202",
          "types": [
            "postal_code"
          ]
        }
      ],
      "formatted_address": "日本、〒017-0202 秋田県鹿角郡小坂町小坂鉱山松ノ下 樹海ライン",
      "geometry": {
        "bounds": {
          "northeast": {
            "lat": 40.3249194,
            "lng": 140.7455076
          },
          "southwest": {
            "lat": 40.3248481,
            "lng": 140.7450633
          }
        },
        "location": {
          "lat": 40.32488379999999,
          "lng": 140.7452854
        },
        "location_type": "GEOMETRIC_CENTER",
        "viewport": {
          "northeast": {
            "lat": 40.3262327302915,
            "lng": 140.7466344302915
          },
          "southwest": {
            "lat": 40.3235347697085,
            "lng": 140.7439364697085
          }
        }
      },
      "place_id": "ChIJIVPmYSLaml8RRI_ezAy1U2s",
      "types": [
        "route"
      ]
    },
    {
      "address_components": [
        {
          "long_name": "尾樽部",
          "short_name": "尾樽部",
          "types": [
            "political",
            "sublocality",
            "sublocality_level_3"
          ]
        },
        {
          "long_name": "小坂鉱山",
          "short_name": "小坂鉱山",
          "types": [
            "political",
            "sublocality",
            "sublocality_level_2"
          ]
        },
        {
          "long_name": "小坂町",
          "short_name": "小坂町",
          "types": [
            "locality",
            "political"
          ]
        },
        {
          "long_name": "鹿角郡",
          "short_name": "鹿角郡",
          "types": [
            "administrative_area_level_2",
            "political"
          ]
        },
        {
          "long_name": "秋田県",
          "short_name": "秋田県",
          "types": [
            "administrative_area_level_1",
            "political"
          ]
        },
        {
          "long_name": "日本",
          "short_name": "JP",
          "types": [
            "country",
            "political"
          ]
        },
        {
          "long_name": "017-0202",
          "short_name": "017-0202",
          "types": [
            "postal_code"
          ]
        }
      ],
      "formatted_address": "日本、〒017-0202 秋田県鹿角郡小坂町小坂鉱山尾樽部",
      "geometry": {
        "bounds": {
          "northeast": {
            "lat": 40.341032,
            "lng": 140.765874
          },
          "southwest": {
            "lat": 40.320701,
            "lng": 140.7394169
          }
        },
        "location": {
          "lat": 40.3331109,
          "lng": 140.7499627
        },
        "location_type": "APPROXIMATE",
        "viewport": {
          "northeast": {
            "lat": 40.341032,
            "lng": 140.765874
          },
          "southwest": {
            "lat": 40.320701,
            "lng": 140.7394169
          }
        }
      },
      "place_id": "ChIJX5lgg4rZml8RIy4gqcRtj7g",
      "types": [
        "political",
        "sublocality",
        "sublocality_level_3"
      ]
    },
    {
      "address_components": [
        {
          "long_name": "小坂鉱山",
          "short_name": "小坂鉱山",
          "types": [
            "political",
            "sublocality",
            "sublocality_level_2"
          ]
        },
        {
          "long_name": "小坂町",
          "short_name": "小坂町",
          "types": [
            "locality",
            "political"
          ]
        },
        {
          "long_name": "鹿角郡",
          "short_name": "鹿角郡",
          "types": [
            "administrative_area_level_2",
            "political"
          ]
        },
        {
          "long_name": "秋田県",
          "short_name": "秋田県",
          "types": [
            "administrative_area_level_1",
            "political"
          ]
        },
        {
          "long_name": "日本",
          "short_name": "JP",
          "types": [
            "country",
            "political"
          ]
        },
        {
          "long_name": "017-0202",
          "short_name": "017-0202",
          "types": [
            "postal_code"
          ]
        }
      ],
      "formatted_address": "日本、〒017-0202 秋田県鹿角郡小坂町小坂鉱山",
      "geometry": {
        "bounds": {
          "northeast": {
            "lat": 40.364328,
            "lng": 140.775047
          },
          "southwest": {
            "lat": 40.320143,
            "lng": 140.7345709
          }
        },
        "location": {
          "lat": 40.3533528,
          "lng": 140.7578363
        },
        "location_type": "APPROXIMATE",
        "viewport": {
          "northeast": {
            "lat": 40.364328,
            "lng": 140.775047
          },
          "southwest": {
            "lat": 40.320143,
            "lng": 140.7345709
          }
        }
      },
      "place_id": "ChIJHbWAd5vZml8R2iLt4e9gTuM",
      "types": [
        "political",
        "sublocality",
        "sublocality_level_2"
      ]
    },
    {
      "address_components": [
        {
          "long_name": "017-0202",
          "short_name": "017-0202",
          "types": [
            "postal_code"
          ]
        },
        {
          "long_name": "小坂鉱山",
          "short_name": "小坂鉱山",
          "types": [
            "political",
            "sublocality",
            "sublocality_level_2"
          ]
        },
        {
          "long_name": "小坂町",
          "short_name": "小坂町",
          "types": [
            "locality",
            "political"
          ]
        },
        {
          "long_name": "鹿角郡",
          "short_name": "鹿角郡",
          "types": [
            "administrative_area_level_2",
            "political"
          ]
        },
        {
          "long_name": "秋田県",
          "short_name": "秋田県",
          "types": [
            "administrative_area_level_1",
            "political"
          ]
        },
        {
          "long_name": "日本",
          "short_name": "JP",
          "types": [
            "country",
            "political"
          ]
        }
      ],
      "formatted_address": "日本 〒017-0202",
      "geometry": {
        "bounds": {
          "northeast": {
            "lat": 40.3643282,
            "lng": 140.7750473
          },
          "southwest": {
            "lat": 40.3201432,
            "lng": 140.7345496
          }
        },
        "location": {
          "lat": 40.3533528,
          "lng": 140.7578363
        },
        "location_type": "APPROXIMATE",
        "viewport": {
          "northeast": {
            "lat": 40.3643282,
            "lng": 140.7750473
          },
          "southwest": {
            "lat": 40.3201432,
            "lng": 140.7345496
          }
        }
      },
      "place_id": "ChIJPZstOSTaml8RkpYCXVyjNa4",
      "types": [
        "postal_code"
      ]
    },
    {
      "address_components": [
        {
          "long_name": "鹿角郡",
          "short_name": "鹿角郡",
          "types": [
            "administrative_area_level_2",
            "political"
          ]
        },
        {
          "long_name": "小坂町",
          "short_name": "小坂町",
          "types": [
            "locality",
            "political"
          ]
        },
        {
          "long_name": "秋田県",
          "short_name": "秋田県",
          "types": [
            "administrative_area_level_1",
            "political"
          ]
        },
        {
          "long_name": "日本",
          "short_name": "JP",
          "types": [
            "country",
            "political"
          ]
        }
      ],
      "formatted_address": "日本、秋田県鹿角郡小坂町",
      "geometry": {
        "bounds": {
          "northeast": {
            "lat": 40.511142,
            "lng": 140.9273151
          },
          "southwest": {
            "lat": 40.28222480000001,
            "lng": 140.6754229
          }
        },
        "location": {
          "lat": 40.4086334,
          "lng": 140.7860101
        },
        "location_type": "APPROXIMATE",
        "viewport": {
          "northeast": {
            "lat": 40.511142,
            "lng": 140.9273151
          },
          "southwest": {
            "lat": 40.28222480000001,
            "lng": 140.6754229
          }
        }
      },
      "place_id": "ChIJyzLV8FAnm18RJfeQCPNpUn0",
      "types": [
        "administrative_area_level_2",
        "political"
      ]
    },
    {
      "address_components": [
        {
          "long_name": "小坂町",
          "short_name": "小坂町",
          "types": [
            "locality",
            "political"
          ]
        },
        {
          "long_name": "鹿角郡",
          "short_name": "鹿角郡",
          "types": [
            "administrative_area_level_2",
            "political"
          ]
        },
        {
          "long_name": "秋田県",
          "short_name": "秋田県",
          "types": [
            "administrative_area_level_1",
            "political"
          ]
        },
        {
          "long_name": "日本",
          "short_name": "JP",
          "types": [
            "country",
            "political"
          ]
        }
      ],
      "formatted_address": "日本、秋田県鹿角郡小坂町",
      "geometry": {
        "bounds": {
          "northeast": {
            "lat": 40.5111419,
            "lng": 140.927315
          },
          "southwest": {
            "lat": 40.282225,
            "lng": 140.675423
          }
        },
        "location": {
          "lat": 40.3330883,
          "lng": 140.7360745
        },
        "location_type": "APPROXIMATE",
        "viewport": {
          "northeast": {
            "lat": 40.5111419,
            "lng": 140.927315
          },
          "southwest": {
            "lat": 40.282225,
            "lng": 140.675423
          }
        }
      },
      "place_id": "ChIJyzLV8FAnm18RTyh3MxgIXUs",
      "types": [
        "locality",
        "political"
      ]
    },
    {
      "address_components": [
        {
          "long_name": "秋田県",
          "short_name": "秋田県",
          "types": [
            "administrative_area_level_1",
            "political"
          ]
        },
        {
          "long_name": "日本",
          "short_name": "JP",
          "types": [
            "country",
            "political"
          ]
        }
      ],
      "formatted_address": "日本、秋田県",
      "geometry": {
        "bounds": {
          "northeast": {
            "lat": 40.511142,
            "lng": 140.9953804
          },
          "southwest": {
            "lat": 38.873028,
            "lng": 139.6917816
          }
        },
        "location": {
          "lat": 40.1376293,
          "lng": 140.334341
        },
        "location_type": "APPROXIMATE",
        "viewport": {
          "northeast": {
            "lat": 40.511142,
            "lng": 140.9953804
          },
          "southwest": {
            "lat": 38.873028,
            "lng": 139.6917816
          }
        }
      },
      "place_id": "ChIJv_Eu0V7rj18REhxcYOz7fZo",
      "types": [
        "administrative_area_level_1",
        "political"
      ]
    },
    {
      "address_components": [
        {
          "long_name": "日本",
          "short_name": "JP",
          "types": [
            "country",
            "political"
          ]
        }
      ],
      "formatted_address": "日本",
      "geometry": {
        "bounds": {
          "northeast": {
            "lat": 45.6412626,
            "lng": 154.0031455
          },
          "southwest": {
            "lat": 20.3585295,
            "lng": 122.8554688
          }
        },
        "location": {
          "lat": 36.204824,
          "lng": 138.252924
        },
        "location_type": "APPROXIMATE",
        "viewport": {
          "northeast": {
            "lat": 45.6412626,
            "lng": 154.0031455
          },
          "southwest": {
            "lat": 20.3585295,
            "lng": 122.8554688
          }
        }
      },
      "place_id": "ChIJLxl_1w9OZzQRRFJmfNR1QvU",
      "types": [
        "country",
        "political"
      ]
    }
  ]
}