{
  "station": "八幡宮前",
  "lat": 38.00742,
  "lng": 140.218866,
  "plus_code": {
    "compound_code": "2649+XG 日本、山形県高畠町",
    "global_code": "8RC22649+XG"
  },
  "results": [
    {
      "address_components": [
        {
          "long_name": "２０４３",
          "short_name": "２０４３",
          "types": [
            "premise"
          ]
        },
        {
          "long_name": "大字安久津",
          "short_name": "大字安久津",
          "types": [
            "political",
            "sublocality",
            "sublocality_level_2"
          ]
        },
        {
          "long_name": "高畠町",
          "short_name": "高畠町",
          "types": [
            "locality",
            "political"
          ]
        },
        {
          "long_name": "東置賜郡",
          "short_name": "東置賜郡",
          "types": [
            "administrative_area_level_2",
            "political"
          ]
        },
        {
          "long_name": "山形県",
          "short_name": "山形県",
          "types": [
            "administrative_area_level_1",
            "political"
          ]
        },
        {
          "long_name": "日本",
          "short_name": "JP",
          "types": [
            "country",
            "political"
          ]
        },
        {
          "long_name": "992-0302",
          "short_name": "992-0302",
          "types": [
            "postal_code"
          ]
        }
      ],
      "formatted_address": "日本、〒992-0302 山形県東置賜郡高畠町大字安久津２０４３",
      "geometry": {
        "location": {
          "lat": 38.0074863,
          "lng": 140.2187425
        },
        "location_type": "ROOFTOP",
        "viewport": {
          "northeast": {
            "lat": 38.0088352802915,
            "lng": 140.2200914802915
          },
          "southwest": {
            "lat": 38.0061373197085,
            "lng": 140.2173935197085
          }
        }
      },
      "place_id": "ChIJIWq6M85Xil8RfDDGSXJ3Hhs",
      "plus_code": {
        "compound_code": "2649+XF 日本、山形県高畠町",
        "global_code": "8RC22649+XF"
      },
      "types": [
        "street_address"
      ]
    },
    {
      "address_components": [
        {
          "long_name": "２０４３",
          "short_name": "２０４３",
          "types": [
            "premise"
          ]
        },
        {
          "long_name": "大字安久津",
          "short_name": "大字安久津",
          "types": [
            "political",
            "sublocality",
            "sublocality_level_2"
          ]
        },
        {
          "long_name": "高畠町",
          "short_name": "高畠町",
          "types": [
            "locality",
            "political"
          ]
        },
        {
          "long_name": "東置賜郡",
          "short_name": "東置賜郡",
          "types": [
            "administrative_area_level_2",
            "political"
          ]
        },
        {
          "long_name": "山形県",
          "short_name": "山形県",
          "types": [
            "administrative_area_level_1",
            "political"
          ]
        },
        {
          "long_name": "日本",
          "short_name": "JP",
          "types": [
            "country",
            "political"
          ]
        },
        {
          "long_name": "992-0302",
          "short_name": "992-0302",
          "types": [
            "postal_code"
          ]
        }
      ],
      "formatted_address": "日本、〒992-0302 山形県東置賜郡高畠町大字安久津２０４３",
      "geometry": {
        "location": {
          "lat": 38.0074702,
          "lng": 140.2182259
        },
        "location_type": "ROOFTOP",
        "viewport": {
          "northeast": {
            "lat": 38.0088191802915,
            "lng": 140.2195748802915
          },
          "southwest": {
            "lat": 38.0061212197085,
            "lng": 140.2168769197085
          }
        }
      },
      "place_id": "ChIJXyc_WztXil8RXEsOk4bENNc",
      "plus_code": {
        "compound_code": "2649+X7 日本、山形県高畠町",
        "global_code": "8RC22649+X7"
      },
      "types": [
        "establishment",
        "parking",
        "point_of_interest"
      ]
    },
    {
      "address_components": [
        {
          "long_name": "国道113号",
          "short_name": "国道113号",
          "types": [
            "route"
          ]
        },
        {
          "long_name": "大字安久津",
          "short_name": "大字安久津",
          "types": [
            "political",
            "sublocality",
            "sublocality_level_2"
          ]
        },
        {
          "long_name": "高畠町",
          "short_name": "高畠町",
          "types": [
            "locality",
            "political"
          ]
        },
        {
          "long_name": "東置賜郡",
          "short_name": "東置賜郡",
          "types": [
            "administrative_area_level_2",
            "political"
          ]
        },
        {
          "long_name": "山形県",
          "short_name": "山形県",
          "types": [
            "administrative_area_level_1",
            "political"
          ]
        },
        {
          "long_name": "日本",
          "short_name": "JP",
          "types": [
            "country",
            "political"
          ]
        },
        {
          "long_name": "992-0302",
          "short_name": "992-0302",
          "types": [
            "postal_code"
          ]
        }
      ],
      "formatted_address": "日本、〒992-0302 山形県東置賜郡高畠町大字安久津 国道113号",
      "geometry": {
        "bounds": {
          "northeast": {
            "lat": 38.007276,
            "lng": 140.2189975
          },
          "southwest": {
            "lat": 38.0072747,
            "lng": 140.2189637
          }
        },
        "location": {
          "lat": 38.0072754,
          "lng": 140.2189806
        },
        "location_type": "GEOMETRIC_CENTER",
        "viewport": {
          "northeast": {
            "lat": 38.0086243302915,
            "lng": 140.2203295802915
          },
          "southwest": {
            "lat": 38.0059263697085,
            "lng": 140.2176316197085
          }
        }
      },
      "place_id": "ChIJTQKVzM9Xil8RrJQAUqKkzJc",
      "types": [
        "route"
      ]
    },
    {
      "address_components": [
        {
          "long_name": "大字安久津",
          "short_name": "大字安久津",
          "types": [
            "political",
            "sublocality",
            "sublocality_level_2"
          ]
        },
        {
          "long_name": "高畠町",
          "short_name": "高畠町",
          "types": [
            "locality",
            "political"
          ]
        },
        {
          "long_name": "東置賜郡",
          "short_name": "東置賜郡",
          "types": [
            "administrative_area_level_2",
            "political"
          ]
        },
        {
          "long_name": "山形県",
          "short_name": "山形県",
          "types": [
            "administrative_area_level_1",
            "political"
          ]
        },
        {
          "long_name": "日本",
          "short_name": "JP",
          "types": [
            "country",
            "political"
          ]
        },
        {
          "long_name": "992-0302",
          "short_name": "992-0302",
          "types": [
            "postal_code"
          ]
        }
      ],
      "formatted_address": "日本、〒992-0302 山形県東置賜郡高畠町大字安久津",
      "geometry": {
        "bounds": {
          "northeast": {
            "lat": 38.055873,
            "lng": 140.25021
          },
          "southwest": {
            "lat": 37.979896,
            "lng": 140.2036551
          }
        },
        "location": {
          "lat": 38.022422,
          "lng": 140.2223182
        },
        "location_type": "APPROXIMATE",
        "viewport": {
          "northeast": {
            "lat": 38.055873,
            "lng": 140.25021
          },
          "southwest": {
            "lat": 37.979896,
            "lng": 140.2036551
          }
        }
      },
      "place_id": "ChIJe7_jA1tWil8Ritft6wozBNg",
      "types": [
        "political",
        "sublocality",
        "sublocality_level_2"
      ]
    },
    {
      "address_components": [
        {
          "long_name": "992-0302",
          "short_name": "992-0302",
          "types": [
            "postal_code"
          ]
        },
        {
          "long_name": "大字安久津",
          "short_name": "大字安久津",
          "types": [
            "political",
            "sublocality",
            "sublocality_level_2"
          ]
        },
        {
          "long_name": "高畠町",
          "short_name": "高畠町",
          "types": [
            "locality",
            "political"
          ]
        },
        {
          "long_name": "東置賜郡",
          "short_name": "東置賜郡",
          "types": [
            "administrative_area_level_2",
            "political"
          ]
        },
        {
          "long_name": "山形県",
          "short_name": "山形県",
          "types": [
            "administrative_area_level_1",
            "political"
          ]
        },
        {
          "long_name": "日本",
          "short_name": "JP",
          "types": [
            "country",
            "political"
          ]
        }
      ],
      "formatted_address": "日本 〒992-0302",
      "geometry": {
        "bounds": {
          "northeast": {
            "lat": 38.055873,
            "lng": 140.2502099
          },
          "southwest": {
            "lat": 37.9798958,
            "lng": 140.2036698
          }
        },
        "location": {
          "lat": 38.022422,
          "lng": 140.2223182
        },
        "location_type": "APPROXIMATE",
        "viewport": {
          "northeast": {
            "lat": 38.055873,
            "lng": 140.2502099
          },
          "southwest": {
            "lat": 37.9798958,
            "lng": 140.2036698
          }
        }
      },
      "place_id": "ChIJO-hwx3j4il8RG5vPzNllrmE",
      "types": [
        "postal_code"
      ]
    },
    {
      "address_components": [
        {
          "long_name": "高畠町",
          "short_name": "高畠町",
          "types": [
            "locality",
            "political"
          ]
        },
        {
          "long_name": "東置賜郡",
          "short_name": "東置賜郡",
          "types": [
            "administrative_area_level_2",
            "political"
          ]
        },
        {
          "long_name": "山形県",
          "short_name": "山形県",
          "types": [
            "administrative_area_level_1",
            "political"
          ]
        },
        {
          "long_name": "日本",
          "short_name": "JP",
          "types": [
            "country",
            "political"
          ]
        }
      ],
      "formatted_address": "日本、山形県東置賜郡高畠町",
      "geometry": {
        "bounds": {
          "northeast": {
            "lat": 38.082491,
            "lng": 140.2895769
          },
          "southwest": {
            "lat": 37.896123,
            "lng": 140.110555
          }
        },
        "location": {
          "lat": 38.0027438,
          "lng": 140.1892163
        },
        "location_type": "APPROXIMATE",
        "viewport": {
          "northeast": {
            "lat": 38.082491,
            "lng": 140.2895769
          },
          "southwest": {
            "lat": 37.896123,
            "lng": 140.110555
          }
        }
      },
      "place_id": "ChIJq2WtJWv4il8RQEQS4YQsaW8",
      "types": [
        "locality",
        "political"
      ]
    },
    {
      "address_components": [
        {
          "long_name": "東置賜郡",
          "short_name": "東置賜郡",
          "types": [
            "administrative_area_level_2",
            "political"
          ]
        },
        {
          "long_name": "山形県",
          "short_name": "山形県",
          "types": [
            "administrative_area_level_1",
            "political"
          ]
        },
        {
          "long_name": "日本",
          "short_name": "JP",
          "types": [
            "country",
            "political"
          ]
        }
      ],
      "formatted_address": "日本、山形県東置賜郡",
      "geometry": {
        "bounds": {
          "northeast": {
            "lat": 38.0824908,
            "lng": 140.289577
          },
          "southwest": {
            "lat": 37.8748041,
            "lng": 139.9217711
          }
        },
        "location": {
          "lat": 38.0138611,
          "lng": 140.0825132
        },
        "location_type": "APPROXIMATE",
        "viewport": {
          "northeast": {
            "lat": 38.0824908,
            "lng": 140.289577
          },
          "southwest": {
            "lat": 37.8748041,
            "lng": 139.9217711
          }
        }
      },
      "place_id": "ChIJm3YbFdj7il8RUd-NSY0t-yE",
      "types": [
        "administrative_area_level_2",
        "political"
      ]
    },
    {
      "address_components": [
        {
          "long_name": "山形県",
          "short_name": "山形県",
          "types": [
            "administrative_area_level_1",
            "political"
          ]
        },
        {
          "long_name": "日本",
          "short_name": "JP",
          "types": [
            "country",
            "political"
          ]
        }
      ],
      "formatted_address": "日本、山形県",
      "geometry": {
        "bounds": {
          "northeast": {
            "lat": 39.2155237,
            "lng": 140.6465095
          },
          "southwest": {
            "lat": 37.733865,
            "lng": 139.5199419
          }
        },
        "location": {
          "lat": 38.5370564,
          "lng": 140.1435198
        },
        "location_type": "APPROXIMATE",
        "viewport": {
          "northeast": {
            "lat": 39.2155237,
            "lng": 140.6465095
          },
          "southwest": {
            "lat": 37.733865,
            "lng": 139.5199419
          }
        }
      },
      "place_id": "ChIJbeLoh3fsi18RXo9kabDE3OY",
      "types": [
        "administrative_area_level_1",
        "political"
      ]
    },
    {
      "address_components": [
        {
          "long_name": "日本",
          "short_name": "JP",
          "types": [
            "country",
            "political"
          ]
        }
      ],
      "formatted_address": "日本",
      "geometry": {
        "bounds": {
          "northeast": {
            "lat": 45.6412626,
            "lng": 154.0031455
          },
          "southwest": {
            "lat": 20.3585295,
            "lng": 122.8554688
          }
        },
        "location": {
          "lat": 36.204824,
          "lng": 138.252924
        },
        "location_type": "APPROXIMATE",
        "viewport": {
          "northeast": {
            "lat": 45.6412626,
            "lng": 154.0031455
          },
          "southwest": {
            "lat": 20.3585295,
            "lng": 122.8554688
          }
        }
      },
      "place_id": "ChIJLxl_1w9OZzQRRFJmfNR1QvU",
      "types": [
        "country",
        "political"
      ]
    }
  ]
}