{
  "station": "西海味",
  "lat": 38.425355,
  "lng": 140.150108,
  "plus_code": {
    "compound_code": "C5G2+42 日本、山形県西川町",
    "global_code": "8RC2C5G2+42"
  },
  "results": [
    {
      "address_components": [
        {
          "long_name": "４８６",
          "short_name": "４８６",
          "types": [
            "premise"
          ]
        },
        {
          "long_name": "大字海味",
          "short_name": "大字海味",
          "types": [
            "political",
            "sublocality",
            "sublocality_level_2"
          ]
        },
        {
          "long_name": "西川町",
          "short_name": "西川町",
          "types": [
            "locality",
            "political"
          ]
        },
        {
          "long_name": "西村山郡",
          "short_name": "西村山郡",
          "types": [
            "administrative_area_level_2",
            "political"
          ]
        },
        {
          "long_name": "山形県",
          "short_name": "山形県",
          "types": [
            "administrative_area_level_1",
            "political"
          ]
        },
        {
          "long_name": "日本",
          "short_name": "JP",
          "types": [
            "country",
            "political"
          ]
        },
        {
          "long_name": "990-0702",
          "short_name": "990-0702",
          "types": [
            "postal_code"
          ]
        }
      ],
      "formatted_address": "日本、〒990-0702 山形県西村山郡西川町大字海味４８６",
      "geometry": {
        "location": {
          "lat": 38.4253264,
          "lng": 140.150047
        },
        "location_type": "ROOFTOP",
        "viewport": {
          "northeast": {
            "lat": 38.4266753802915,
            "lng": 140.1513959802915
          },
          "southwest": {
            "lat": 38.4239774197085,
            "lng": 140.1486980197085
          }
        }
      },
      "place_id": "ChIJXX5bvUvqi18RpNufzbdGlqQ",
      "plus_code": {
        "compound_code": "C5G2+42 日本、山形県西川町",
        "global_code": "8RC2C5G2+42"
      },
      "types": [
        "street_address"
      ]
    },
    {
      "address_components": [
        {
          "long_name": "４８６",
          "short_name": "４８６",
          "types": [
            "premise"
          ]
        },
        {
          "long_name": "大字海味",
          "short_name": "大字海味",
          "types": [
            "political",
            "sublocality",
            "sublocality_level_2"
          ]
        },
        {
          "long_name": "西川町",
          "short_name": "西川町",
          "types": [
            "locality",
            "political"
          ]
        },
        {
          "long_name": "西村山郡",
          "short_name": "西村山郡",
          "types": [
            "administrative_area_level_2",
            "political"
          ]
        },
        {
          "long_name": "山形県",
          "short_name": "山形県",
          "types": [
            "administrative_area_level_1",
            "political"
          ]
        },
        {
          "long_name": "日本",
          "short_name": "JP",
          "types": [
            "country",
            "political"
          ]
        },
        {
          "long_name": "990-0702",
          "short_name": "990-0702",
          "types": [
            "postal_code"
          ]
        }
      ],
      "formatted_address": "日本、〒990-0702 山形県西村山郡西川町大字海味４８６",
      "geometry": {
        "location": {
          "lat": 38.4254235,
          "lng": 140.1498887
        },
        "location_type": "ROOFTOP",
        "viewport": {
          "northeast": {
            "lat": 38.4267724802915,
            "lng": 140.1512376802915
          },
          "southwest": {
            "lat": 38.4240745197085,
            "lng": 140.1485397197085
          }
        }
      },
      "place_id": "ChIJ21XZ5Gbri18RsifRnq9TQX8",
      "plus_code": {
        "compound_code": "C4GX+5X 日本、山形県西川町",
        "global_code": "8RC2C4GX+5X"
      },
      "types": [
        "establishment",
        "point_of_interest"
      ]
    },
    {
      "address_components": [
        {
          "long_name": "国道112号",
          "short_name": "国道112号",
          "types": [
            "route"
          ]
        },
        {
          "long_name": "大字海味",
          "short_name": "大字海味",
          "types": [
            "political",
            "sublocality",
            "sublocality_level_2"
          ]
        },
        {
          "long_name": "西川町",
          "short_name": "西川町",
          "types": [
            "locality",
            "political"
          ]
        },
        {
          "long_name": "西村山郡",
          "short_name": "西村山郡",
          "types": [
            "administrative_area_level_2",
            "political"
          ]
        },
        {
          "long_name": "山形県",
          "short_name": "山形県",
          "types": [
            "administrative_area_level_1",
            "political"
          ]
        },
        {
          "long_name": "日本",
          "short_name": "JP",
          "types": [
            "country",
            "political"
          ]
        },
        {
          "long_name": "990-0702",
          "short_name": "990-0702",
          "types": [
            "postal_code"
          ]
        }
      ],
      "formatted_address": "日本、〒990-0702 山形県西村山郡西川町大字海味 国道112号",
      "geometry": {
        "bounds": {
          "northeast": {
            "lat": 38.42613160000001,
            "lng": 140.1511747
          },
          "southwest": {
            "lat": 38.4258965,
            "lng": 140.1505569
          }
        },
        "location": {
          "lat": 38.4260137,
          "lng": 140.1508656
        },
        "location_type": "GEOMETRIC_CENTER",
        "viewport": {
          "northeast": {
            "lat": 38.4273630302915,
            "lng": 140.1522147802915
          },
          "southwest": {
            "lat": 38.4246650697085,
            "lng": 140.1495168197085
          }
        }
      },
      "place_id": "ChIJCfmoVErqi18RhsafqF4X_5s",
      "types": [
        "route"
      ]
    },
    {
      "address_components": [
        {
          "long_name": "990-0702",
          "short_name": "990-0702",
          "types": [
            "postal_code"
          ]
        },
        {
          "long_name": "大字海味",
          "short_name": "大字海味",
          "types": [
            "political",
            "sublocality",
            "sublocality_level_2"
          ]
        },
        {
          "long_name": "西川町",
          "short_name": "西川町",
          "types": [
            "locality",
            "political"
          ]
        },
        {
          "long_name": "西村山郡",
          "short_name": "西村山郡",
          "types": [
            "administrative_area_level_2",
            "political"
          ]
        },
        {
          "long_name": "山形県",
          "short_name": "山形県",
          "types": [
            "administrative_area_level_1",
            "political"
          ]
        },
        {
          "long_name": "日本",
          "short_name": "JP",
          "types": [
            "country",
            "political"
          ]
        }
      ],
      "formatted_address": "日本 〒990-0702",
      "geometry": {
        "bounds": {
          "northeast": {
            "lat": 38.5015124,
            "lng": 140.1886296
          },
          "southwest": {
            "lat": 38.4190936,
            "lng": 140.1358999
          }
        },
        "location": {
          "lat": 38.46696350000001,
          "lng": 140.165359
        },
        "location_type": "APPROXIMATE",
        "viewport": {
          "northeast": {
            "lat": 38.5015124,
            "lng": 140.1886296
          },
          "southwest": {
            "lat": 38.4190936,
            "lng": 140.1358999
          }
        }
      },
      "place_id": "ChIJM_hAGkvqi18RrP4wwmszBYM",
      "types": [
        "postal_code"
      ]
    },
    {
      "address_components": [
        {
          "long_name": "大字海味",
          "short_name": "大字海味",
          "types": [
            "political",
            "sublocality",
            "sublocality_level_2"
          ]
        },
        {
          "long_name": "西川町",
          "short_name": "西川町",
          "types": [
            "locality",
            "political"
          ]
        },
        {
          "long_name": "西村山郡",
          "short_name": "西村山郡",
          "types": [
            "administrative_area_level_2",
            "political"
          ]
        },
        {
          "long_name": "山形県",
          "short_name": "山形県",
          "types": [
            "administrative_area_level_1",
            "political"
          ]
        },
        {
          "long_name": "日本",
          "short_name": "JP",
          "types": [
            "country",
            "political"
          ]
        },
        {
          "long_name": "990-0702",
          "short_name": "990-0702",
          "types": [
            "postal_code"
          ]
        }
      ],
      "formatted_address": "日本、〒990-0702 山形県西村山郡西川町大字海味",
      "geometry": {
        "bounds": {
          "northeast": {
            "lat": 38.501865,
            "lng": 140.18863
          },
          "southwest": {
            "lat": 38.418961,
            "lng": 140.135888
          }
        },
        "location": {
          "lat": 38.46696350000001,
          "lng": 140.165359
        },
        "location_type": "APPROXIMATE",
        "viewport": {
          "northeast": {
            "lat": 38.501865,
            "lng": 140.18863
          },
          "southwest": {
            "lat": 38.418961,
            "lng": 140.135888
          }
        }
      },
      "place_id": "ChIJUY2CGEPpi18RVwU9iwf9dxs",
      "types": [
        "political",
        "sublocality",
        "sublocality_level_2"
      ]
    },
    {
      "address_components": [
        {
          "long_name": "西川町",
          "short_name": "西川町",
          "types": [
            "locality",
            "political"
          ]
        },
        {
          "long_name": "西村山郡",
          "short_name": "西村山郡",
          "types": [
            "administrative_area_level_2",
            "political"
          ]
        },
        {
          "long_name": "山形県",
          "short_name": "山形県",
          "types": [
            "administrative_area_level_1",
            "political"
          ]
        },
        {
          "long_name": "日本",
          "short_name": "JP",
          "types": [
            "country",
            "political"
          ]
        }
      ],
      "formatted_address": "日本、山形県西村山郡西川町",
      "geometry": {
        "bounds": {
          "northeast": {
            "lat": 38.546739,
            "lng": 140.2054471
          },
          "southwest": {
            "lat": 38.263223,
            "lng": 139.874789
          }
        },
        "location": {
          "lat": 38.4264893,
          "lng": 140.1473672
        },
        "location_type": "APPROXIMATE",
        "viewport": {
          "northeast": {
            "lat": 38.546739,
            "lng": 140.2054471
          },
          "southwest": {
            "lat": 38.263223,
            "lng": 139.874789
          }
        }
      },
      "place_id": "ChIJ3aL-cJSUi18RQCS0gDxfHLA",
      "types": [
        "locality",
        "political"
      ]
    },
    {
      "address_components": [
        {
          "long_name": "西村山郡",
          "short_name": "西村山郡",
          "types": [
            "administrative_area_level_2",
            "political"
          ]
        },
        {
          "long_name": "山形県",
          "short_name": "山形県",
          "types": [
            "administrative_area_level_1",
            "political"
          ]
        },
        {
          "long_name": "日本",
          "short_name": "JP",
          "types": [
            "country",
            "political"
          ]
        }
      ],
      "formatted_address": "日本、山形県西村山郡",
      "geometry": {
        "bounds": {
          "northeast": {
            "lat": 38.5467393,
            "lng": 140.3471151
          },
          "southwest": {
            "lat": 38.179884,
            "lng": 139.8747891
          }
        },
        "location": {
          "lat": 38.385857,
          "lng": 140.0458354
        },
        "location_type": "APPROXIMATE",
        "viewport": {
          "northeast": {
            "lat": 38.5467393,
            "lng": 140.3471151
          },
          "southwest": {
            "lat": 38.179884,
            "lng": 139.8747891
          }
        }
      },
      "place_id": "ChIJl3_LgcO_i18RnngnwpErEy0",
      "types": [
        "administrative_area_level_2",
        "political"
      ]
    },
    {
      "address_components": [
        {
          "long_name": "山形県",
          "short_name": "山形県",
          "types": [
            "administrative_area_level_1",
            "political"
          ]
        },
        {
          "long_name": "日本",
          "short_name": "JP",
          "types": [
            "country",
            "political"
          ]
        }
      ],
      "formatted_address": "日本、山形県",
      "geometry": {
        "bounds": {
          "northeast": {
            "lat": 39.2155237,
            "lng": 140.6465095
          },
          "southwest": {
            "lat": 37.733865,
            "lng": 139.5199419
          }
        },
        "location": {
          "lat": 38.5370564,
          "lng": 140.1435198
        },
        "location_type": "APPROXIMATE",
        "viewport": {
          "northeast": {
            "lat": 39.2155237,
            "lng": 140.6465095
          },
          "southwest": {
            "lat": 37.733865,
            "lng": 139.5199419
          }
        }
      },
      "place_id": "ChIJbeLoh3fsi18RXo9kabDE3OY",
      "types": [
        "administrative_area_level_1",
        "political"
      ]
    },
    {
      "address_components": [
        {
          "long_name": "日本",
          "short_name": "JP",
          "types": [
            "country",
            "political"
          ]
        }
      ],
      "formatted_address": "日本",
      "geometry": {
        "bounds": {
          "northeast": {
            "lat": 45.6412626,
            "lng": 154.0031455
          },
          "southwest": {
            "lat": 20.3585295,
            "lng": 122.8554688
          }
        },
        "location": {
          "lat": 36.204824,
          "lng": 138.252924
        },
        "location_type": "APPROXIMATE",
        "viewport": {
          "northeast": {
            "lat": 45.6412626,
            "lng": 154.0031455
          },
          "southwest": {
            "lat": 20.3585295,
            "lng": 122.8554688
          }
        }
      },
      "place_id": "ChIJLxl_1w9OZzQRRFJmfNR1QvU",
      "types": [
        "country",
        "political"
      ]
    }
  ]
}