{
  "station": "水素前",
  "lat": 36.948853,
  "lng": 140.894264,
  "plus_code": {
    "compound_code": "WVXV+GP 日本、福島県いわき市",
    "global_code": "8R82WVXV+GP"
  },
  "results": [
    {
      "address_components": [
        {
          "long_name": "２−６",
          "short_name": "２−６",
          "types": [
            "premise"
          ]
        },
        {
          "long_name": "渚廻",
          "short_name": "渚廻",
          "types": [
            "political",
            "sublocality",
            "sublocality_level_3"
          ]
        },
        {
          "long_name": "小名浜",
          "short_name": "小名浜",
          "types": [
            "political",
            "sublocality",
            "sublocality_level_2"
          ]
        },
        {
          "long_name": "いわき市",
          "short_name": "いわき市",
          "types": [
            "locality",
            "political"
          ]
        },
        {
          "long_name": "福島県",
          "short_name": "福島県",
          "types": [
            "administrative_area_level_1",
            "political"
          ]
        },
        {
          "long_name": "日本",
          "short_name": "JP",
          "types": [
            "country",
            "political"
          ]
        },
        {
          "long_name": "971-8101",
          "short_name": "971-8101",
          "types": [
            "postal_code"
          ]
        }
      ],
      "formatted_address": "日本、〒971-8101 福島県いわき市小名浜渚廻２−６",
      "geometry": {
        "location": {
          "lat": 36.948693,
          "lng": 140.894335
        },
        "location_type": "ROOFTOP",
        "viewport": {
          "northeast": {
            "lat": 36.9500419802915,
            "lng": 140.8956839802915
          },
          "southwest": {
            "lat": 36.9473440197085,
            "lng": 140.8929860197085
          }
        }
      },
      "place_id": "ChIJTzVIlyUTIWAR927UPUqjhWg",
      "plus_code": {
        "compound_code": "WVXV+FP 日本、福島県いわき市",
        "global_code": "8R82WVXV+FP"
      },
      "types": [
        "establishment",
        "point_of_interest"
      ]
    },
    {
      "address_components": [
        {
          "long_name": "２１４−３",
          "short_name": "２１４−３",
          "types": [
            "premise"
          ]
        },
        {
          "long_name": "隼人",
          "short_name": "隼人",
          "types": [
            "political",
            "sublocality",
            "sublocality_level_3"
          ]
        },
        {
          "long_name": "小名浜",
          "short_name": "小名浜",
          "types": [
            "political",
            "sublocality",
            "sublocality_level_2"
          ]
        },
        {
          "long_name": "いわき市",
          "short_name": "いわき市",
          "types": [
            "locality",
            "political"
          ]
        },
        {
          "long_name": "福島県",
          "short_name": "福島県",
          "types": [
            "administrative_area_level_1",
            "political"
          ]
        },
        {
          "long_name": "日本",
          "short_name": "JP",
          "types": [
            "country",
            "political"
          ]
        },
        {
          "long_name": "971-8101",
          "short_name": "971-8101",
          "types": [
            "postal_code"
          ]
        }
      ],
      "formatted_address": "日本、〒971-8101 福島県いわき市小名浜隼人２１４−３",
      "geometry": {
        "bounds": {
          "northeast": {
            "lat": 36.9488443,
            "lng": 140.894091
          },
          "southwest": {
            "lat": 36.9487855,
            "lng": 140.8939756
          }
        },
        "location": {
          "lat": 36.9488181,
          "lng": 140.8940266
        },
        "location_type": "ROOFTOP",
        "viewport": {
          "northeast": {
            "lat": 36.95016388029151,
            "lng": 140.8953822802915
          },
          "southwest": {
            "lat": 36.94746591970851,
            "lng": 140.8926843197085
          }
        }
      },
      "place_id": "ChIJcREeviUTIWARgKDD0w-qaPQ",
      "types": [
        "premise"
      ]
    },
    {
      "address_components": [
        {
          "long_name": "２０３−１",
          "short_name": "２０３−１",
          "types": [
            "premise"
          ]
        },
        {
          "long_name": "隼人",
          "short_name": "隼人",
          "types": [
            "political",
            "sublocality",
            "sublocality_level_3"
          ]
        },
        {
          "long_name": "小名浜",
          "short_name": "小名浜",
          "types": [
            "political",
            "sublocality",
            "sublocality_level_2"
          ]
        },
        {
          "long_name": "いわき市",
          "short_name": "いわき市",
          "types": [
            "locality",
            "political"
          ]
        },
        {
          "long_name": "福島県",
          "short_name": "福島県",
          "types": [
            "administrative_area_level_1",
            "political"
          ]
        },
        {
          "long_name": "日本",
          "short_name": "JP",
          "types": [
            "country",
            "political"
          ]
        },
        {
          "long_name": "971-8101",
          "short_name": "971-8101",
          "types": [
            "postal_code"
          ]
        }
      ],
      "formatted_address": "日本、〒971-8101 福島県いわき市小名浜隼人２０３−１",
      "geometry": {
        "location": {
          "lat": 36.9490208,
          "lng": 140.8943874
        },
        "location_type": "ROOFTOP",
        "viewport": {
          "northeast": {
            "lat": 36.9503697802915,
            "lng": 140.8957363802915
          },
          "southwest": {
            "lat": 36.9476718197085,
            "lng": 140.8930384197085
          }
        }
      },
      "place_id": "ChIJv5kloyUTIWAR-6k2OclvigI",
      "plus_code": {
        "compound_code": "WVXV+JQ 日本、福島県いわき市",
        "global_code": "8R82WVXV+JQ"
      },
      "types": [
        "street_address"
      ]
    },
    {
      "address_components": [
        {
          "long_name": "Unnamed Road",
          "short_name": "Unnamed Road",
          "types": [
            "route"
          ]
        },
        {
          "long_name": "隼人",
          "short_name": "隼人",
          "types": [
            "political",
            "sublocality",
            "sublocality_level_3"
          ]
        },
        {
          "long_name": "小名浜",
          "short_name": "小名浜",
          "types": [
            "political",
            "sublocality",
            "sublocality_level_2"
          ]
        },
        {
          "long_name": "いわき市",
          "short_name": "いわき市",
          "types": [
            "locality",
            "political"
          ]
        },
        {
          "long_name": "福島県",
          "short_name": "福島県",
          "types": [
            "administrative_area_level_1",
            "political"
          ]
        },
        {
          "long_name": "日本",
          "short_name": "JP",
          "types": [
            "country",
            "political"
          ]
        },
        {
          "long_name": "971-8101",
          "short_name": "971-8101",
          "types": [
            "postal_code"
          ]
        }
      ],
      "formatted_address": "Unnamed Road, 隼人 小名浜 いわき市 福島県 971-8101 日本",
      "geometry": {
        "bounds": {
          "northeast": {
            "lat": 36.9493365,
            "lng": 140.8940508
          },
          "southwest": {
            "lat": 36.9490396,
            "lng": 140.8939387
          }
        },
        "location": {
          "lat": 36.9491881,
          "lng": 140.8939948
        },
        "location_type": "GEOMETRIC_CENTER",
        "viewport": {
          "northeast": {
            "lat": 36.9505370302915,
            "lng": 140.8953437302915
          },
          "southwest": {
            "lat": 36.9478390697085,
            "lng": 140.8926457697085
          }
        }
      },
      "place_id": "ChIJt_mxuSUTIWARwKt7e1kYQhA",
      "types": [
        "route"
      ]
    },
    {
      "address_components": [
        {
          "long_name": "隼人",
          "short_name": "隼人",
          "types": [
            "political",
            "sublocality",
            "sublocality_level_3"
          ]
        },
        {
          "long_name": "小名浜",
          "short_name": "小名浜",
          "types": [
            "political",
            "sublocality",
            "sublocality_level_2"
          ]
        },
        {
          "long_name": "いわき市",
          "short_name": "いわき市",
          "types": [
            "locality",
            "political"
          ]
        },
        {
          "long_name": "福島県",
          "short_name": "福島県",
          "types": [
            "administrative_area_level_1",
            "political"
          ]
        },
        {
          "long_name": "日本",
          "short_name": "JP",
          "types": [
            "country",
            "political"
          ]
        },
        {
          "long_name": "971-8101",
          "short_name": "971-8101",
          "types": [
            "postal_code"
          ]
        }
      ],
      "formatted_address": "日本、〒971-8101 福島県いわき市小名浜隼人",
      "geometry": {
        "bounds": {
          "northeast": {
            "lat": 36.9506661,
            "lng": 140.8975219
          },
          "southwest": {
            "lat": 36.94769000000001,
            "lng": 140.891631
          }
        },
        "location": {
          "lat": 36.949535,
          "lng": 140.8944231
        },
        "location_type": "APPROXIMATE",
        "viewport": {
          "northeast": {
            "lat": 36.9506661,
            "lng": 140.8975219
          },
          "southwest": {
            "lat": 36.94769000000001,
            "lng": 140.891631
          }
        }
      },
      "place_id": "ChIJl08CoyUTIWAR3pPXoWhgoes",
      "types": [
        "political",
        "sublocality",
        "sublocality_level_3"
      ]
    },
    {
      "address_components": [
        {
          "long_name": "971-8101",
          "short_name": "971-8101",
          "types": [
            "postal_code"
          ]
        },
        {
          "long_name": "小名浜",
          "short_name": "小名浜",
          "types": [
            "political",
            "sublocality",
            "sublocality_level_2"
          ]
        },
        {
          "long_name": "いわき市",
          "short_name": "いわき市",
          "types": [
            "locality",
            "political"
          ]
        },
        {
          "long_name": "福島県",
          "short_name": "福島県",
          "types": [
            "administrative_area_level_1",
            "political"
          ]
        },
        {
          "long_name": "日本",
          "short_name": "JP",
          "types": [
            "country",
            "political"
          ]
        }
      ],
      "formatted_address": "日本 〒971-8101",
      "geometry": {
        "bounds": {
          "northeast": {
            "lat": 36.9556466,
            "lng": 140.917345
          },
          "southwest": {
            "lat": 36.9080755,
            "lng": 140.8670733
          }
        },
        "location": {
          "lat": 36.9424912,
          "lng": 140.8924708
        },
        "location_type": "APPROXIMATE",
        "viewport": {
          "northeast": {
            "lat": 36.9556466,
            "lng": 140.917345
          },
          "southwest": {
            "lat": 36.9080755,
            "lng": 140.8670733
          }
        }
      },
      "place_id": "ChIJ_4PO7S4TIWARZuurvr9QarQ",
      "types": [
        "postal_code"
      ]
    },
    {
      "address_components": [
        {
          "long_name": "小名浜",
          "short_name": "小名浜",
          "types": [
            "political",
            "sublocality",
            "sublocality_level_2"
          ]
        },
        {
          "long_name": "いわき市",
          "short_name": "いわき市",
          "types": [
            "locality",
            "political"
          ]
        },
        {
          "long_name": "福島県",
          "short_name": "福島県",
          "types": [
            "administrative_area_level_1",
            "political"
          ]
        },
        {
          "long_name": "日本",
          "short_name": "JP",
          "types": [
            "country",
            "political"
          ]
        },
        {
          "long_name": "971-8101",
          "short_name": "971-8101",
          "types": [
            "postal_code"
          ]
        }
      ],
      "formatted_address": "日本、〒971-8101 福島県いわき市小名浜",
      "geometry": {
        "bounds": {
          "northeast": {
            "lat": 36.955647,
            "lng": 140.917345
          },
          "southwest": {
            "lat": 36.9080761,
            "lng": 140.867073
          }
        },
        "location": {
          "lat": 36.9424912,
          "lng": 140.8924708
        },
        "location_type": "APPROXIMATE",
        "viewport": {
          "northeast": {
            "lat": 36.955647,
            "lng": 140.917345
          },
          "southwest": {
            "lat": 36.9080761,
            "lng": 140.867073
          }
        }
      },
      "place_id": "ChIJ2fyK0i4TIWAR8SSkj4ROP6A",
      "types": [
        "political",
        "sublocality",
        "sublocality_level_2"
      ]
    },
    {
      "address_components": [
        {
          "long_name": "いわき市",
          "short_name": "いわき市",
          "types": [
            "locality",
            "political"
          ]
        },
        {
          "long_name": "福島県",
          "short_name": "福島県",
          "types": [
            "administrative_area_level_1",
            "political"
          ]
        },
        {
          "long_name": "日本",
          "short_name": "JP",
          "types": [
            "country",
            "political"
          ]
        }
      ],
      "formatted_address": "日本、福島県いわき市",
      "geometry": {
        "bounds": {
          "northeast": {
            "lat": 37.319547,
            "lng": 141.005506
          },
          "southwest": {
            "lat": 36.856071,
            "lng": 140.5659039
          }
        },
        "location": {
          "lat": 37.0505055,
          "lng": 140.8877435
        },
        "location_type": "APPROXIMATE",
        "viewport": {
          "northeast": {
            "lat": 37.319547,
            "lng": 141.005506
          },
          "southwest": {
            "lat": 36.856071,
            "lng": 140.5659039
          }
        }
      },
      "place_id": "ChIJx4sg1UcEIWARU3QHKNgEeoA",
      "types": [
        "locality",
        "political"
      ]
    },
    {
      "address_components": [
        {
          "long_name": "福島県",
          "short_name": "福島県",
          "types": [
            "administrative_area_level_1",
            "political"
          ]
        },
        {
          "long_name": "日本",
          "short_name": "JP",
          "types": [
            "country",
            "political"
          ]
        }
      ],
      "formatted_address": "日本、福島県",
      "geometry": {
        "bounds": {
          "northeast": {
            "lat": 37.9766021,
            "lng": 141.0435502
          },
          "southwest": {
            "lat": 36.79133849999999,
            "lng": 139.1647356
          }
        },
        "location": {
          "lat": 37.3834373,
          "lng": 140.1832516
        },
        "location_type": "APPROXIMATE",
        "viewport": {
          "northeast": {
            "lat": 37.9766021,
            "lng": 141.0435502
          },
          "southwest": {
            "lat": 36.79133849999999,
            "lng": 139.1647356
          }
        }
      },
      "place_id": "ChIJL9XcbYEEIGARXEbW0MGmHzQ",
      "types": [
        "administrative_area_level_1",
        "political"
      ]
    },
    {
      "address_components": [
        {
          "long_name": "日本",
          "short_name": "JP",
          "types": [
            "country",
            "political"
          ]
        }
      ],
      "formatted_address": "日本",
      "geometry": {
        "bounds": {
          "northeast": {
            "lat": 45.6412626,
            "lng": 154.0031455
          },
          "southwest": {
            "lat": 20.3585295,
            "lng": 122.8554688
          }
        },
        "location": {
          "lat": 36.204824,
          "lng": 138.252924
        },
        "location_type": "APPROXIMATE",
        "viewport": {
          "northeast": {
            "lat": 45.6412626,
            "lng": 154.0031455
          },
          "southwest": {
            "lat": 20.3585295,
            "lng": 122.8554688
          }
        }
      },
      "place_id": "ChIJLxl_1w9OZzQRRFJmfNR1QvU",
      "types": [
        "country",
        "political"
      ]
    }
  ]
}