{
  "station": "昌平橋",
  "lat": 35.698281,
  "lng": 139.768583,
  "plus_code": {
    "compound_code": "MQX9+8C 日本、東京都東京",
    "global_code": "8Q7XMQX9+8C"
  },
  "results": [
    {
      "address_components": [
        {
          "long_name": "３",
          "short_name": "３",
          "types": [
            "premise"
          ]
        },
        {
          "long_name": "９",
          "short_name": "９",
          "types": [
            "political",
            "sublocality",
            "sublocality_level_4"
          ]
        },
        {
          "long_name": "２丁目",
          "short_name": "２丁目",
          "types": [
            "political",
            "sublocality",
            "sublocality_level_3"
          ]
        },
        {
          "long_name": "神田淡路町",
          "short_name": "神田淡路町",
          "types": [
            "political",
            "sublocality",
            "sublocality_level_2"
          ]
        },
        {
          "long_name": "千代田区",
          "short_name": "千代田区",
          "types": [
            "locality",
            "political"
          ]
        },
        {
          "long_name": "東京都",
          "short_name": "東京都",
          "types": [
            "administrative_area_level_1",
            "political"
          ]
        },
        {
          "long_name": "日本",
          "short_name": "JP",
          "types": [
            "country",
            "political"
          ]
        },
        {
          "long_name": "101-0063",
          "short_name": "101-0063",
          "types": [
            "postal_code"
          ]
        }
      ],
      "formatted_address": "日本、〒101-0063 東京都千代田区神田淡路町２丁目９−３",
      "geometry": {
        "location": {
          "lat": 35.6982713,
          "lng": 139.7681575
        },
        "location_type": "ROOFTOP",
        "viewport": {
          "northeast": {
            "lat": 35.6996202802915,
            "lng": 139.7695064802915
          },
          "southwest": {
            "lat": 35.6969223197085,
            "lng": 139.7668085197085
          }
        }
      },
      "place_id": "ChIJ1cNdhxyMGGARmy6B2U2ccwo",
      "plus_code": {
        "compound_code": "MQX9+87 日本、東京都 東京",
        "global_code": "8Q7XMQX9+87"
      },
      "types": [
        "street_address"
      ]
    },
    {
      "address_components": [
        {
          "long_name": "旧中山道",
          "short_name": "都道405号",
          "types": [
            "route"
          ]
        },
        {
          "long_name": "１丁目",
          "short_name": "１丁目",
          "types": [
            "political",
            "sublocality",
            "sublocality_level_3"
          ]
        },
        {
          "long_name": "神田須田町",
          "short_name": "神田須田町",
          "types": [
            "political",
            "sublocality",
            "sublocality_level_2"
          ]
        },
        {
          "long_name": "千代田区",
          "short_name": "千代田区",
          "types": [
            "locality",
            "political"
          ]
        },
        {
          "long_name": "東京都",
          "short_name": "東京都",
          "types": [
            "administrative_area_level_1",
            "political"
          ]
        },
        {
          "long_name": "日本",
          "short_name": "JP",
          "types": [
            "country",
            "political"
          ]
        },
        {
          "long_name": "101-0041",
          "short_name": "101-0041",
          "types": [
            "postal_code"
          ]
        }
      ],
      "formatted_address": "日本、〒101-0041 東京都千代田区神田須田町１丁目 旧中山道",
      "geometry": {
        "bounds": {
          "northeast": {
            "lat": 35.698256,
            "lng": 139.7688104
          },
          "southwest": {
            "lat": 35.6981022,
            "lng": 139.7687018
          }
        },
        "location": {
          "lat": 35.6981791,
          "lng": 139.7687561
        },
        "location_type": "GEOMETRIC_CENTER",
        "viewport": {
          "northeast": {
            "lat": 35.6995280802915,
            "lng": 139.7701050802915
          },
          "southwest": {
            "lat": 35.69683011970851,
            "lng": 139.7674071197085
          }
        }
      },
      "place_id": "ChIJxZoejByMGGARrmJYq5rh7sI",
      "types": [
        "route"
      ]
    },
    {
      "address_components": [
        {
          "long_name": "２丁目",
          "short_name": "２丁目",
          "types": [
            "political",
            "sublocality",
            "sublocality_level_3"
          ]
        },
        {
          "long_name": "神田淡路町",
          "short_name": "神田淡路町",
          "types": [
            "political",
            "sublocality",
            "sublocality_level_2"
          ]
        },
        {
          "long_name": "千代田区",
          "short_name": "千代田区",
          "types": [
            "locality",
            "political"
          ]
        },
        {
          "long_name": "東京都",
          "short_name": "東京都",
          "types": [
            "administrative_area_level_1",
            "political"
          ]
        },
        {
          "long_name": "日本",
          "short_name": "JP",
          "types": [
            "country",
            "political"
          ]
        },
        {
          "long_name": "101-0063",
          "short_name": "101-0063",
          "types": [
            "postal_code"
          ]
        }
      ],
      "formatted_address": "日本、〒101-0063 東京都千代田区神田淡路町２丁目",
      "geometry": {
        "bounds": {
          "northeast": {
            "lat": 35.69911,
            "lng": 139.769225
          },
          "southwest": {
            "lat": 35.69598,
            "lng": 139.7659459
          }
        },
        "location": {
          "lat": 35.6971459,
          "lng": 139.7674443
        },
        "location_type": "APPROXIMATE",
        "viewport": {
          "northeast": {
            "lat": 35.69911,
            "lng": 139.769225
          },
          "southwest": {
            "lat": 35.69598,
            "lng": 139.7659459
          }
        }
      },
      "place_id": "ChIJhabYfBuMGGARwdodQEK99pE",
      "types": [
        "political",
        "sublocality",
        "sublocality_level_3"
      ]
    },
    {
      "address_components": [
        {
          "long_name": "101-0063",
          "short_name": "101-0063",
          "types": [
            "postal_code"
          ]
        },
        {
          "long_name": "神田淡路町",
          "short_name": "神田淡路町",
          "types": [
            "political",
            "sublocality",
            "sublocality_level_2"
          ]
        },
        {
          "long_name": "千代田区",
          "short_name": "千代田区",
          "types": [
            "locality",
            "political"
          ]
        },
        {
          "long_name": "東京都",
          "short_name": "東京都",
          "types": [
            "administrative_area_level_1",
            "political"
          ]
        },
        {
          "long_name": "日本",
          "short_name": "JP",
          "types": [
            "country",
            "political"
          ]
        }
      ],
      "formatted_address": "日本 〒101-0063",
      "geometry": {
        "bounds": {
          "northeast": {
            "lat": 35.6991102,
            "lng": 139.7692254
          },
          "southwest": {
            "lat": 35.6952259,
            "lng": 139.7654929
          }
        },
        "location": {
          "lat": 35.6971459,
          "lng": 139.7674443
        },
        "location_type": "APPROXIMATE",
        "viewport": {
          "northeast": {
            "lat": 35.6991102,
            "lng": 139.7692254
          },
          "southwest": {
            "lat": 35.6952259,
            "lng": 139.7654929
          }
        }
      },
      "place_id": "ChIJM5hMWxuMGGARLG5ZgtdAyJU",
      "types": [
        "postal_code"
      ]
    },
    {
      "address_components": [
        {
          "long_name": "神田淡路町",
          "short_name": "神田淡路町",
          "types": [
            "political",
            "sublocality",
            "sublocality_level_2"
          ]
        },
        {
          "long_name": "千代田区",
          "short_name": "千代田区",
          "types": [
            "locality",
            "political"
          ]
        },
        {
          "long_name": "東京都",
          "short_name": "東京都",
          "types": [
            "administrative_area_level_1",
            "political"
          ]
        },
        {
          "long_name": "日本",
          "short_name": "JP",
          "types": [
            "country",
            "political"
          ]
        },
        {
          "long_name": "101-0063",
          "short_name": "101-0063",
          "types": [
            "postal_code"
          ]
        }
      ],
      "formatted_address": "日本、〒101-0063 東京都千代田区神田淡路町",
      "geometry": {
        "bounds": {
          "northeast": {
            "lat": 35.69911,
            "lng": 139.769225
          },
          "southwest": {
            "lat": 35.695226,
            "lng": 139.7654929
          }
        },
        "location": {
          "lat": 35.6971459,
          "lng": 139.7674443
        },
        "location_type": "APPROXIMATE",
        "viewport": {
          "northeast": {
            "lat": 35.69911,
            "lng": 139.769225
          },
          "southwest": {
            "lat": 35.695226,
            "lng": 139.7654929
          }
        }
      },
      "place_id": "ChIJ8TYWZBuMGGARXL4kBAkuGO4",
      "types": [
        "political",
        "sublocality",
        "sublocality_level_2"
      ]
    },
    {
      "address_components": [
        {
          "long_name": "神田",
          "short_name": "神田",
          "types": [
            "neighborhood",
            "political"
          ]
        },
        {
          "long_name": "千代田区",
          "short_name": "千代田区",
          "types": [
            "locality",
            "political"
          ]
        },
        {
          "long_name": "東京都",
          "short_name": "東京都",
          "types": [
            "administrative_area_level_1",
            "political"
          ]
        },
        {
          "long_name": "日本",
          "short_name": "JP",
          "types": [
            "country",
            "political"
          ]
        }
      ],
      "formatted_address": "日本、東京都千代田区 神田",
      "geometry": {
        "bounds": {
          "northeast": {
            "lat": 35.7052304,
            "lng": 139.7828507
          },
          "southwest": {
            "lat": 35.6886003,
            "lng": 139.7507421
          }
        },
        "location": {
          "lat": 35.6954378,
          "lng": 139.7675549
        },
        "location_type": "APPROXIMATE",
        "viewport": {
          "northeast": {
            "lat": 35.7052304,
            "lng": 139.7828507
          },
          "southwest": {
            "lat": 35.6886003,
            "lng": 139.7507421
          }
        }
      },
      "place_id": "ChIJy2l7vwh7GGAR_CyRCFDKCWw",
      "types": [
        "neighborhood",
        "political"
      ]
    },
    {
      "address_components": [
        {
          "long_name": "千代田区",
          "short_name": "千代田区",
          "types": [
            "locality",
            "political"
          ]
        },
        {
          "long_name": "東京都",
          "short_name": "東京都",
          "types": [
            "administrative_area_level_1",
            "political"
          ]
        },
        {
          "long_name": "日本",
          "short_name": "JP",
          "types": [
            "country",
            "political"
          ]
        }
      ],
      "formatted_address": "日本、東京都千代田区",
      "geometry": {
        "bounds": {
          "northeast": {
            "lat": 35.705258,
            "lng": 139.7827769
          },
          "southwest": {
            "lat": 35.668471,
            "lng": 139.7299051
          }
        },
        "location": {
          "lat": 35.6940309,
          "lng": 139.7537719
        },
        "location_type": "APPROXIMATE",
        "viewport": {
          "northeast": {
            "lat": 35.705258,
            "lng": 139.7827769
          },
          "southwest": {
            "lat": 35.668471,
            "lng": 139.7299051
          }
        }
      },
      "place_id": "ChIJTfUTCwyMGGARiIHk7juVMLY",
      "types": [
        "locality",
        "political"
      ]
    },
    {
      "address_components": [
        {
          "long_name": "東京",
          "short_name": "東京",
          "types": [
            "colloquial_area",
            "locality",
            "political"
          ]
        },
        {
          "long_name": "東京都",
          "short_name": "東京都",
          "types": [
            "administrative_area_level_1",
            "political"
          ]
        },
        {
          "long_name": "日本",
          "short_name": "JP",
          "types": [
            "country",
            "political"
          ]
        }
      ],
      "formatted_address": "日本、東京都東京",
      "geometry": {
        "bounds": {
          "northeast": {
            "lat": 35.8174453,
            "lng": 139.9188743
          },
          "southwest": {
            "lat": 35.519042,
            "lng": 139.5628611
          }
        },
        "location": {
          "lat": 35.6803997,
          "lng": 139.7690174
        },
        "location_type": "APPROXIMATE",
        "viewport": {
          "northeast": {
            "lat": 35.8174453,
            "lng": 139.9188743
          },
          "southwest": {
            "lat": 35.519042,
            "lng": 139.5628611
          }
        }
      },
      "place_id": "ChIJXSModoWLGGARILWiCfeu2M0",
      "types": [
        "colloquial_area",
        "locality",
        "political"
      ]
    },
    {
      "address_components": [
        {
          "long_name": "東京都",
          "short_name": "東京都",
          "types": [
            "administrative_area_level_1",
            "political"
          ]
        },
        {
          "long_name": "日本",
          "short_name": "JP",
          "types": [
            "country",
            "political"
          ]
        }
      ],
      "formatted_address": "日本、東京都",
      "geometry": {
        "bounds": {
          "northeast": {
            "lat": 35.8984285,
            "lng": 153.9867945
          },
          "southwest": {
            "lat": 20.4251032,
            "lng": 136.0696826
          }
        },
        "location": {
          "lat": 35.6761919,
          "lng": 139.6503106
        },
        "location_type": "APPROXIMATE",
        "viewport": {
          "northeast": {
            "lat": 35.8984285,
            "lng": 153.9867945
          },
          "southwest": {
            "lat": 20.4251032,
            "lng": 136.0696826
          }
        }
      },
      "place_id": "ChIJ51cu8IcbXWARiRtXIothAS4",
      "types": [
        "administrative_area_level_1",
        "political"
      ]
    },
    {
      "address_components": [
        {
          "long_name": "日本",
          "short_name": "JP",
          "types": [
            "country",
            "political"
          ]
        }
      ],
      "formatted_address": "日本",
      "geometry": {
        "bounds": {
          "northeast": {
            "lat": 45.6412626,
            "lng": 154.0031455
          },
          "southwest": {
            "lat": 20.3585295,
            "lng": 122.8554688
          }
        },
        "location": {
          "lat": 36.204824,
          "lng": 138.252924
        },
        "location_type": "APPROXIMATE",
        "viewport": {
          "northeast": {
            "lat": 45.6412626,
            "lng": 154.0031455
          },
          "southwest": {
            "lat": 20.3585295,
            "lng": 122.8554688
          }
        }
      },
      "place_id": "ChIJLxl_1w9OZzQRRFJmfNR1QvU",
      "types": [
        "country",
        "political"
      ]
    }
  ]
}