{
  "station": "大田原",
  "lat": 36.870972,
  "lng": 140.026722,
  "plus_code": {
    "compound_code": "V2CG+9M 日本、栃木県大田原市",
    "global_code": "8R82V2CG+9M"
  },
  "results": [
    {
      "address_components": [
        {
          "long_name": "１５",
          "short_name": "１５",
          "types": [
            "political",
            "sublocality",
            "sublocality_level_4"
          ]
        },
        {
          "long_name": "２丁目",
          "short_name": "２丁目",
          "types": [
            "political",
            "sublocality",
            "sublocality_level_3"
          ]
        },
        {
          "long_name": "山の手",
          "short_name": "山の手",
          "types": [
            "political",
            "sublocality",
            "sublocality_level_2"
          ]
        },
        {
          "long_name": "大田原市",
          "short_name": "大田原市",
          "types": [
            "locality",
            "political"
          ]
        },
        {
          "long_name": "栃木県",
          "short_name": "栃木県",
          "types": [
            "administrative_area_level_1",
            "political"
          ]
        },
        {
          "long_name": "日本",
          "short_name": "JP",
          "types": [
            "country",
            "political"
          ]
        },
        {
          "long_name": "324-0051",
          "short_name": "324-0051",
          "types": [
            "postal_code"
          ]
        }
      ],
      "formatted_address": "日本、〒324-0051 栃木県大田原市山の手２丁目１５",
      "geometry": {
        "location": {
          "lat": 36.8710505,
          "lng": 140.0264557
        },
        "location_type": "ROOFTOP",
        "viewport": {
          "northeast": {
            "lat": 36.8723994802915,
            "lng": 140.0278046802915
          },
          "southwest": {
            "lat": 36.8697015197085,
            "lng": 140.0251067197085
          }
        }
      },
      "place_id": "ChIJM7V9X1zVIWAR8cbXytiAcRo",
      "plus_code": {
        "compound_code": "V2CG+CH 日本、栃木県大田原市",
        "global_code": "8R82V2CG+CH"
      },
      "types": [
        "establishment",
        "point_of_interest"
      ]
    },
    {
      "address_components": [
        {
          "long_name": "８",
          "short_name": "８",
          "types": [
            "premise"
          ]
        },
        {
          "long_name": "１１",
          "short_name": "１１",
          "types": [
            "political",
            "sublocality",
            "sublocality_level_4"
          ]
        },
        {
          "long_name": "１丁目",
          "short_name": "１丁目",
          "types": [
            "political",
            "sublocality",
            "sublocality_level_3"
          ]
        },
        {
          "long_name": "山の手",
          "short_name": "山の手",
          "types": [
            "political",
            "sublocality",
            "sublocality_level_2"
          ]
        },
        {
          "long_name": "大田原市",
          "short_name": "大田原市",
          "types": [
            "locality",
            "political"
          ]
        },
        {
          "long_name": "栃木県",
          "short_name": "栃木県",
          "types": [
            "administrative_area_level_1",
            "political"
          ]
        },
        {
          "long_name": "日本",
          "short_name": "JP",
          "types": [
            "country",
            "political"
          ]
        },
        {
          "long_name": "324-0051",
          "short_name": "324-0051",
          "types": [
            "postal_code"
          ]
        }
      ],
      "formatted_address": "日本、〒324-0051 栃木県大田原市山の手１丁目１１−８",
      "geometry": {
        "location": {
          "lat": 36.8706929,
          "lng": 140.0265682
        },
        "location_type": "ROOFTOP",
        "viewport": {
          "northeast": {
            "lat": 36.8720418802915,
            "lng": 140.0279171802915
          },
          "southwest": {
            "lat": 36.86934391970851,
            "lng": 140.0252192197085
          }
        }
      },
      "place_id": "ChIJ618m-FzVIWARM4uRP_EaDGk",
      "plus_code": {
        "compound_code": "V2CG+7J 日本、栃木県大田原市",
        "global_code": "8R82V2CG+7J"
      },
      "types": [
        "street_address"
      ]
    },
    {
      "address_components": [
        {
          "long_name": "８",
          "short_name": "８",
          "types": [
            "premise"
          ]
        },
        {
          "long_name": "１４",
          "short_name": "１４",
          "types": [
            "political",
            "sublocality",
            "sublocality_level_4"
          ]
        },
        {
          "long_name": "２丁目",
          "short_name": "２丁目",
          "types": [
            "political",
            "sublocality",
            "sublocality_level_3"
          ]
        },
        {
          "long_name": "山の手",
          "short_name": "山の手",
          "types": [
            "political",
            "sublocality",
            "sublocality_level_2"
          ]
        },
        {
          "long_name": "大田原市",
          "short_name": "大田原市",
          "types": [
            "locality",
            "political"
          ]
        },
        {
          "long_name": "栃木県",
          "short_name": "栃木県",
          "types": [
            "administrative_area_level_1",
            "political"
          ]
        },
        {
          "long_name": "日本",
          "short_name": "JP",
          "types": [
            "country",
            "political"
          ]
        },
        {
          "long_name": "324-0051",
          "short_name": "324-0051",
          "types": [
            "postal_code"
          ]
        }
      ],
      "formatted_address": "日本、〒324-0051 栃木県大田原市山の手２丁目１４−８",
      "geometry": {
        "bounds": {
          "northeast": {
            "lat": 36.8710028,
            "lng": 140.0273295
          },
          "southwest": {
            "lat": 36.8707922,
            "lng": 140.0270432
          }
        },
        "location": {
          "lat": 36.8708971,
          "lng": 140.0272077
        },
        "location_type": "ROOFTOP",
        "viewport": {
          "northeast": {
            "lat": 36.8722464802915,
            "lng": 140.0285353302915
          },
          "southwest": {
            "lat": 36.8695485197085,
            "lng": 140.0258373697085
          }
        }
      },
      "place_id": "ChIJZy1z5VzVIWARUSfj9CZARPc",
      "types": [
        "premise"
      ]
    },
    {
      "address_components": [
        {
          "long_name": "寺町通り",
          "short_name": "寺町通り",
          "types": [
            "route"
          ]
        },
        {
          "long_name": "１５",
          "short_name": "１５",
          "types": [
            "political",
            "sublocality",
            "sublocality_level_4"
          ]
        },
        {
          "long_name": "２丁目",
          "short_name": "２丁目",
          "types": [
            "political",
            "sublocality",
            "sublocality_level_3"
          ]
        },
        {
          "long_name": "山の手",
          "short_name": "山の手",
          "types": [
            "political",
            "sublocality",
            "sublocality_level_2"
          ]
        },
        {
          "long_name": "大田原市",
          "short_name": "大田原市",
          "types": [
            "locality",
            "political"
          ]
        },
        {
          "long_name": "栃木県",
          "short_name": "栃木県",
          "types": [
            "administrative_area_level_1",
            "political"
          ]
        },
        {
          "long_name": "日本",
          "short_name": "JP",
          "types": [
            "country",
            "political"
          ]
        },
        {
          "long_name": "324-0051",
          "short_name": "324-0051",
          "types": [
            "postal_code"
          ]
        }
      ],
      "formatted_address": "日本、〒324-0051 栃木県大田原市山の手２丁目１５ 寺町通り",
      "geometry": {
        "bounds": {
          "northeast": {
            "lat": 36.8707498,
            "lng": 140.0269407
          },
          "southwest": {
            "lat": 36.8707285,
            "lng": 140.0268434
          }
        },
        "location": {
          "lat": 36.8707392,
          "lng": 140.0268921
        },
        "location_type": "GEOMETRIC_CENTER",
        "viewport": {
          "northeast": {
            "lat": 36.8720881302915,
            "lng": 140.0282410302915
          },
          "southwest": {
            "lat": 36.8693901697085,
            "lng": 140.0255430697085
          }
        }
      },
      "place_id": "ChIJ9_gV-lzVIWARQs38p1EMAgA",
      "types": [
        "route"
      ]
    },
    {
      "address_components": [
        {
          "long_name": "１５",
          "short_name": "１５",
          "types": [
            "political",
            "sublocality",
            "sublocality_level_4"
          ]
        },
        {
          "long_name": "２丁目",
          "short_name": "２丁目",
          "types": [
            "political",
            "sublocality",
            "sublocality_level_3"
          ]
        },
        {
          "long_name": "山の手",
          "short_name": "山の手",
          "types": [
            "political",
            "sublocality",
            "sublocality_level_2"
          ]
        },
        {
          "long_name": "大田原市",
          "short_name": "大田原市",
          "types": [
            "locality",
            "political"
          ]
        },
        {
          "long_name": "栃木県",
          "short_name": "栃木県",
          "types": [
            "administrative_area_level_1",
            "political"
          ]
        },
        {
          "long_name": "日本",
          "short_name": "JP",
          "types": [
            "country",
            "political"
          ]
        }
      ],
      "formatted_address": "日本、栃木県大田原市山の手２丁目１５",
      "geometry": {
        "bounds": {
          "northeast": {
            "lat": 36.8717168,
            "lng": 140.0272113
          },
          "southwest": {
            "lat": 36.8707015,
            "lng": 140.0247702
          }
        },
        "location": {
          "lat": 36.8711669,
          "lng": 140.0259844
        },
        "location_type": "GEOMETRIC_CENTER",
        "viewport": {
          "northeast": {
            "lat": 36.8725581302915,
            "lng": 140.0273397302915
          },
          "southwest": {
            "lat": 36.8698601697085,
            "lng": 140.0246417697085
          }
        }
      },
      "place_id": "ChIJy3TlZlzVIWARagqa0x3kLBI",
      "types": [
        "political",
        "sublocality",
        "sublocality_level_4"
      ]
    },
    {
      "address_components": [
        {
          "long_name": "２丁目",
          "short_name": "２丁目",
          "types": [
            "political",
            "sublocality",
            "sublocality_level_3"
          ]
        },
        {
          "long_name": "山の手",
          "short_name": "山の手",
          "types": [
            "political",
            "sublocality",
            "sublocality_level_2"
          ]
        },
        {
          "long_name": "大田原市",
          "short_name": "大田原市",
          "types": [
            "locality",
            "political"
          ]
        },
        {
          "long_name": "栃木県",
          "short_name": "栃木県",
          "types": [
            "administrative_area_level_1",
            "political"
          ]
        },
        {
          "long_name": "日本",
          "short_name": "JP",
          "types": [
            "country",
            "political"
          ]
        },
        {
          "long_name": "324-0051",
          "short_name": "324-0051",
          "types": [
            "postal_code"
          ]
        }
      ],
      "formatted_address": "日本、〒324-0051 栃木県大田原市山の手２丁目",
      "geometry": {
        "bounds": {
          "northeast": {
            "lat": 36.878042,
            "lng": 140.034597
          },
          "southwest": {
            "lat": 36.86770509999999,
            "lng": 140.0236029
          }
        },
        "location": {
          "lat": 36.8740037,
          "lng": 140.0277491
        },
        "location_type": "APPROXIMATE",
        "viewport": {
          "northeast": {
            "lat": 36.878042,
            "lng": 140.034597
          },
          "southwest": {
            "lat": 36.86770509999999,
            "lng": 140.0236029
          }
        }
      },
      "place_id": "ChIJec4iU0PVIWARiKF7yol8rBE",
      "types": [
        "political",
        "sublocality",
        "sublocality_level_3"
      ]
    },
    {
      "address_components": [
        {
          "long_name": "山の手",
          "short_name": "山の手",
          "types": [
            "political",
            "sublocality",
            "sublocality_level_2"
          ]
        },
        {
          "long_name": "大田原市",
          "short_name": "大田原市",
          "types": [
            "locality",
            "political"
          ]
        },
        {
          "long_name": "栃木県",
          "short_name": "栃木県",
          "types": [
            "administrative_area_level_1",
            "political"
          ]
        },
        {
          "long_name": "日本",
          "short_name": "JP",
          "types": [
            "country",
            "political"
          ]
        },
        {
          "long_name": "324-0051",
          "short_name": "324-0051",
          "types": [
            "postal_code"
          ]
        }
      ],
      "formatted_address": "日本、〒324-0051 栃木県大田原市山の手",
      "geometry": {
        "bounds": {
          "northeast": {
            "lat": 36.878042,
            "lng": 140.034597
          },
          "southwest": {
            "lat": 36.866815,
            "lng": 140.0236029
          }
        },
        "location": {
          "lat": 36.8717353,
          "lng": 140.0277491
        },
        "location_type": "APPROXIMATE",
        "viewport": {
          "northeast": {
            "lat": 36.878042,
            "lng": 140.034597
          },
          "southwest": {
            "lat": 36.866815,
            "lng": 140.0236029
          }
        }
      },
      "place_id": "ChIJwZihTEPVIWARPfnzgjg6jwI",
      "types": [
        "political",
        "sublocality",
        "sublocality_level_2"
      ]
    },
    {
      "address_components": [
        {
          "long_name": "324-0051",
          "short_name": "324-0051",
          "types": [
            "postal_code"
          ]
        },
        {
          "long_name": "山の手",
          "short_name": "山の手",
          "types": [
            "political",
            "sublocality",
            "sublocality_level_2"
          ]
        },
        {
          "long_name": "大田原市",
          "short_name": "大田原市",
          "types": [
            "locality",
            "political"
          ]
        },
        {
          "long_name": "栃木県",
          "short_name": "栃木県",
          "types": [
            "administrative_area_level_1",
            "political"
          ]
        },
        {
          "long_name": "日本",
          "short_name": "JP",
          "types": [
            "country",
            "political"
          ]
        }
      ],
      "formatted_address": "日本 〒324-0051",
      "geometry": {
        "bounds": {
          "northeast": {
            "lat": 36.8780417,
            "lng": 140.0345975
          },
          "southwest": {
            "lat": 36.8668146,
            "lng": 140.0236026
          }
        },
        "location": {
          "lat": 36.8717353,
          "lng": 140.0277491
        },
        "location_type": "APPROXIMATE",
        "viewport": {
          "northeast": {
            "lat": 36.8780417,
            "lng": 140.0345975
          },
          "southwest": {
            "lat": 36.8668146,
            "lng": 140.0236026
          }
        }
      },
      "place_id": "ChIJN-z4qULVIWARgnMXtsqEaj4",
      "types": [
        "postal_code"
      ]
    },
    {
      "address_components": [
        {
          "long_name": "大田原市",
          "short_name": "大田原市",
          "types": [
            "locality",
            "political"
          ]
        },
        {
          "long_name": "栃木県",
          "short_name": "栃木県",
          "types": [
            "administrative_area_level_1",
            "political"
          ]
        },
        {
          "long_name": "日本",
          "short_name": "JP",
          "types": [
            "country",
            "political"
          ]
        }
      ],
      "formatted_address": "日本、栃木県大田原市",
      "geometry": {
        "bounds": {
          "northeast": {
            "lat": 36.948383,
            "lng": 140.2674041
          },
          "southwest": {
            "lat": 36.768487,
            "lng": 139.9216788
          }
        },
        "location": {
          "lat": 36.8712697,
          "lng": 140.0153213
        },
        "location_type": "APPROXIMATE",
        "viewport": {
          "northeast": {
            "lat": 36.948383,
            "lng": 140.2674041
          },
          "southwest": {
            "lat": 36.768487,
            "lng": 139.9216788
          }
        }
      },
      "place_id": "ChIJrcCiwQzUIWARebule9HQJlI",
      "types": [
        "locality",
        "political"
      ]
    },
    {
      "address_components": [
        {
          "long_name": "栃木県",
          "short_name": "栃木県",
          "types": [
            "administrative_area_level_1",
            "political"
          ]
        },
        {
          "long_name": "日本",
          "short_name": "JP",
          "types": [
            "country",
            "political"
          ]
        }
      ],
      "formatted_address": "日本、栃木県",
      "geometry": {
        "bounds": {
          "northeast": {
            "lat": 37.1550727,
            "lng": 140.2923309
          },
          "southwest": {
            "lat": 36.1975503,
            "lng": 139.3265478
          }
        },
        "location": {
          "lat": 36.6714739,
          "lng": 139.8547266
        },
        "location_type": "APPROXIMATE",
        "viewport": {
          "northeast": {
            "lat": 37.1550727,
            "lng": 140.2923309
          },
          "southwest": {
            "lat": 36.1975503,
            "lng": 139.3265478
          }
        }
      },
      "place_id": "ChIJ7RWXa1VwH2ARB9AguZ5FZW0",
      "types": [
        "administrative_area_level_1",
        "political"
      ]
    },
    {
      "address_components": [
        {
          "long_name": "日本",
          "short_name": "JP",
          "types": [
            "country",
            "political"
          ]
        }
      ],
      "formatted_address": "日本",
      "geometry": {
        "bounds": {
          "northeast": {
            "lat": 45.6412626,
            "lng": 154.0031455
          },
          "southwest": {
            "lat": 20.3585295,
            "lng": 122.8554688
          }
        },
        "location": {
          "lat": 36.204824,
          "lng": 138.252924
        },
        "location_type": "APPROXIMATE",
        "viewport": {
          "northeast": {
            "lat": 45.6412626,
            "lng": 154.0031455
          },
          "southwest": {
            "lat": 20.3585295,
            "lng": 122.8554688
          }
        }
      },
      "place_id": "ChIJLxl_1w9OZzQRRFJmfNR1QvU",
      "types": [
        "country",
        "political"
      ]
    }
  ]
}