{
  "station": "田野",
  "lat": 36.414997,
  "lng": 140.415876,
  "plus_code": {
    "compound_code": "CC78+X9 日本、茨城県水戸市",
    "global_code": "8R82CC78+X9"
  },
  "results": [
    {
      "address_components": [
        {
          "long_name": "３４３",
          "short_name": "３４３",
          "types": [
            "premise"
          ]
        },
        {
          "long_name": "田野町",
          "short_name": "田野町",
          "types": [
            "political",
            "sublocality",
            "sublocality_level_2"
          ]
        },
        {
          "long_name": "水戸市",
          "short_name": "水戸市",
          "types": [
            "locality",
            "political"
          ]
        },
        {
          "long_name": "茨城県",
          "short_name": "茨城県",
          "types": [
            "administrative_area_level_1",
            "political"
          ]
        },
        {
          "long_name": "日本",
          "short_name": "JP",
          "types": [
            "country",
            "political"
          ]
        },
        {
          "long_name": "310-0901",
          "short_name": "310-0901",
          "types": [
            "postal_code"
          ]
        }
      ],
      "formatted_address": "日本、〒310-0901 茨城県水戸市田野町３４３",
      "geometry": {
        "location": {
          "lat": 36.4150505,
          "lng": 140.4157985
        },
        "location_type": "ROOFTOP",
        "viewport": {
          "northeast": {
            "lat": 36.4163994802915,
            "lng": 140.4171474802915
          },
          "southwest": {
            "lat": 36.4137015197085,
            "lng": 140.4144495197085
          }
        }
      },
      "place_id": "ChIJq8wheiQhImARcWGTrtNNa5o",
      "plus_code": {
        "compound_code": "CC88+28 日本、茨城県水戸市",
        "global_code": "8R82CC88+28"
      },
      "types": [
        "street_address"
      ]
    },
    {
      "address_components": [
        {
          "long_name": "３４３−２",
          "short_name": "３４３−２",
          "types": [
            "premise"
          ]
        },
        {
          "long_name": "田野町",
          "short_name": "田野町",
          "types": [
            "political",
            "sublocality",
            "sublocality_level_2"
          ]
        },
        {
          "long_name": "水戸市",
          "short_name": "水戸市",
          "types": [
            "locality",
            "political"
          ]
        },
        {
          "long_name": "茨城県",
          "short_name": "茨城県",
          "types": [
            "administrative_area_level_1",
            "political"
          ]
        },
        {
          "long_name": "日本",
          "short_name": "JP",
          "types": [
            "country",
            "political"
          ]
        },
        {
          "long_name": "310-0901",
          "short_name": "310-0901",
          "types": [
            "postal_code"
          ]
        }
      ],
      "formatted_address": "日本、〒310-0901 茨城県水戸市田野町３４３−２",
      "geometry": {
        "bounds": {
          "northeast": {
            "lat": 36.4150986,
            "lng": 140.4160137
          },
          "southwest": {
            "lat": 36.4149834,
            "lng": 140.4158639
          }
        },
        "location": {
          "lat": 36.4150335,
          "lng": 140.4159395
        },
        "location_type": "ROOFTOP",
        "viewport": {
          "northeast": {
            "lat": 36.4163899802915,
            "lng": 140.4172877802915
          },
          "southwest": {
            "lat": 36.4136920197085,
            "lng": 140.4145898197085
          }
        }
      },
      "place_id": "ChIJw7W4eiQhImAR5aSsbKv-eGQ",
      "types": [
        "premise"
      ]
    },
    {
      "address_components": [
        {
          "long_name": "３４３−２",
          "short_name": "３４３−２",
          "types": [
            "premise"
          ]
        },
        {
          "long_name": "田野町",
          "short_name": "田野町",
          "types": [
            "political",
            "sublocality",
            "sublocality_level_2"
          ]
        },
        {
          "long_name": "水戸市",
          "short_name": "水戸市",
          "types": [
            "locality",
            "political"
          ]
        },
        {
          "long_name": "茨城県",
          "short_name": "茨城県",
          "types": [
            "administrative_area_level_1",
            "political"
          ]
        },
        {
          "long_name": "日本",
          "short_name": "JP",
          "types": [
            "country",
            "political"
          ]
        },
        {
          "long_name": "310-0901",
          "short_name": "310-0901",
          "types": [
            "postal_code"
          ]
        }
      ],
      "formatted_address": "日本、〒310-0901 茨城県水戸市田野町３４３−２",
      "geometry": {
        "location": {
          "lat": 36.4149799,
          "lng": 140.4160248
        },
        "location_type": "ROOFTOP",
        "viewport": {
          "northeast": {
            "lat": 36.41632888029149,
            "lng": 140.4173737802915
          },
          "southwest": {
            "lat": 36.4136309197085,
            "lng": 140.4146758197085
          }
        }
      },
      "place_id": "ChIJC-tRebohImAREoiZB13LTUY",
      "plus_code": {
        "compound_code": "CC78+XC 日本、茨城県水戸市",
        "global_code": "8R82CC78+XC"
      },
      "types": [
        "establishment",
        "point_of_interest"
      ]
    },
    {
      "address_components": [
        {
          "long_name": "Unnamed Road",
          "short_name": "Unnamed Road",
          "types": [
            "route"
          ]
        },
        {
          "long_name": "田野町",
          "short_name": "田野町",
          "types": [
            "political",
            "sublocality",
            "sublocality_level_2"
          ]
        },
        {
          "long_name": "水戸市",
          "short_name": "水戸市",
          "types": [
            "locality",
            "political"
          ]
        },
        {
          "long_name": "茨城県",
          "short_name": "茨城県",
          "types": [
            "administrative_area_level_1",
            "political"
          ]
        },
        {
          "long_name": "日本",
          "short_name": "JP",
          "types": [
            "country",
            "political"
          ]
        },
        {
          "long_name": "310-0901",
          "short_name": "310-0901",
          "types": [
            "postal_code"
          ]
        }
      ],
      "formatted_address": "Unnamed Road, 田野町 水戸市 茨城県 310-0901 日本",
      "geometry": {
        "bounds": {
          "northeast": {
            "lat": 36.414986,
            "lng": 140.4158949
          },
          "southwest": {
            "lat": 36.4147275,
            "lng": 140.4153431
          }
        },
        "location": {
          "lat": 36.41482999999999,
          "lng": 140.4155962
        },
        "location_type": "GEOMETRIC_CENTER",
        "viewport": {
          "northeast": {
            "lat": 36.4162057302915,
            "lng": 140.4169679802915
          },
          "southwest": {
            "lat": 36.4135077697085,
            "lng": 140.4142700197085
          }
        }
      },
      "place_id": "ChIJv4pkeSQhImAR9LGqhw2z3ow",
      "types": [
        "route"
      ]
    },
    {
      "address_components": [
        {
          "long_name": "田野町",
          "short_name": "田野町",
          "types": [
            "political",
            "sublocality",
            "sublocality_level_2"
          ]
        },
        {
          "long_name": "水戸市",
          "short_name": "水戸市",
          "types": [
            "locality",
            "political"
          ]
        },
        {
          "long_name": "茨城県",
          "short_name": "茨城県",
          "types": [
            "administrative_area_level_1",
            "political"
          ]
        },
        {
          "long_name": "日本",
          "short_name": "JP",
          "types": [
            "country",
            "political"
          ]
        }
      ],
      "formatted_address": "日本、茨城県水戸市田野町",
      "geometry": {
        "bounds": {
          "northeast": {
            "lat": 36.4258239,
            "lng": 140.4210039
          },
          "southwest": {
            "lat": 36.4067999,
            "lng": 140.3883611
          }
        },
        "location": {
          "lat": 36.4183938,
          "lng": 140.4023985
        },
        "location_type": "APPROXIMATE",
        "viewport": {
          "northeast": {
            "lat": 36.4258239,
            "lng": 140.4210039
          },
          "southwest": {
            "lat": 36.4067999,
            "lng": 140.3883611
          }
        }
      },
      "place_id": "ChIJ_5J_4x0hImARLmNkw8l3EEM",
      "types": [
        "political",
        "sublocality",
        "sublocality_level_2"
      ]
    },
    {
      "address_components": [
        {
          "long_name": "310-0901",
          "short_name": "310-0901",
          "types": [
            "postal_code"
          ]
        },
        {
          "long_name": "田野町",
          "short_name": "田野町",
          "types": [
            "political",
            "sublocality",
            "sublocality_level_2"
          ]
        },
        {
          "long_name": "水戸市",
          "short_name": "水戸市",
          "types": [
            "locality",
            "political"
          ]
        },
        {
          "long_name": "茨城県",
          "short_name": "茨城県",
          "types": [
            "administrative_area_level_1",
            "political"
          ]
        },
        {
          "long_name": "日本",
          "short_name": "JP",
          "types": [
            "country",
            "political"
          ]
        }
      ],
      "formatted_address": "日本 〒310-0901",
      "geometry": {
        "bounds": {
          "northeast": {
            "lat": 36.4258237,
            "lng": 140.4209722
          },
          "southwest": {
            "lat": 36.4068002,
            "lng": 140.3883611
          }
        },
        "location": {
          "lat": 36.4183938,
          "lng": 140.4023985
        },
        "location_type": "APPROXIMATE",
        "viewport": {
          "northeast": {
            "lat": 36.4258237,
            "lng": 140.4209722
          },
          "southwest": {
            "lat": 36.4068002,
            "lng": 140.3883611
          }
        }
      },
      "place_id": "ChIJX5F2DOMgImAREM1XMoOFeH4",
      "types": [
        "postal_code"
      ]
    },
    {
      "address_components": [
        {
          "long_name": "水戸市",
          "short_name": "水戸市",
          "types": [
            "locality",
            "political"
          ]
        },
        {
          "long_name": "茨城県",
          "short_name": "茨城県",
          "types": [
            "administrative_area_level_1",
            "political"
          ]
        },
        {
          "long_name": "日本",
          "short_name": "JP",
          "types": [
            "country",
            "political"
          ]
        }
      ],
      "formatted_address": "日本、茨城県水戸市",
      "geometry": {
        "bounds": {
          "northeast": {
            "lat": 36.464623,
            "lng": 140.5867669
          },
          "southwest": {
            "lat": 36.30063,
            "lng": 140.3218359
          }
        },
        "location": {
          "lat": 36.3658764,
          "lng": 140.4713723
        },
        "location_type": "APPROXIMATE",
        "viewport": {
          "northeast": {
            "lat": 36.464623,
            "lng": 140.5867669
          },
          "southwest": {
            "lat": 36.30063,
            "lng": 140.3218359
          }
        }
      },
      "place_id": "ChIJl8Finz8kImARXuZ7K3uIGN0",
      "types": [
        "locality",
        "political"
      ]
    },
    {
      "address_components": [
        {
          "long_name": "茨城県",
          "short_name": "茨城県",
          "types": [
            "administrative_area_level_1",
            "political"
          ]
        },
        {
          "long_name": "日本",
          "short_name": "JP",
          "types": [
            "country",
            "political"
          ]
        }
      ],
      "formatted_address": "日本、茨城県",
      "geometry": {
        "bounds": {
          "northeast": {
            "lat": 36.9454202,
            "lng": 140.8490005
          },
          "southwest": {
            "lat": 35.7393563,
            "lng": 139.6868452
          }
        },
        "location": {
          "lat": 36.2193571,
          "lng": 140.1832516
        },
        "location_type": "APPROXIMATE",
        "viewport": {
          "northeast": {
            "lat": 36.9454202,
            "lng": 140.8490005
          },
          "southwest": {
            "lat": 35.7393563,
            "lng": 139.6868452
          }
        }
      },
      "place_id": "ChIJF8In71sYImARgMV4m4P7Spo",
      "types": [
        "administrative_area_level_1",
        "political"
      ]
    },
    {
      "address_components": [
        {
          "long_name": "日本",
          "short_name": "JP",
          "types": [
            "country",
            "political"
          ]
        }
      ],
      "formatted_address": "日本",
      "geometry": {
        "bounds": {
          "northeast": {
            "lat": 45.6412626,
            "lng": 154.0031455
          },
          "southwest": {
            "lat": 20.3585295,
            "lng": 122.8554688
          }
        },
        "location": {
          "lat": 36.204824,
          "lng": 138.252924
        },
        "location_type": "APPROXIMATE",
        "viewport": {
          "northeast": {
            "lat": 45.6412626,
            "lng": 154.0031455
          },
          "southwest": {
            "lat": 20.3585295,
            "lng": 122.8554688
          }
        }
      },
      "place_id": "ChIJLxl_1w9OZzQRRFJmfNR1QvU",
      "types": [
        "country",
        "political"
      ]
    }
  ]
}