{
  "station": "堀",
  "lat": 36.405967,
  "lng": 140.424429,
  "plus_code": {
    "compound_code": "CC4F+9Q 日本、茨城県水戸市",
    "global_code": "8R82CC4F+9Q"
  },
  "results": [
    {
      "address_components": [
        {
          "long_name": "５０５−９",
          "short_name": "５０５−９",
          "types": [
            "premise"
          ]
        },
        {
          "long_name": "堀町",
          "short_name": "堀町",
          "types": [
            "political",
            "sublocality",
            "sublocality_level_2"
          ]
        },
        {
          "long_name": "水戸市",
          "short_name": "水戸市",
          "types": [
            "locality",
            "political"
          ]
        },
        {
          "long_name": "茨城県",
          "short_name": "茨城県",
          "types": [
            "administrative_area_level_1",
            "political"
          ]
        },
        {
          "long_name": "日本",
          "short_name": "JP",
          "types": [
            "country",
            "political"
          ]
        },
        {
          "long_name": "310-0903",
          "short_name": "310-0903",
          "types": [
            "postal_code"
          ]
        }
      ],
      "formatted_address": "日本、〒310-0903 茨城県水戸市堀町５０５−９",
      "geometry": {
        "bounds": {
          "northeast": {
            "lat": 36.4059296,
            "lng": 140.4243447
          },
          "southwest": {
            "lat": 36.40581390000001,
            "lng": 140.4241999
          }
        },
        "location": {
          "lat": 36.4058801,
          "lng": 140.4242654
        },
        "location_type": "ROOFTOP",
        "viewport": {
          "northeast": {
            "lat": 36.40722073029151,
            "lng": 140.4256212802915
          },
          "southwest": {
            "lat": 36.40452276970851,
            "lng": 140.4229233197085
          }
        }
      },
      "place_id": "ChIJSekw3UkhImARWVo7u5DDMhs",
      "types": [
        "premise"
      ]
    },
    {
      "address_components": [
        {
          "long_name": "５０５",
          "short_name": "５０５",
          "types": [
            "premise"
          ]
        },
        {
          "long_name": "堀町",
          "short_name": "堀町",
          "types": [
            "political",
            "sublocality",
            "sublocality_level_2"
          ]
        },
        {
          "long_name": "水戸市",
          "short_name": "水戸市",
          "types": [
            "locality",
            "political"
          ]
        },
        {
          "long_name": "茨城県",
          "short_name": "茨城県",
          "types": [
            "administrative_area_level_1",
            "political"
          ]
        },
        {
          "long_name": "日本",
          "short_name": "JP",
          "types": [
            "country",
            "political"
          ]
        },
        {
          "long_name": "310-0903",
          "short_name": "310-0903",
          "types": [
            "postal_code"
          ]
        }
      ],
      "formatted_address": "日本、〒310-0903 茨城県水戸市堀町５０５",
      "geometry": {
        "location": {
          "lat": 36.40613,
          "lng": 140.4244793
        },
        "location_type": "ROOFTOP",
        "viewport": {
          "northeast": {
            "lat": 36.40747898029149,
            "lng": 140.4258282802915
          },
          "southwest": {
            "lat": 36.40478101970849,
            "lng": 140.4231303197085
          }
        }
      },
      "place_id": "ChIJZc0650khImAR5hJ0nU4jVhI",
      "plus_code": {
        "compound_code": "CC4F+FQ 日本、茨城県水戸市",
        "global_code": "8R82CC4F+FQ"
      },
      "types": [
        "street_address"
      ]
    },
    {
      "address_components": [
        {
          "long_name": "４９８−１",
          "short_name": "４９８−１",
          "types": [
            "premise"
          ]
        },
        {
          "long_name": "堀町",
          "short_name": "堀町",
          "types": [
            "political",
            "sublocality",
            "sublocality_level_2"
          ]
        },
        {
          "long_name": "水戸市",
          "short_name": "水戸市",
          "types": [
            "locality",
            "political"
          ]
        },
        {
          "long_name": "茨城県",
          "short_name": "茨城県",
          "types": [
            "administrative_area_level_1",
            "political"
          ]
        },
        {
          "long_name": "日本",
          "short_name": "JP",
          "types": [
            "country",
            "political"
          ]
        },
        {
          "long_name": "310-0903",
          "short_name": "310-0903",
          "types": [
            "postal_code"
          ]
        }
      ],
      "formatted_address": "日本、〒310-0903 茨城県水戸市堀町４９８−１",
      "geometry": {
        "location": {
          "lat": 36.405731,
          "lng": 140.424521
        },
        "location_type": "ROOFTOP",
        "viewport": {
          "northeast": {
            "lat": 36.40707998029149,
            "lng": 140.4258699802915
          },
          "southwest": {
            "lat": 36.4043820197085,
            "lng": 140.4231720197085
          }
        }
      },
      "place_id": "ChIJ_Wee6UkhImARicEYSzx5pjQ",
      "plus_code": {
        "compound_code": "CC4F+7R 日本、茨城県水戸市",
        "global_code": "8R82CC4F+7R"
      },
      "types": [
        "establishment",
        "general_contractor",
        "point_of_interest"
      ]
    },
    {
      "address_components": [
        {
          "long_name": "Unnamed Road",
          "short_name": "Unnamed Road",
          "types": [
            "route"
          ]
        },
        {
          "long_name": "堀町",
          "short_name": "堀町",
          "types": [
            "political",
            "sublocality",
            "sublocality_level_2"
          ]
        },
        {
          "long_name": "水戸市",
          "short_name": "水戸市",
          "types": [
            "locality",
            "political"
          ]
        },
        {
          "long_name": "茨城県",
          "short_name": "茨城県",
          "types": [
            "administrative_area_level_1",
            "political"
          ]
        },
        {
          "long_name": "日本",
          "short_name": "JP",
          "types": [
            "country",
            "political"
          ]
        },
        {
          "long_name": "310-0903",
          "short_name": "310-0903",
          "types": [
            "postal_code"
          ]
        }
      ],
      "formatted_address": "Unnamed Road, 堀町 水戸市 茨城県 310-0903 日本",
      "geometry": {
        "bounds": {
          "northeast": {
            "lat": 36.406255,
            "lng": 140.4244172
          },
          "southwest": {
            "lat": 36.4059025,
            "lng": 140.4237886
          }
        },
        "location": {
          "lat": 36.4060788,
          "lng": 140.4241029
        },
        "location_type": "GEOMETRIC_CENTER",
        "viewport": {
          "northeast": {
            "lat": 36.4074277302915,
            "lng": 140.4254518802915
          },
          "southwest": {
            "lat": 36.4047297697085,
            "lng": 140.4227539197085
          }
        }
      },
      "place_id": "ChIJ88eg3kkhImARtrM3syXNqQc",
      "types": [
        "route"
      ]
    },
    {
      "address_components": [
        {
          "long_name": "堀町",
          "short_name": "堀町",
          "types": [
            "political",
            "sublocality",
            "sublocality_level_2"
          ]
        },
        {
          "long_name": "水戸市",
          "short_name": "水戸市",
          "types": [
            "locality",
            "political"
          ]
        },
        {
          "long_name": "茨城県",
          "short_name": "茨城県",
          "types": [
            "administrative_area_level_1",
            "political"
          ]
        },
        {
          "long_name": "日本",
          "short_name": "JP",
          "types": [
            "country",
            "political"
          ]
        },
        {
          "long_name": "310-0903",
          "short_name": "310-0903",
          "types": [
            "postal_code"
          ]
        }
      ],
      "formatted_address": "日本、〒310-0903 茨城県水戸市堀町",
      "geometry": {
        "bounds": {
          "northeast": {
            "lat": 36.4123891,
            "lng": 140.4408159
          },
          "southwest": {
            "lat": 36.3891049,
            "lng": 140.408481
          }
        },
        "location": {
          "lat": 36.3990816,
          "lng": 140.4230644
        },
        "location_type": "APPROXIMATE",
        "viewport": {
          "northeast": {
            "lat": 36.4123891,
            "lng": 140.4408159
          },
          "southwest": {
            "lat": 36.3891049,
            "lng": 140.408481
          }
        }
      },
      "place_id": "ChIJL79ylE4hImARgI8faMNlXiQ",
      "types": [
        "political",
        "sublocality",
        "sublocality_level_2"
      ]
    },
    {
      "address_components": [
        {
          "long_name": "310-0903",
          "short_name": "310-0903",
          "types": [
            "postal_code"
          ]
        },
        {
          "long_name": "堀町",
          "short_name": "堀町",
          "types": [
            "political",
            "sublocality",
            "sublocality_level_2"
          ]
        },
        {
          "long_name": "水戸市",
          "short_name": "水戸市",
          "types": [
            "locality",
            "political"
          ]
        },
        {
          "long_name": "茨城県",
          "short_name": "茨城県",
          "types": [
            "administrative_area_level_1",
            "political"
          ]
        },
        {
          "long_name": "日本",
          "short_name": "JP",
          "types": [
            "country",
            "political"
          ]
        }
      ],
      "formatted_address": "日本 〒310-0903",
      "geometry": {
        "bounds": {
          "northeast": {
            "lat": 36.4120441,
            "lng": 140.4408163
          },
          "southwest": {
            "lat": 36.38909719999999,
            "lng": 140.4084809
          }
        },
        "location": {
          "lat": 36.3990816,
          "lng": 140.4230644
        },
        "location_type": "APPROXIMATE",
        "viewport": {
          "northeast": {
            "lat": 36.4120441,
            "lng": 140.4408163
          },
          "southwest": {
            "lat": 36.38909719999999,
            "lng": 140.4084809
          }
        }
      },
      "place_id": "ChIJ-3C2CU4hImARroeSw9aRG68",
      "types": [
        "postal_code"
      ]
    },
    {
      "address_components": [
        {
          "long_name": "水戸市",
          "short_name": "水戸市",
          "types": [
            "locality",
            "political"
          ]
        },
        {
          "long_name": "茨城県",
          "short_name": "茨城県",
          "types": [
            "administrative_area_level_1",
            "political"
          ]
        },
        {
          "long_name": "日本",
          "short_name": "JP",
          "types": [
            "country",
            "political"
          ]
        }
      ],
      "formatted_address": "日本、茨城県水戸市",
      "geometry": {
        "bounds": {
          "northeast": {
            "lat": 36.464623,
            "lng": 140.5867669
          },
          "southwest": {
            "lat": 36.30063,
            "lng": 140.3218359
          }
        },
        "location": {
          "lat": 36.3658764,
          "lng": 140.4713723
        },
        "location_type": "APPROXIMATE",
        "viewport": {
          "northeast": {
            "lat": 36.464623,
            "lng": 140.5867669
          },
          "southwest": {
            "lat": 36.30063,
            "lng": 140.3218359
          }
        }
      },
      "place_id": "ChIJl8Finz8kImARXuZ7K3uIGN0",
      "types": [
        "locality",
        "political"
      ]
    },
    {
      "address_components": [
        {
          "long_name": "茨城県",
          "short_name": "茨城県",
          "types": [
            "administrative_area_level_1",
            "political"
          ]
        },
        {
          "long_name": "日本",
          "short_name": "JP",
          "types": [
            "country",
            "political"
          ]
        }
      ],
      "formatted_address": "日本、茨城県",
      "geometry": {
        "bounds": {
          "northeast": {
            "lat": 36.9454202,
            "lng": 140.8490005
          },
          "southwest": {
            "lat": 35.7393563,
            "lng": 139.6868452
          }
        },
        "location": {
          "lat": 36.2193571,
          "lng": 140.1832516
        },
        "location_type": "APPROXIMATE",
        "viewport": {
          "northeast": {
            "lat": 36.9454202,
            "lng": 140.8490005
          },
          "southwest": {
            "lat": 35.7393563,
            "lng": 139.6868452
          }
        }
      },
      "place_id": "ChIJF8In71sYImARgMV4m4P7Spo",
      "types": [
        "administrative_area_level_1",
        "political"
      ]
    },
    {
      "address_components": [
        {
          "long_name": "日本",
          "short_name": "JP",
          "types": [
            "country",
            "political"
          ]
        }
      ],
      "formatted_address": "日本",
      "geometry": {
        "bounds": {
          "northeast": {
            "lat": 45.6412626,
            "lng": 154.0031455
          },
          "southwest": {
            "lat": 20.3585295,
            "lng": 122.8554688
          }
        },
        "location": {
          "lat": 36.204824,
          "lng": 138.252924
        },
        "location_type": "APPROXIMATE",
        "viewport": {
          "northeast": {
            "lat": 45.6412626,
            "lng": 154.0031455
          },
          "southwest": {
            "lat": 20.3585295,
            "lng": 122.8554688
          }
        }
      },
      "place_id": "ChIJLxl_1w9OZzQRRFJmfNR1QvU",
      "types": [
        "country",
        "political"
      ]
    }
  ]
}