{
  "station": "金丸原",
  "lat": 36.868502,
  "lng": 140.078368,
  "plus_code": {
    "compound_code": "V39H+C8 日本、栃木県大田原市",
    "global_code": "8R82V39H+C8"
  },
  "results": [
    {
      "address_components": [
        {
          "long_name": "１５６３−４",
          "short_name": "１５６３−４",
          "types": [
            "premise"
          ]
        },
        {
          "long_name": "北金丸",
          "short_name": "北金丸",
          "types": [
            "political",
            "sublocality",
            "sublocality_level_2"
          ]
        },
        {
          "long_name": "大田原市",
          "short_name": "大田原市",
          "types": [
            "locality",
            "political"
          ]
        },
        {
          "long_name": "栃木県",
          "short_name": "栃木県",
          "types": [
            "administrative_area_level_1",
            "political"
          ]
        },
        {
          "long_name": "日本",
          "short_name": "JP",
          "types": [
            "country",
            "political"
          ]
        },
        {
          "long_name": "324-0011",
          "short_name": "324-0011",
          "types": [
            "postal_code"
          ]
        }
      ],
      "formatted_address": "日本、〒324-0011 栃木県大田原市北金丸１５６３−４",
      "geometry": {
        "bounds": {
          "northeast": {
            "lat": 36.8686637,
            "lng": 140.0788645
          },
          "southwest": {
            "lat": 36.8684492,
            "lng": 140.0785821
          }
        },
        "location": {
          "lat": 36.8685641,
          "lng": 140.0787294
        },
        "location_type": "ROOFTOP",
        "viewport": {
          "northeast": {
            "lat": 36.8699054302915,
            "lng": 140.0800722802915
          },
          "southwest": {
            "lat": 36.8672074697085,
            "lng": 140.0773743197085
          }
        }
      },
      "place_id": "ChIJR2e1s1_UIWARNOfl5BlIGHU",
      "types": [
        "premise"
      ]
    },
    {
      "address_components": [
        {
          "long_name": "１５６３",
          "short_name": "１５６３",
          "types": [
            "premise"
          ]
        },
        {
          "long_name": "北金丸",
          "short_name": "北金丸",
          "types": [
            "political",
            "sublocality",
            "sublocality_level_2"
          ]
        },
        {
          "long_name": "大田原市",
          "short_name": "大田原市",
          "types": [
            "locality",
            "political"
          ]
        },
        {
          "long_name": "栃木県",
          "short_name": "栃木県",
          "types": [
            "administrative_area_level_1",
            "political"
          ]
        },
        {
          "long_name": "日本",
          "short_name": "JP",
          "types": [
            "country",
            "political"
          ]
        },
        {
          "long_name": "324-0011",
          "short_name": "324-0011",
          "types": [
            "postal_code"
          ]
        }
      ],
      "formatted_address": "日本、〒324-0011 栃木県大田原市北金丸１５６３",
      "geometry": {
        "location": {
          "lat": 36.8685744,
          "lng": 140.0787072
        },
        "location_type": "ROOFTOP",
        "viewport": {
          "northeast": {
            "lat": 36.8699233802915,
            "lng": 140.0800561802915
          },
          "southwest": {
            "lat": 36.8672254197085,
            "lng": 140.0773582197085
          }
        }
      },
      "place_id": "ChIJR2e1s1_UIWARrRZKU2N3gOY",
      "plus_code": {
        "compound_code": "V39H+CF 日本、栃木県大田原市",
        "global_code": "8R82V39H+CF"
      },
      "types": [
        "street_address"
      ]
    },
    {
      "address_components": [
        {
          "long_name": "Unnamed Road",
          "short_name": "Unnamed Road",
          "types": [
            "route"
          ]
        },
        {
          "long_name": "北金丸",
          "short_name": "北金丸",
          "types": [
            "political",
            "sublocality",
            "sublocality_level_2"
          ]
        },
        {
          "long_name": "大田原市",
          "short_name": "大田原市",
          "types": [
            "locality",
            "political"
          ]
        },
        {
          "long_name": "栃木県",
          "short_name": "栃木県",
          "types": [
            "administrative_area_level_1",
            "political"
          ]
        },
        {
          "long_name": "日本",
          "short_name": "JP",
          "types": [
            "country",
            "political"
          ]
        },
        {
          "long_name": "324-0011",
          "short_name": "324-0011",
          "types": [
            "postal_code"
          ]
        }
      ],
      "formatted_address": "Unnamed Road, 北金丸 大田原市 栃木県 324-0011 日本",
      "geometry": {
        "bounds": {
          "northeast": {
            "lat": 36.8697442,
            "lng": 140.0789066
          },
          "southwest": {
            "lat": 36.8683233,
            "lng": 140.0769704
          }
        },
        "location": {
          "lat": 36.8689451,
          "lng": 140.0778904
        },
        "location_type": "GEOMETRIC_CENTER",
        "viewport": {
          "northeast": {
            "lat": 36.8703827302915,
            "lng": 140.0792874802915
          },
          "southwest": {
            "lat": 36.8676847697085,
            "lng": 140.0765895197085
          }
        }
      },
      "place_id": "ChIJr3sArl_UIWARvg5fI7blch4",
      "types": [
        "route"
      ]
    },
    {
      "address_components": [
        {
          "long_name": "324-0011",
          "short_name": "324-0011",
          "types": [
            "postal_code"
          ]
        },
        {
          "long_name": "北金丸",
          "short_name": "北金丸",
          "types": [
            "political",
            "sublocality",
            "sublocality_level_2"
          ]
        },
        {
          "long_name": "大田原市",
          "short_name": "大田原市",
          "types": [
            "locality",
            "political"
          ]
        },
        {
          "long_name": "栃木県",
          "short_name": "栃木県",
          "types": [
            "administrative_area_level_1",
            "political"
          ]
        },
        {
          "long_name": "日本",
          "short_name": "JP",
          "types": [
            "country",
            "political"
          ]
        }
      ],
      "formatted_address": "日本 〒324-0011",
      "geometry": {
        "bounds": {
          "northeast": {
            "lat": 36.8889186,
            "lng": 140.0957982
          },
          "southwest": {
            "lat": 36.8618714,
            "lng": 140.0613942
          }
        },
        "location": {
          "lat": 36.8738184,
          "lng": 140.0752571
        },
        "location_type": "APPROXIMATE",
        "viewport": {
          "northeast": {
            "lat": 36.8889186,
            "lng": 140.0957982
          },
          "southwest": {
            "lat": 36.8618714,
            "lng": 140.0613942
          }
        }
      },
      "place_id": "ChIJI_c5zV_UIWARkI13qp5fcAU",
      "types": [
        "postal_code"
      ]
    },
    {
      "address_components": [
        {
          "long_name": "北金丸",
          "short_name": "北金丸",
          "types": [
            "political",
            "sublocality",
            "sublocality_level_2"
          ]
        },
        {
          "long_name": "大田原市",
          "short_name": "大田原市",
          "types": [
            "locality",
            "political"
          ]
        },
        {
          "long_name": "栃木県",
          "short_name": "栃木県",
          "types": [
            "administrative_area_level_1",
            "political"
          ]
        },
        {
          "long_name": "日本",
          "short_name": "JP",
          "types": [
            "country",
            "political"
          ]
        },
        {
          "long_name": "324-0011",
          "short_name": "324-0011",
          "types": [
            "postal_code"
          ]
        }
      ],
      "formatted_address": "日本、〒324-0011 栃木県大田原市北金丸",
      "geometry": {
        "bounds": {
          "northeast": {
            "lat": 36.888919,
            "lng": 140.095798
          },
          "southwest": {
            "lat": 36.861871,
            "lng": 140.0613749
          }
        },
        "location": {
          "lat": 36.8738184,
          "lng": 140.0752571
        },
        "location_type": "APPROXIMATE",
        "viewport": {
          "northeast": {
            "lat": 36.888919,
            "lng": 140.095798
          },
          "southwest": {
            "lat": 36.861871,
            "lng": 140.0613749
          }
        }
      },
      "place_id": "ChIJk6PmYvPUIWARdYFsSSkrpFU",
      "types": [
        "political",
        "sublocality",
        "sublocality_level_2"
      ]
    },
    {
      "address_components": [
        {
          "long_name": "大田原市",
          "short_name": "大田原市",
          "types": [
            "locality",
            "political"
          ]
        },
        {
          "long_name": "栃木県",
          "short_name": "栃木県",
          "types": [
            "administrative_area_level_1",
            "political"
          ]
        },
        {
          "long_name": "日本",
          "short_name": "JP",
          "types": [
            "country",
            "political"
          ]
        }
      ],
      "formatted_address": "日本、栃木県大田原市",
      "geometry": {
        "bounds": {
          "northeast": {
            "lat": 36.948383,
            "lng": 140.2674041
          },
          "southwest": {
            "lat": 36.768487,
            "lng": 139.9216788
          }
        },
        "location": {
          "lat": 36.8712697,
          "lng": 140.0153213
        },
        "location_type": "APPROXIMATE",
        "viewport": {
          "northeast": {
            "lat": 36.948383,
            "lng": 140.2674041
          },
          "southwest": {
            "lat": 36.768487,
            "lng": 139.9216788
          }
        }
      },
      "place_id": "ChIJrcCiwQzUIWARebule9HQJlI",
      "types": [
        "locality",
        "political"
      ]
    },
    {
      "address_components": [
        {
          "long_name": "栃木県",
          "short_name": "栃木県",
          "types": [
            "administrative_area_level_1",
            "political"
          ]
        },
        {
          "long_name": "日本",
          "short_name": "JP",
          "types": [
            "country",
            "political"
          ]
        }
      ],
      "formatted_address": "日本、栃木県",
      "geometry": {
        "bounds": {
          "northeast": {
            "lat": 37.1550727,
            "lng": 140.2923309
          },
          "southwest": {
            "lat": 36.1975503,
            "lng": 139.3265478
          }
        },
        "location": {
          "lat": 36.6714739,
          "lng": 139.8547266
        },
        "location_type": "APPROXIMATE",
        "viewport": {
          "northeast": {
            "lat": 37.1550727,
            "lng": 140.2923309
          },
          "southwest": {
            "lat": 36.1975503,
            "lng": 139.3265478
          }
        }
      },
      "place_id": "ChIJ7RWXa1VwH2ARB9AguZ5FZW0",
      "types": [
        "administrative_area_level_1",
        "political"
      ]
    },
    {
      "address_components": [
        {
          "long_name": "日本",
          "short_name": "JP",
          "types": [
            "country",
            "political"
          ]
        }
      ],
      "formatted_address": "日本",
      "geometry": {
        "bounds": {
          "northeast": {
            "lat": 45.6412626,
            "lng": 154.0031455
          },
          "southwest": {
            "lat": 20.3585295,
            "lng": 122.8554688
          }
        },
        "location": {
          "lat": 36.204824,
          "lng": 138.252924
        },
        "location_type": "APPROXIMATE",
        "viewport": {
          "northeast": {
            "lat": 45.6412626,
            "lng": 154.0031455
          },
          "southwest": {
            "lat": 20.3585295,
            "lng": 122.8554688
          }
        }
      },
      "place_id": "ChIJLxl_1w9OZzQRRFJmfNR1QvU",
      "types": [
        "country",
        "political"
      ]
    }
  ]
}