{
  "station": "石塚",
  "lat": 36.481535,
  "lng": 140.370988,
  "plus_code": {
    "compound_code": "F9JC+J9 日本、茨城県城里町",
    "global_code": "8R82F9JC+J9"
  },
  "results": [
    {
      "address_components": [
        {
          "long_name": "１１８０−１",
          "short_name": "１１８０−１",
          "types": [
            "premise"
          ]
        },
        {
          "long_name": "大字石塚",
          "short_name": "大字石塚",
          "types": [
            "political",
            "sublocality",
            "sublocality_level_2"
          ]
        },
        {
          "long_name": "城里町",
          "short_name": "城里町",
          "types": [
            "locality",
            "political"
          ]
        },
        {
          "long_name": "東茨城郡",
          "short_name": "東茨城郡",
          "types": [
            "administrative_area_level_2",
            "political"
          ]
        },
        {
          "long_name": "茨城県",
          "short_name": "茨城県",
          "types": [
            "administrative_area_level_1",
            "political"
          ]
        },
        {
          "long_name": "日本",
          "short_name": "JP",
          "types": [
            "country",
            "political"
          ]
        },
        {
          "long_name": "311-4303",
          "short_name": "311-4303",
          "types": [
            "postal_code"
          ]
        }
      ],
      "formatted_address": "日本、〒311-4303 茨城県東茨城郡城里町大字石塚１１８０−１",
      "geometry": {
        "bounds": {
          "northeast": {
            "lat": 36.4817666,
            "lng": 140.371062
          },
          "southwest": {
            "lat": 36.4815203,
            "lng": 140.3708589
          }
        },
        "location": {
          "lat": 36.4816416,
          "lng": 140.370969
        },
        "location_type": "ROOFTOP",
        "viewport": {
          "northeast": {
            "lat": 36.4829924302915,
            "lng": 140.3723094302915
          },
          "southwest": {
            "lat": 36.4802944697085,
            "lng": 140.3696114697085
          }
        }
      },
      "place_id": "ChIJa0mw0xiLIWARHTaq92MDAuo",
      "types": [
        "premise"
      ]
    },
    {
      "address_components": [
        {
          "long_name": "１１８０",
          "short_name": "１１８０",
          "types": [
            "premise"
          ]
        },
        {
          "long_name": "大字石塚",
          "short_name": "大字石塚",
          "types": [
            "political",
            "sublocality",
            "sublocality_level_2"
          ]
        },
        {
          "long_name": "城里町",
          "short_name": "城里町",
          "types": [
            "locality",
            "political"
          ]
        },
        {
          "long_name": "東茨城郡",
          "short_name": "東茨城郡",
          "types": [
            "administrative_area_level_2",
            "political"
          ]
        },
        {
          "long_name": "茨城県",
          "short_name": "茨城県",
          "types": [
            "administrative_area_level_1",
            "political"
          ]
        },
        {
          "long_name": "日本",
          "short_name": "JP",
          "types": [
            "country",
            "political"
          ]
        },
        {
          "long_name": "311-4303",
          "short_name": "311-4303",
          "types": [
            "postal_code"
          ]
        }
      ],
      "formatted_address": "日本、〒311-4303 茨城県東茨城郡城里町大字石塚１１８０",
      "geometry": {
        "location": {
          "lat": 36.48163359999999,
          "lng": 140.3709586
        },
        "location_type": "ROOFTOP",
        "viewport": {
          "northeast": {
            "lat": 36.4829825802915,
            "lng": 140.3723075802915
          },
          "southwest": {
            "lat": 36.4802846197085,
            "lng": 140.3696096197085
          }
        }
      },
      "place_id": "ChIJQfqz0xiLIWAR7elynnNg5PE",
      "plus_code": {
        "compound_code": "F9JC+M9 日本、茨城県城里町",
        "global_code": "8R82F9JC+M9"
      },
      "types": [
        "street_address"
      ]
    },
    {
      "address_components": [
        {
          "long_name": "城里町",
          "short_name": "城里町",
          "types": [
            "locality",
            "political"
          ]
        },
        {
          "long_name": "大字石塚",
          "short_name": "大字石塚",
          "types": [
            "political",
            "sublocality",
            "sublocality_level_2"
          ]
        },
        {
          "long_name": "東茨城郡",
          "short_name": "東茨城郡",
          "types": [
            "administrative_area_level_2",
            "political"
          ]
        },
        {
          "long_name": "茨城県",
          "short_name": "茨城県",
          "types": [
            "administrative_area_level_1",
            "political"
          ]
        },
        {
          "long_name": "日本",
          "short_name": "JP",
          "types": [
            "country",
            "political"
          ]
        },
        {
          "long_name": "311-4303",
          "short_name": "311-4303",
          "types": [
            "postal_code"
          ]
        }
      ],
      "formatted_address": "日本、〒311-4303 茨城県東茨城郡城里町大字石塚 大字石塚1138−9",
      "geometry": {
        "location": {
          "lat": 36.4815108,
          "lng": 140.370616
        },
        "location_type": "GEOMETRIC_CENTER",
        "viewport": {
          "northeast": {
            "lat": 36.48285978029149,
            "lng": 140.3719649802915
          },
          "southwest": {
            "lat": 36.4801618197085,
            "lng": 140.3692670197085
          }
        }
      },
      "place_id": "ChIJkd2vzRiLIWARQOBsaabdAxo",
      "plus_code": {
        "compound_code": "F9JC+J6 日本、茨城県城里町",
        "global_code": "8R82F9JC+J6"
      },
      "types": [
        "establishment",
        "point_of_interest"
      ]
    },
    {
      "address_components": [
        {
          "long_name": "石塚車庫",
          "short_name": "石塚車庫",
          "types": [
            "establishment",
            "point_of_interest",
            "transit_station"
          ]
        },
        {
          "long_name": "大字石塚",
          "short_name": "大字石塚",
          "types": [
            "political",
            "sublocality",
            "sublocality_level_2"
          ]
        },
        {
          "long_name": "城里町",
          "short_name": "城里町",
          "types": [
            "locality",
            "political"
          ]
        },
        {
          "long_name": "東茨城郡",
          "short_name": "東茨城郡",
          "types": [
            "administrative_area_level_2",
            "political"
          ]
        },
        {
          "long_name": "茨城県",
          "short_name": "茨城県",
          "types": [
            "administrative_area_level_1",
            "political"
          ]
        },
        {
          "long_name": "日本",
          "short_name": "JP",
          "types": [
            "country",
            "political"
          ]
        },
        {
          "long_name": "311-4303",
          "short_name": "311-4303",
          "types": [
            "postal_code"
          ]
        }
      ],
      "formatted_address": "日本、〒311-4303 茨城県東茨城郡城里町大字石塚 石塚車庫",
      "geometry": {
        "location": {
          "lat": 36.4817282,
          "lng": 140.3716687
        },
        "location_type": "GEOMETRIC_CENTER",
        "viewport": {
          "northeast": {
            "lat": 36.4830771802915,
            "lng": 140.3730176802915
          },
          "southwest": {
            "lat": 36.4803792197085,
            "lng": 140.3703197197085
          }
        }
      },
      "place_id": "ChIJnUO01B6LIWARq302KPWX8L4",
      "plus_code": {
        "compound_code": "F9JC+MM 日本、茨城県城里町",
        "global_code": "8R82F9JC+MM"
      },
      "types": [
        "establishment",
        "point_of_interest",
        "transit_station"
      ]
    },
    {
      "address_components": [
        {
          "long_name": "石岡城里線",
          "short_name": "県道52号",
          "types": [
            "route"
          ]
        },
        {
          "long_name": "大字石塚",
          "short_name": "大字石塚",
          "types": [
            "political",
            "sublocality",
            "sublocality_level_2"
          ]
        },
        {
          "long_name": "城里町",
          "short_name": "城里町",
          "types": [
            "locality",
            "political"
          ]
        },
        {
          "long_name": "東茨城郡",
          "short_name": "東茨城郡",
          "types": [
            "administrative_area_level_2",
            "political"
          ]
        },
        {
          "long_name": "茨城県",
          "short_name": "茨城県",
          "types": [
            "administrative_area_level_1",
            "political"
          ]
        },
        {
          "long_name": "日本",
          "short_name": "JP",
          "types": [
            "country",
            "political"
          ]
        },
        {
          "long_name": "311-4303",
          "short_name": "311-4303",
          "types": [
            "postal_code"
          ]
        }
      ],
      "formatted_address": "日本、〒311-4303 茨城県東茨城郡城里町大字石塚 県道52号",
      "geometry": {
        "bounds": {
          "northeast": {
            "lat": 36.4819195,
            "lng": 140.371396
          },
          "southwest": {
            "lat": 36.4816238,
            "lng": 140.3712612
          }
        },
        "location": {
          "lat": 36.4817717,
          "lng": 140.3713286
        },
        "location_type": "GEOMETRIC_CENTER",
        "viewport": {
          "northeast": {
            "lat": 36.4831206302915,
            "lng": 140.3726775802915
          },
          "southwest": {
            "lat": 36.4804226697085,
            "lng": 140.3699796197085
          }
        }
      },
      "place_id": "ChIJJ2yi1RiLIWARKLaVcXkNhF8",
      "types": [
        "route"
      ]
    },
    {
      "address_components": [
        {
          "long_name": "大字石塚",
          "short_name": "大字石塚",
          "types": [
            "political",
            "sublocality",
            "sublocality_level_2"
          ]
        },
        {
          "long_name": "城里町",
          "short_name": "城里町",
          "types": [
            "locality",
            "political"
          ]
        },
        {
          "long_name": "東茨城郡",
          "short_name": "東茨城郡",
          "types": [
            "administrative_area_level_2",
            "political"
          ]
        },
        {
          "long_name": "茨城県",
          "short_name": "茨城県",
          "types": [
            "administrative_area_level_1",
            "political"
          ]
        },
        {
          "long_name": "日本",
          "short_name": "JP",
          "types": [
            "country",
            "political"
          ]
        },
        {
          "long_name": "311-4303",
          "short_name": "311-4303",
          "types": [
            "postal_code"
          ]
        }
      ],
      "formatted_address": "日本、〒311-4303 茨城県東茨城郡城里町大字石塚",
      "geometry": {
        "bounds": {
          "northeast": {
            "lat": 36.488707,
            "lng": 140.395411
          },
          "southwest": {
            "lat": 36.463864,
            "lng": 140.360399
          }
        },
        "location": {
          "lat": 36.4788656,
          "lng": 140.3817395
        },
        "location_type": "APPROXIMATE",
        "viewport": {
          "northeast": {
            "lat": 36.488707,
            "lng": 140.395411
          },
          "southwest": {
            "lat": 36.463864,
            "lng": 140.360399
          }
        }
      },
      "place_id": "ChIJYVkWPuOKIWARbteiA1ArW84",
      "types": [
        "political",
        "sublocality",
        "sublocality_level_2"
      ]
    },
    {
      "address_components": [
        {
          "long_name": "311-4303",
          "short_name": "311-4303",
          "types": [
            "postal_code"
          ]
        },
        {
          "long_name": "大字石塚",
          "short_name": "大字石塚",
          "types": [
            "political",
            "sublocality",
            "sublocality_level_2"
          ]
        },
        {
          "long_name": "城里町",
          "short_name": "城里町",
          "types": [
            "locality",
            "political"
          ]
        },
        {
          "long_name": "東茨城郡",
          "short_name": "東茨城郡",
          "types": [
            "administrative_area_level_2",
            "political"
          ]
        },
        {
          "long_name": "茨城県",
          "short_name": "茨城県",
          "types": [
            "administrative_area_level_1",
            "political"
          ]
        },
        {
          "long_name": "日本",
          "short_name": "JP",
          "types": [
            "country",
            "political"
          ]
        }
      ],
      "formatted_address": "日本 〒311-4303",
      "geometry": {
        "bounds": {
          "northeast": {
            "lat": 36.4887071,
            "lng": 140.395411
          },
          "southwest": {
            "lat": 36.4638636,
            "lng": 140.3603991
          }
        },
        "location": {
          "lat": 36.4788656,
          "lng": 140.3817395
        },
        "location_type": "APPROXIMATE",
        "viewport": {
          "northeast": {
            "lat": 36.4887071,
            "lng": 140.395411
          },
          "southwest": {
            "lat": 36.4638636,
            "lng": 140.3603991
          }
        }
      },
      "place_id": "ChIJzz3jqB6LIWAR-QHoJIklw1I",
      "types": [
        "postal_code"
      ]
    },
    {
      "address_components": [
        {
          "long_name": "城里町",
          "short_name": "城里町",
          "types": [
            "locality",
            "political"
          ]
        },
        {
          "long_name": "東茨城郡",
          "short_name": "東茨城郡",
          "types": [
            "administrative_area_level_2",
            "political"
          ]
        },
        {
          "long_name": "茨城県",
          "short_name": "茨城県",
          "types": [
            "administrative_area_level_1",
            "political"
          ]
        },
        {
          "long_name": "日本",
          "short_name": "JP",
          "types": [
            "country",
            "political"
          ]
        }
      ],
      "formatted_address": "日本、茨城県東茨城郡城里町",
      "geometry": {
        "bounds": {
          "northeast": {
            "lat": 36.549703,
            "lng": 140.4144699
          },
          "southwest": {
            "lat": 36.426756,
            "lng": 140.2012
          }
        },
        "location": {
          "lat": 36.4794764,
          "lng": 140.375928
        },
        "location_type": "APPROXIMATE",
        "viewport": {
          "northeast": {
            "lat": 36.549703,
            "lng": 140.4144699
          },
          "southwest": {
            "lat": 36.426756,
            "lng": 140.2012
          }
        }
      },
      "place_id": "ChIJh5daGoD0IWARjBcys5oyiuE",
      "types": [
        "locality",
        "political"
      ]
    },
    {
      "address_components": [
        {
          "long_name": "東茨城郡",
          "short_name": "東茨城郡",
          "types": [
            "administrative_area_level_2",
            "political"
          ]
        },
        {
          "long_name": "茨城県",
          "short_name": "茨城県",
          "types": [
            "administrative_area_level_1",
            "political"
          ]
        },
        {
          "long_name": "日本",
          "short_name": "JP",
          "types": [
            "country",
            "political"
          ]
        }
      ],
      "formatted_address": "日本、茨城県東茨城郡",
      "geometry": {
        "bounds": {
          "northeast": {
            "lat": 36.5497033,
            "lng": 140.5951675
          },
          "southwest": {
            "lat": 36.2202307,
            "lng": 140.2011995
          }
        },
        "location": {
          "lat": 36.4779757,
          "lng": 140.3275427
        },
        "location_type": "APPROXIMATE",
        "viewport": {
          "northeast": {
            "lat": 36.5497033,
            "lng": 140.5951675
          },
          "southwest": {
            "lat": 36.2202307,
            "lng": 140.2011995
          }
        }
      },
      "place_id": "ChIJm_1GzWQhImARmOAMmrJPlwM",
      "types": [
        "administrative_area_level_2",
        "political"
      ]
    },
    {
      "address_components": [
        {
          "long_name": "茨城県",
          "short_name": "茨城県",
          "types": [
            "administrative_area_level_1",
            "political"
          ]
        },
        {
          "long_name": "日本",
          "short_name": "JP",
          "types": [
            "country",
            "political"
          ]
        }
      ],
      "formatted_address": "日本、茨城県",
      "geometry": {
        "bounds": {
          "northeast": {
            "lat": 36.9454202,
            "lng": 140.8490005
          },
          "southwest": {
            "lat": 35.7393563,
            "lng": 139.6868452
          }
        },
        "location": {
          "lat": 36.2193571,
          "lng": 140.1832516
        },
        "location_type": "APPROXIMATE",
        "viewport": {
          "northeast": {
            "lat": 36.9454202,
            "lng": 140.8490005
          },
          "southwest": {
            "lat": 35.7393563,
            "lng": 139.6868452
          }
        }
      },
      "place_id": "ChIJF8In71sYImARgMV4m4P7Spo",
      "types": [
        "administrative_area_level_1",
        "political"
      ]
    },
    {
      "address_components": [
        {
          "long_name": "日本",
          "short_name": "JP",
          "types": [
            "country",
            "political"
          ]
        }
      ],
      "formatted_address": "日本",
      "geometry": {
        "bounds": {
          "northeast": {
            "lat": 45.6412626,
            "lng": 154.0031455
          },
          "southwest": {
            "lat": 20.3585295,
            "lng": 122.8554688
          }
        },
        "location": {
          "lat": 36.204824,
          "lng": 138.252924
        },
        "location_type": "APPROXIMATE",
        "viewport": {
          "northeast": {
            "lat": 45.6412626,
            "lng": 154.0031455
          },
          "southwest": {
            "lat": 20.3585295,
            "lng": 122.8554688
          }
        }
      },
      "place_id": "ChIJLxl_1w9OZzQRRFJmfNR1QvU",
      "types": [
        "country",
        "political"
      ]
    }
  ]
}