{
  "station": "陶の谷",
  "lat": 35.938531,
  "lng": 136.113638,
  "plus_code": {
    "compound_code": "W4Q7+CF 日本、福井県越前町",
    "global_code": "8Q7RW4Q7+CF"
  },
  "results": [
    {
      "address_components": [
        {
          "long_name": "３−５−３",
          "short_name": "３−５−３",
          "types": [
            "premise"
          ]
        },
        {
          "long_name": "寺",
          "short_name": "寺",
          "types": [
            "political",
            "sublocality",
            "sublocality_level_2"
          ]
        },
        {
          "long_name": "越前町",
          "short_name": "越前町",
          "types": [
            "locality",
            "political"
          ]
        },
        {
          "long_name": "丹生郡",
          "short_name": "丹生郡",
          "types": [
            "administrative_area_level_2",
            "political"
          ]
        },
        {
          "long_name": "福井県",
          "short_name": "福井県",
          "types": [
            "administrative_area_level_1",
            "political"
          ]
        },
        {
          "long_name": "日本",
          "short_name": "JP",
          "types": [
            "country",
            "political"
          ]
        },
        {
          "long_name": "916-0266",
          "short_name": "916-0266",
          "types": [
            "postal_code"
          ]
        }
      ],
      "formatted_address": "日本、〒916-0266 福井県丹生郡越前町寺３−５−３",
      "geometry": {
        "location": {
          "lat": 35.9384658,
          "lng": 136.1133834
        },
        "location_type": "ROOFTOP",
        "viewport": {
          "northeast": {
            "lat": 35.9398147802915,
            "lng": 136.1147323802915
          },
          "southwest": {
            "lat": 35.9371168197085,
            "lng": 136.1120344197085
          }
        }
      },
      "place_id": "ChIJFz104xiy-F8RGUGjx8DT0AQ",
      "plus_code": {
        "compound_code": "W4Q7+99 日本、福井県 越前町",
        "global_code": "8Q7RW4Q7+99"
      },
      "types": [
        "street_address"
      ]
    },
    {
      "address_components": [
        {
          "long_name": "１１−１１",
          "short_name": "１１−１１",
          "types": [
            "premise"
          ]
        },
        {
          "long_name": "蝉口",
          "short_name": "蝉口",
          "types": [
            "political",
            "sublocality",
            "sublocality_level_2"
          ]
        },
        {
          "long_name": "越前町",
          "short_name": "越前町",
          "types": [
            "locality",
            "political"
          ]
        },
        {
          "long_name": "丹生郡",
          "short_name": "丹生郡",
          "types": [
            "administrative_area_level_2",
            "political"
          ]
        },
        {
          "long_name": "福井県",
          "short_name": "福井県",
          "types": [
            "administrative_area_level_1",
            "political"
          ]
        },
        {
          "long_name": "日本",
          "short_name": "JP",
          "types": [
            "country",
            "political"
          ]
        },
        {
          "long_name": "916-0252",
          "short_name": "916-0252",
          "types": [
            "postal_code"
          ]
        }
      ],
      "formatted_address": "日本、〒916-0252 福井県丹生郡越前町蝉口１１−１１",
      "geometry": {
        "bounds": {
          "northeast": {
            "lat": 35.9390666,
            "lng": 136.113853
          },
          "southwest": {
            "lat": 35.93875,
            "lng": 136.1136055
          }
        },
        "location": {
          "lat": 35.9389352,
          "lng": 136.1137207
        },
        "location_type": "ROOFTOP",
        "viewport": {
          "northeast": {
            "lat": 35.9402572802915,
            "lng": 136.1150782302915
          },
          "southwest": {
            "lat": 35.9375593197085,
            "lng": 136.1123802697085
          }
        }
      },
      "place_id": "ChIJOVwn3Riy-F8RiEVXQM21Dbo",
      "types": [
        "premise"
      ]
    },
    {
      "address_components": [
        {
          "long_name": "寺朝日線",
          "short_name": "県道187号",
          "types": [
            "route"
          ]
        },
        {
          "long_name": "越前町",
          "short_name": "越前町",
          "types": [
            "locality",
            "political"
          ]
        },
        {
          "long_name": "丹生郡",
          "short_name": "丹生郡",
          "types": [
            "administrative_area_level_2",
            "political"
          ]
        },
        {
          "long_name": "福井県",
          "short_name": "福井県",
          "types": [
            "administrative_area_level_1",
            "political"
          ]
        },
        {
          "long_name": "日本",
          "short_name": "JP",
          "types": [
            "country",
            "political"
          ]
        },
        {
          "long_name": "916-0268",
          "short_name": "916-0268",
          "types": [
            "postal_code"
          ]
        }
      ],
      "formatted_address": "日本、〒916-0268 福井県丹生郡越前町 県道187号",
      "geometry": {
        "bounds": {
          "northeast": {
            "lat": 35.939462,
            "lng": 136.1140104
          },
          "southwest": {
            "lat": 35.9379944,
            "lng": 136.1138431
          }
        },
        "location": {
          "lat": 35.9387282,
          "lng": 136.1139267
        },
        "location_type": "GEOMETRIC_CENTER",
        "viewport": {
          "northeast": {
            "lat": 35.9400771802915,
            "lng": 136.1152757302915
          },
          "southwest": {
            "lat": 35.9373792197085,
            "lng": 136.1125777697085
          }
        }
      },
      "place_id": "ChIJWVQr3Biy-F8Rrq2RY_0utj4",
      "types": [
        "route"
      ]
    },
    {
      "address_components": [
        {
          "long_name": "蝉口",
          "short_name": "蝉口",
          "types": [
            "political",
            "sublocality",
            "sublocality_level_2"
          ]
        },
        {
          "long_name": "越前町",
          "short_name": "越前町",
          "types": [
            "locality",
            "political"
          ]
        },
        {
          "long_name": "丹生郡",
          "short_name": "丹生郡",
          "types": [
            "administrative_area_level_2",
            "political"
          ]
        },
        {
          "long_name": "福井県",
          "short_name": "福井県",
          "types": [
            "administrative_area_level_1",
            "political"
          ]
        },
        {
          "long_name": "日本",
          "short_name": "JP",
          "types": [
            "country",
            "political"
          ]
        },
        {
          "long_name": "916-0252",
          "short_name": "916-0252",
          "types": [
            "postal_code"
          ]
        }
      ],
      "formatted_address": "日本、〒916-0252 福井県丹生郡越前町蝉口",
      "geometry": {
        "bounds": {
          "northeast": {
            "lat": 35.945629,
            "lng": 136.1164298
          },
          "southwest": {
            "lat": 35.937602,
            "lng": 136.1073961
          }
        },
        "location": {
          "lat": 35.9413892,
          "lng": 136.1129697
        },
        "location_type": "APPROXIMATE",
        "viewport": {
          "northeast": {
            "lat": 35.945629,
            "lng": 136.1164298
          },
          "southwest": {
            "lat": 35.937602,
            "lng": 136.1073961
          }
        }
      },
      "place_id": "ChIJtxP3niGy-F8RUKMvQ4ybiDQ",
      "types": [
        "political",
        "sublocality",
        "sublocality_level_2"
      ]
    },
    {
      "address_components": [
        {
          "long_name": "916-0252",
          "short_name": "916-0252",
          "types": [
            "postal_code"
          ]
        },
        {
          "long_name": "蝉口",
          "short_name": "蝉口",
          "types": [
            "political",
            "sublocality",
            "sublocality_level_2"
          ]
        },
        {
          "long_name": "越前町",
          "short_name": "越前町",
          "types": [
            "locality",
            "political"
          ]
        },
        {
          "long_name": "丹生郡",
          "short_name": "丹生郡",
          "types": [
            "administrative_area_level_2",
            "political"
          ]
        },
        {
          "long_name": "福井県",
          "short_name": "福井県",
          "types": [
            "administrative_area_level_1",
            "political"
          ]
        },
        {
          "long_name": "日本",
          "short_name": "JP",
          "types": [
            "country",
            "political"
          ]
        }
      ],
      "formatted_address": "日本 〒916-0252",
      "geometry": {
        "bounds": {
          "northeast": {
            "lat": 35.9456288,
            "lng": 136.1164235
          },
          "southwest": {
            "lat": 35.9376241,
            "lng": 136.1073958
          }
        },
        "location": {
          "lat": 35.9413892,
          "lng": 136.1129697
        },
        "location_type": "APPROXIMATE",
        "viewport": {
          "northeast": {
            "lat": 35.9456288,
            "lng": 136.1164235
          },
          "southwest": {
            "lat": 35.9376241,
            "lng": 136.1073958
          }
        }
      },
      "place_id": "ChIJie7YwCGy-F8R5CkBpZ3jzVk",
      "types": [
        "postal_code"
      ]
    },
    {
      "address_components": [
        {
          "long_name": "丹生郡",
          "short_name": "丹生郡",
          "types": [
            "administrative_area_level_2",
            "political"
          ]
        },
        {
          "long_name": "越前町",
          "short_name": "越前町",
          "types": [
            "locality",
            "political"
          ]
        },
        {
          "long_name": "福井県",
          "short_name": "福井県",
          "types": [
            "administrative_area_level_1",
            "political"
          ]
        },
        {
          "long_name": "日本",
          "short_name": "JP",
          "types": [
            "country",
            "political"
          ]
        }
      ],
      "formatted_address": "日本、福井県丹生郡越前町",
      "geometry": {
        "bounds": {
          "northeast": {
            "lat": 36.0281241,
            "lng": 136.1561577
          },
          "southwest": {
            "lat": 35.8723612,
            "lng": 135.9571144
          }
        },
        "location": {
          "lat": 35.9521625,
          "lng": 136.0611399
        },
        "location_type": "APPROXIMATE",
        "viewport": {
          "northeast": {
            "lat": 36.0281241,
            "lng": 136.1561577
          },
          "southwest": {
            "lat": 35.8723612,
            "lng": 135.9571144
          }
        }
      },
      "place_id": "ChIJ0Qpr95Wz-F8RIXqA0QElUdM",
      "types": [
        "administrative_area_level_2",
        "political"
      ]
    },
    {
      "address_components": [
        {
          "long_name": "越前町",
          "short_name": "越前町",
          "types": [
            "locality",
            "political"
          ]
        },
        {
          "long_name": "丹生郡",
          "short_name": "丹生郡",
          "types": [
            "administrative_area_level_2",
            "political"
          ]
        },
        {
          "long_name": "福井県",
          "short_name": "福井県",
          "types": [
            "administrative_area_level_1",
            "political"
          ]
        },
        {
          "long_name": "日本",
          "short_name": "JP",
          "types": [
            "country",
            "political"
          ]
        }
      ],
      "formatted_address": "日本、福井県丹生郡越前町",
      "geometry": {
        "bounds": {
          "northeast": {
            "lat": 36.028124,
            "lng": 136.156158
          },
          "southwest": {
            "lat": 35.872361,
            "lng": 135.957115
          }
        },
        "location": {
          "lat": 35.974015,
          "lng": 136.1298901
        },
        "location_type": "APPROXIMATE",
        "viewport": {
          "northeast": {
            "lat": 36.028124,
            "lng": 136.156158
          },
          "southwest": {
            "lat": 35.872361,
            "lng": 135.957115
          }
        }
      },
      "place_id": "ChIJ0Qpr95Wz-F8REUjFK2QWdAI",
      "types": [
        "locality",
        "political"
      ]
    },
    {
      "address_components": [
        {
          "long_name": "福井県",
          "short_name": "福井県",
          "types": [
            "administrative_area_level_1",
            "political"
          ]
        },
        {
          "long_name": "日本",
          "short_name": "JP",
          "types": [
            "country",
            "political"
          ]
        }
      ],
      "formatted_address": "日本、福井県",
      "geometry": {
        "bounds": {
          "northeast": {
            "lat": 36.2956473,
            "lng": 136.8323338
          },
          "southwest": {
            "lat": 35.3436705,
            "lng": 135.4493413
          }
        },
        "location": {
          "lat": 35.896227,
          "lng": 136.2111579
        },
        "location_type": "APPROXIMATE",
        "viewport": {
          "northeast": {
            "lat": 36.2956473,
            "lng": 136.8323338
          },
          "southwest": {
            "lat": 35.3436705,
            "lng": 135.4493413
          }
        }
      },
      "place_id": "ChIJEb6scKhV_18RYA7nHjFfIQo",
      "types": [
        "administrative_area_level_1",
        "political"
      ]
    },
    {
      "address_components": [
        {
          "long_name": "日本",
          "short_name": "JP",
          "types": [
            "country",
            "political"
          ]
        }
      ],
      "formatted_address": "日本",
      "geometry": {
        "bounds": {
          "northeast": {
            "lat": 45.6412626,
            "lng": 154.0031455
          },
          "southwest": {
            "lat": 20.3585295,
            "lng": 122.8554688
          }
        },
        "location": {
          "lat": 36.204824,
          "lng": 138.252924
        },
        "location_type": "APPROXIMATE",
        "viewport": {
          "northeast": {
            "lat": 45.6412626,
            "lng": 154.0031455
          },
          "southwest": {
            "lat": 20.3585295,
            "lng": 122.8554688
          }
        }
      },
      "place_id": "ChIJLxl_1w9OZzQRRFJmfNR1QvU",
      "types": [
        "country",
        "political"
      ]
    }
  ]
}