{
  "station": "西田中",
  "lat": 35.972585,
  "lng": 136.131085,
  "plus_code": {
    "compound_code": "X4FJ+2C 日本、福井県越前町",
    "global_code": "8Q7RX4FJ+2C"
  },
  "results": [
    {
      "address_components": [
        {
          "long_name": "５０１",
          "short_name": "５０１",
          "types": [
            "premise"
          ]
        },
        {
          "long_name": "１丁目",
          "short_name": "１丁目",
          "types": [
            "political",
            "sublocality",
            "sublocality_level_3"
          ]
        },
        {
          "long_name": "朝日",
          "short_name": "朝日",
          "types": [
            "political",
            "sublocality",
            "sublocality_level_2"
          ]
        },
        {
          "long_name": "越前町",
          "short_name": "越前町",
          "types": [
            "locality",
            "political"
          ]
        },
        {
          "long_name": "丹生郡",
          "short_name": "丹生郡",
          "types": [
            "administrative_area_level_2",
            "political"
          ]
        },
        {
          "long_name": "福井県",
          "short_name": "福井県",
          "types": [
            "administrative_area_level_1",
            "political"
          ]
        },
        {
          "long_name": "日本",
          "short_name": "JP",
          "types": [
            "country",
            "political"
          ]
        },
        {
          "long_name": "916-0146",
          "short_name": "916-0146",
          "types": [
            "postal_code"
          ]
        }
      ],
      "formatted_address": "日本、〒916-0146 福井県丹生郡越前町朝日１丁目５０１",
      "geometry": {
        "location": {
          "lat": 35.972583,
          "lng": 136.131083
        },
        "location_type": "ROOFTOP",
        "viewport": {
          "northeast": {
            "lat": 35.9739319802915,
            "lng": 136.1324319802915
          },
          "southwest": {
            "lat": 35.9712340197085,
            "lng": 136.1297340197085
          }
        }
      },
      "place_id": "ChIJ6dK8n_mx-F8R7I0bqplZEyk",
      "plus_code": {
        "compound_code": "X4FJ+2C 日本、福井県 越前町",
        "global_code": "8Q7RX4FJ+2C"
      },
      "types": [
        "establishment",
        "point_of_interest"
      ]
    },
    {
      "address_components": [
        {
          "long_name": "５０１",
          "short_name": "５０１",
          "types": [
            "premise"
          ]
        },
        {
          "long_name": "１丁目",
          "short_name": "１丁目",
          "types": [
            "political",
            "sublocality",
            "sublocality_level_3"
          ]
        },
        {
          "long_name": "朝日",
          "short_name": "朝日",
          "types": [
            "political",
            "sublocality",
            "sublocality_level_2"
          ]
        },
        {
          "long_name": "越前町",
          "short_name": "越前町",
          "types": [
            "locality",
            "political"
          ]
        },
        {
          "long_name": "丹生郡",
          "short_name": "丹生郡",
          "types": [
            "administrative_area_level_2",
            "political"
          ]
        },
        {
          "long_name": "福井県",
          "short_name": "福井県",
          "types": [
            "administrative_area_level_1",
            "political"
          ]
        },
        {
          "long_name": "日本",
          "short_name": "JP",
          "types": [
            "country",
            "political"
          ]
        },
        {
          "long_name": "916-0146",
          "short_name": "916-0146",
          "types": [
            "postal_code"
          ]
        }
      ],
      "formatted_address": "日本、〒916-0146 福井県丹生郡越前町朝日１丁目５０１",
      "geometry": {
        "location": {
          "lat": 35.9725589,
          "lng": 136.1311153
        },
        "location_type": "ROOFTOP",
        "viewport": {
          "northeast": {
            "lat": 35.97390788029149,
            "lng": 136.1324642802915
          },
          "southwest": {
            "lat": 35.9712099197085,
            "lng": 136.1297663197085
          }
        }
      },
      "place_id": "ChIJIaNthv2w-F8RuSleeVNiEaU",
      "plus_code": {
        "compound_code": "X4FJ+2C 日本、福井県 越前町",
        "global_code": "8Q7RX4FJ+2C"
      },
      "types": [
        "street_address"
      ]
    },
    {
      "address_components": [
        {
          "long_name": "西田中バスターミナル",
          "short_name": "西田中バスターミナル",
          "types": [
            "bus_station",
            "establishment",
            "point_of_interest",
            "transit_station"
          ]
        },
        {
          "long_name": "１丁目",
          "short_name": "１丁目",
          "types": [
            "political",
            "sublocality",
            "sublocality_level_3"
          ]
        },
        {
          "long_name": "朝日",
          "short_name": "朝日",
          "types": [
            "political",
            "sublocality",
            "sublocality_level_2"
          ]
        },
        {
          "long_name": "越前町",
          "short_name": "越前町",
          "types": [
            "locality",
            "political"
          ]
        },
        {
          "long_name": "丹生郡",
          "short_name": "丹生郡",
          "types": [
            "administrative_area_level_2",
            "political"
          ]
        },
        {
          "long_name": "福井県",
          "short_name": "福井県",
          "types": [
            "administrative_area_level_1",
            "political"
          ]
        },
        {
          "long_name": "日本",
          "short_name": "JP",
          "types": [
            "country",
            "political"
          ]
        },
        {
          "long_name": "916-0146",
          "short_name": "916-0146",
          "types": [
            "postal_code"
          ]
        }
      ],
      "formatted_address": "日本、〒916-0146 福井県丹生郡越前町朝日１丁目 西田中バスターミナル",
      "geometry": {
        "location": {
          "lat": 35.97248099999999,
          "lng": 136.131119
        },
        "location_type": "GEOMETRIC_CENTER",
        "viewport": {
          "northeast": {
            "lat": 35.9738299802915,
            "lng": 136.1324679802915
          },
          "southwest": {
            "lat": 35.9711320197085,
            "lng": 136.1297700197085
          }
        }
      },
      "place_id": "ChIJ6XWBiP2w-F8RNt_Zt1YFR50",
      "plus_code": {
        "compound_code": "X4CJ+XC 日本、福井県 越前町",
        "global_code": "8Q7RX4CJ+XC"
      },
      "types": [
        "bus_station",
        "establishment",
        "point_of_interest",
        "transit_station"
      ]
    },
    {
      "address_components": [
        {
          "long_name": "１−８−１１",
          "short_name": "１−８−１１",
          "types": [
            "premise"
          ]
        },
        {
          "long_name": "朝日",
          "short_name": "朝日",
          "types": [
            "political",
            "sublocality",
            "sublocality_level_2"
          ]
        },
        {
          "long_name": "越前町",
          "short_name": "越前町",
          "types": [
            "locality",
            "political"
          ]
        },
        {
          "long_name": "丹生郡",
          "short_name": "丹生郡",
          "types": [
            "administrative_area_level_2",
            "political"
          ]
        },
        {
          "long_name": "福井県",
          "short_name": "福井県",
          "types": [
            "administrative_area_level_1",
            "political"
          ]
        },
        {
          "long_name": "日本",
          "short_name": "JP",
          "types": [
            "country",
            "political"
          ]
        },
        {
          "long_name": "916-0146",
          "short_name": "916-0146",
          "types": [
            "postal_code"
          ]
        }
      ],
      "formatted_address": "日本、〒916-0146 福井県丹生郡越前町朝日１−８−１１",
      "geometry": {
        "bounds": {
          "northeast": {
            "lat": 35.9726411,
            "lng": 136.1308887
          },
          "southwest": {
            "lat": 35.9725084,
            "lng": 136.1307903
          }
        },
        "location": {
          "lat": 35.9725877,
          "lng": 136.1308382
        },
        "location_type": "ROOFTOP",
        "viewport": {
          "northeast": {
            "lat": 35.9739237302915,
            "lng": 136.1321884802915
          },
          "southwest": {
            "lat": 35.9712257697085,
            "lng": 136.1294905197085
          }
        }
      },
      "place_id": "ChIJQU8lh_2w-F8RXSz7tVj7uPg",
      "types": [
        "premise"
      ]
    },
    {
      "address_components": [
        {
          "long_name": "Unnamed Road",
          "short_name": "Unnamed Road",
          "types": [
            "route"
          ]
        },
        {
          "long_name": "朝日",
          "short_name": "朝日",
          "types": [
            "political",
            "sublocality",
            "sublocality_level_2"
          ]
        },
        {
          "long_name": "越前町",
          "short_name": "越前町",
          "types": [
            "locality",
            "political"
          ]
        },
        {
          "long_name": "丹生郡",
          "short_name": "丹生郡",
          "types": [
            "administrative_area_level_2",
            "political"
          ]
        },
        {
          "long_name": "福井県",
          "short_name": "福井県",
          "types": [
            "administrative_area_level_1",
            "political"
          ]
        },
        {
          "long_name": "日本",
          "short_name": "JP",
          "types": [
            "country",
            "political"
          ]
        },
        {
          "long_name": "916-0146",
          "short_name": "916-0146",
          "types": [
            "postal_code"
          ]
        }
      ],
      "formatted_address": "Unnamed Road, 朝日 越前町 丹生郡 福井県 916-0146 日本",
      "geometry": {
        "bounds": {
          "northeast": {
            "lat": 35.9726966,
            "lng": 136.1312494
          },
          "southwest": {
            "lat": 35.9726912,
            "lng": 136.1306163
          }
        },
        "location": {
          "lat": 35.9726939,
          "lng": 136.1309329
        },
        "location_type": "GEOMETRIC_CENTER",
        "viewport": {
          "northeast": {
            "lat": 35.9740428802915,
            "lng": 136.1322818302915
          },
          "southwest": {
            "lat": 35.9713449197085,
            "lng": 136.1295838697085
          }
        }
      },
      "place_id": "ChIJOxfkg_2w-F8RmtnJwQu39cE",
      "types": [
        "route"
      ]
    },
    {
      "address_components": [
        {
          "long_name": "１丁目",
          "short_name": "１丁目",
          "types": [
            "political",
            "sublocality",
            "sublocality_level_3"
          ]
        },
        {
          "long_name": "朝日",
          "short_name": "朝日",
          "types": [
            "political",
            "sublocality",
            "sublocality_level_2"
          ]
        },
        {
          "long_name": "越前町",
          "short_name": "越前町",
          "types": [
            "locality",
            "political"
          ]
        },
        {
          "long_name": "丹生郡",
          "short_name": "丹生郡",
          "types": [
            "administrative_area_level_2",
            "political"
          ]
        },
        {
          "long_name": "福井県",
          "short_name": "福井県",
          "types": [
            "administrative_area_level_1",
            "political"
          ]
        },
        {
          "long_name": "日本",
          "short_name": "JP",
          "types": [
            "country",
            "political"
          ]
        },
        {
          "long_name": "916-0146",
          "short_name": "916-0146",
          "types": [
            "postal_code"
          ]
        }
      ],
      "formatted_address": "日本、〒916-0146 福井県丹生郡越前町朝日１丁目",
      "geometry": {
        "bounds": {
          "northeast": {
            "lat": 35.972716,
            "lng": 136.133084
          },
          "southwest": {
            "lat": 35.970658,
            "lng": 136.1306621
          }
        },
        "location": {
          "lat": 35.9714171,
          "lng": 136.1315112
        },
        "location_type": "APPROXIMATE",
        "viewport": {
          "northeast": {
            "lat": 35.9730359802915,
            "lng": 136.1332220302915
          },
          "southwest": {
            "lat": 35.9703380197085,
            "lng": 136.1305240697085
          }
        }
      },
      "place_id": "ChIJTy_dBQKx-F8RipbJNRCv62U",
      "types": [
        "political",
        "sublocality",
        "sublocality_level_3"
      ]
    },
    {
      "address_components": [
        {
          "long_name": "916-0146",
          "short_name": "916-0146",
          "types": [
            "postal_code"
          ]
        },
        {
          "long_name": "朝日",
          "short_name": "朝日",
          "types": [
            "political",
            "sublocality",
            "sublocality_level_2"
          ]
        },
        {
          "long_name": "越前町",
          "short_name": "越前町",
          "types": [
            "locality",
            "political"
          ]
        },
        {
          "long_name": "丹生郡",
          "short_name": "丹生郡",
          "types": [
            "administrative_area_level_2",
            "political"
          ]
        },
        {
          "long_name": "福井県",
          "short_name": "福井県",
          "types": [
            "administrative_area_level_1",
            "political"
          ]
        },
        {
          "long_name": "日本",
          "short_name": "JP",
          "types": [
            "country",
            "political"
          ]
        }
      ],
      "formatted_address": "日本 〒916-0146",
      "geometry": {
        "bounds": {
          "northeast": {
            "lat": 35.9738828,
            "lng": 136.1330835
          },
          "southwest": {
            "lat": 35.9634817,
            "lng": 136.113931
          }
        },
        "location": {
          "lat": 35.970538,
          "lng": 136.1231952
        },
        "location_type": "APPROXIMATE",
        "viewport": {
          "northeast": {
            "lat": 35.9738828,
            "lng": 136.1330835
          },
          "southwest": {
            "lat": 35.9634817,
            "lng": 136.113931
          }
        }
      },
      "place_id": "ChIJA4kgdf2w-F8RwjXOXC4Bhy8",
      "types": [
        "postal_code"
      ]
    },
    {
      "address_components": [
        {
          "long_name": "朝日",
          "short_name": "朝日",
          "types": [
            "political",
            "sublocality",
            "sublocality_level_2"
          ]
        },
        {
          "long_name": "越前町",
          "short_name": "越前町",
          "types": [
            "locality",
            "political"
          ]
        },
        {
          "long_name": "丹生郡",
          "short_name": "丹生郡",
          "types": [
            "administrative_area_level_2",
            "political"
          ]
        },
        {
          "long_name": "福井県",
          "short_name": "福井県",
          "types": [
            "administrative_area_level_1",
            "political"
          ]
        },
        {
          "long_name": "日本",
          "short_name": "JP",
          "types": [
            "country",
            "political"
          ]
        },
        {
          "long_name": "916-0146",
          "short_name": "916-0146",
          "types": [
            "postal_code"
          ]
        }
      ],
      "formatted_address": "日本、〒916-0146 福井県丹生郡越前町朝日",
      "geometry": {
        "bounds": {
          "northeast": {
            "lat": 35.973886,
            "lng": 136.133084
          },
          "southwest": {
            "lat": 35.963482,
            "lng": 136.113931
          }
        },
        "location": {
          "lat": 35.970538,
          "lng": 136.1231952
        },
        "location_type": "APPROXIMATE",
        "viewport": {
          "northeast": {
            "lat": 35.973886,
            "lng": 136.133084
          },
          "southwest": {
            "lat": 35.963482,
            "lng": 136.113931
          }
        }
      },
      "place_id": "ChIJsZhhvAWx-F8RLRBIeIyZ8WY",
      "types": [
        "political",
        "sublocality",
        "sublocality_level_2"
      ]
    },
    {
      "address_components": [
        {
          "long_name": "丹生郡",
          "short_name": "丹生郡",
          "types": [
            "administrative_area_level_2",
            "political"
          ]
        },
        {
          "long_name": "越前町",
          "short_name": "越前町",
          "types": [
            "locality",
            "political"
          ]
        },
        {
          "long_name": "福井県",
          "short_name": "福井県",
          "types": [
            "administrative_area_level_1",
            "political"
          ]
        },
        {
          "long_name": "日本",
          "short_name": "JP",
          "types": [
            "country",
            "political"
          ]
        }
      ],
      "formatted_address": "日本、福井県丹生郡越前町",
      "geometry": {
        "bounds": {
          "northeast": {
            "lat": 36.0281241,
            "lng": 136.1561577
          },
          "southwest": {
            "lat": 35.8723612,
            "lng": 135.9571144
          }
        },
        "location": {
          "lat": 35.9521625,
          "lng": 136.0611399
        },
        "location_type": "APPROXIMATE",
        "viewport": {
          "northeast": {
            "lat": 36.0281241,
            "lng": 136.1561577
          },
          "southwest": {
            "lat": 35.8723612,
            "lng": 135.9571144
          }
        }
      },
      "place_id": "ChIJ0Qpr95Wz-F8RIXqA0QElUdM",
      "types": [
        "administrative_area_level_2",
        "political"
      ]
    },
    {
      "address_components": [
        {
          "long_name": "越前町",
          "short_name": "越前町",
          "types": [
            "locality",
            "political"
          ]
        },
        {
          "long_name": "丹生郡",
          "short_name": "丹生郡",
          "types": [
            "administrative_area_level_2",
            "political"
          ]
        },
        {
          "long_name": "福井県",
          "short_name": "福井県",
          "types": [
            "administrative_area_level_1",
            "political"
          ]
        },
        {
          "long_name": "日本",
          "short_name": "JP",
          "types": [
            "country",
            "political"
          ]
        }
      ],
      "formatted_address": "日本、福井県丹生郡越前町",
      "geometry": {
        "bounds": {
          "northeast": {
            "lat": 36.028124,
            "lng": 136.156158
          },
          "southwest": {
            "lat": 35.872361,
            "lng": 135.957115
          }
        },
        "location": {
          "lat": 35.974015,
          "lng": 136.1298901
        },
        "location_type": "APPROXIMATE",
        "viewport": {
          "northeast": {
            "lat": 36.028124,
            "lng": 136.156158
          },
          "southwest": {
            "lat": 35.872361,
            "lng": 135.957115
          }
        }
      },
      "place_id": "ChIJ0Qpr95Wz-F8REUjFK2QWdAI",
      "types": [
        "locality",
        "political"
      ]
    },
    {
      "address_components": [
        {
          "long_name": "福井県",
          "short_name": "福井県",
          "types": [
            "administrative_area_level_1",
            "political"
          ]
        },
        {
          "long_name": "日本",
          "short_name": "JP",
          "types": [
            "country",
            "political"
          ]
        }
      ],
      "formatted_address": "日本、福井県",
      "geometry": {
        "bounds": {
          "northeast": {
            "lat": 36.2956473,
            "lng": 136.8323338
          },
          "southwest": {
            "lat": 35.3436705,
            "lng": 135.4493413
          }
        },
        "location": {
          "lat": 35.896227,
          "lng": 136.2111579
        },
        "location_type": "APPROXIMATE",
        "viewport": {
          "northeast": {
            "lat": 36.2956473,
            "lng": 136.8323338
          },
          "southwest": {
            "lat": 35.3436705,
            "lng": 135.4493413
          }
        }
      },
      "place_id": "ChIJEb6scKhV_18RYA7nHjFfIQo",
      "types": [
        "administrative_area_level_1",
        "political"
      ]
    },
    {
      "address_components": [
        {
          "long_name": "日本",
          "short_name": "JP",
          "types": [
            "country",
            "political"
          ]
        }
      ],
      "formatted_address": "日本",
      "geometry": {
        "bounds": {
          "northeast": {
            "lat": 45.6412626,
            "lng": 154.0031455
          },
          "southwest": {
            "lat": 20.3585295,
            "lng": 122.8554688
          }
        },
        "location": {
          "lat": 36.204824,
          "lng": 138.252924
        },
        "location_type": "APPROXIMATE",
        "viewport": {
          "northeast": {
            "lat": 45.6412626,
            "lng": 154.0031455
          },
          "southwest": {
            "lat": 20.3585295,
            "lng": 122.8554688
          }
        }
      },
      "place_id": "ChIJLxl_1w9OZzQRRFJmfNR1QvU",
      "types": [
        "country",
        "political"
      ]
    }
  ]
}