{
  "station": "越後関原",
  "lat": 37.460056,
  "lng": 138.780722,
  "plus_code": {
    "compound_code": "FQ6J+27 日本、新潟県長岡市",
    "global_code": "8Q9WFQ6J+27"
  },
  "results": [
    {
      "address_components": [
        {
          "long_name": "５９５",
          "short_name": "５９５",
          "types": [
            "premise"
          ]
        },
        {
          "long_name": "１丁目",
          "short_name": "１丁目",
          "types": [
            "political",
            "sublocality",
            "sublocality_level_3"
          ]
        },
        {
          "long_name": "関原町",
          "short_name": "関原町",
          "types": [
            "political",
            "sublocality",
            "sublocality_level_2"
          ]
        },
        {
          "long_name": "長岡市",
          "short_name": "長岡市",
          "types": [
            "locality",
            "political"
          ]
        },
        {
          "long_name": "新潟県",
          "short_name": "新潟県",
          "types": [
            "administrative_area_level_1",
            "political"
          ]
        },
        {
          "long_name": "日本",
          "short_name": "JP",
          "types": [
            "country",
            "political"
          ]
        },
        {
          "long_name": "940-2035",
          "short_name": "940-2035",
          "types": [
            "postal_code"
          ]
        }
      ],
      "formatted_address": "日本、〒940-2035 新潟県長岡市関原町１丁目５９５",
      "geometry": {
        "location": {
          "lat": 37.4603146,
          "lng": 138.7803693
        },
        "location_type": "ROOFTOP",
        "viewport": {
          "northeast": {
            "lat": 37.4616635802915,
            "lng": 138.7817182802915
          },
          "southwest": {
            "lat": 37.4589656197085,
            "lng": 138.7790203197085
          }
        }
      },
      "place_id": "ChIJg-2_Bt6r9V8RxOFLPHSsQCE",
      "plus_code": {
        "compound_code": "FQ6J+44 日本、新潟県長岡市",
        "global_code": "8Q9WFQ6J+44"
      },
      "types": [
        "street_address"
      ]
    },
    {
      "address_components": [
        {
          "long_name": "６１８",
          "short_name": "６１８",
          "types": [
            "premise"
          ]
        },
        {
          "long_name": "１丁目",
          "short_name": "１丁目",
          "types": [
            "political",
            "sublocality",
            "sublocality_level_3"
          ]
        },
        {
          "long_name": "関原町",
          "short_name": "関原町",
          "types": [
            "political",
            "sublocality",
            "sublocality_level_2"
          ]
        },
        {
          "long_name": "長岡市",
          "short_name": "長岡市",
          "types": [
            "locality",
            "political"
          ]
        },
        {
          "long_name": "新潟県",
          "short_name": "新潟県",
          "types": [
            "administrative_area_level_1",
            "political"
          ]
        },
        {
          "long_name": "日本",
          "short_name": "JP",
          "types": [
            "country",
            "political"
          ]
        },
        {
          "long_name": "940-2035",
          "short_name": "940-2035",
          "types": [
            "postal_code"
          ]
        }
      ],
      "formatted_address": "日本、〒940-2035 新潟県長岡市関原町１丁目６１８",
      "geometry": {
        "bounds": {
          "northeast": {
            "lat": 37.4598699,
            "lng": 138.7803707
          },
          "southwest": {
            "lat": 37.4597998,
            "lng": 138.7801726
          }
        },
        "location": {
          "lat": 37.4598393,
          "lng": 138.7802916
        },
        "location_type": "ROOFTOP",
        "viewport": {
          "northeast": {
            "lat": 37.4611838302915,
            "lng": 138.7816206302915
          },
          "southwest": {
            "lat": 37.4584858697085,
            "lng": 138.7789226697085
          }
        }
      },
      "place_id": "ChIJFza1p-Cr9V8RPMR0TBagosU",
      "types": [
        "premise"
      ]
    },
    {
      "address_components": [
        {
          "long_name": "Unnamed Road",
          "short_name": "Unnamed Road",
          "types": [
            "route"
          ]
        },
        {
          "long_name": "１丁目",
          "short_name": "１丁目",
          "types": [
            "political",
            "sublocality",
            "sublocality_level_3"
          ]
        },
        {
          "long_name": "関原町",
          "short_name": "関原町",
          "types": [
            "political",
            "sublocality",
            "sublocality_level_2"
          ]
        },
        {
          "long_name": "長岡市",
          "short_name": "長岡市",
          "types": [
            "locality",
            "political"
          ]
        },
        {
          "long_name": "新潟県",
          "short_name": "新潟県",
          "types": [
            "administrative_area_level_1",
            "political"
          ]
        },
        {
          "long_name": "日本",
          "short_name": "JP",
          "types": [
            "country",
            "political"
          ]
        },
        {
          "long_name": "940-2035",
          "short_name": "940-2035",
          "types": [
            "postal_code"
          ]
        }
      ],
      "formatted_address": "Unnamed Road, １丁目 関原町 長岡市 新潟県 940-2035 日本",
      "geometry": {
        "bounds": {
          "northeast": {
            "lat": 37.4603895,
            "lng": 138.7805418
          },
          "southwest": {
            "lat": 37.4597808,
            "lng": 138.7804797
          }
        },
        "location": {
          "lat": 37.4600872,
          "lng": 138.7804822
        },
        "location_type": "GEOMETRIC_CENTER",
        "viewport": {
          "northeast": {
            "lat": 37.4614341302915,
            "lng": 138.7818597302915
          },
          "southwest": {
            "lat": 37.4587361697085,
            "lng": 138.7791617697085
          }
        }
      },
      "place_id": "ChIJa4Y_A96r9V8R5qK0HD_GSvI",
      "types": [
        "route"
      ]
    },
    {
      "address_components": [
        {
          "long_name": "１丁目",
          "short_name": "１丁目",
          "types": [
            "political",
            "sublocality",
            "sublocality_level_3"
          ]
        },
        {
          "long_name": "関原町",
          "short_name": "関原町",
          "types": [
            "political",
            "sublocality",
            "sublocality_level_2"
          ]
        },
        {
          "long_name": "長岡市",
          "short_name": "長岡市",
          "types": [
            "locality",
            "political"
          ]
        },
        {
          "long_name": "新潟県",
          "short_name": "新潟県",
          "types": [
            "administrative_area_level_1",
            "political"
          ]
        },
        {
          "long_name": "日本",
          "short_name": "JP",
          "types": [
            "country",
            "political"
          ]
        },
        {
          "long_name": "940-2035",
          "short_name": "940-2035",
          "types": [
            "postal_code"
          ]
        }
      ],
      "formatted_address": "日本、〒940-2035 新潟県長岡市関原町１丁目",
      "geometry": {
        "bounds": {
          "northeast": {
            "lat": 37.4667921,
            "lng": 138.7889509
          },
          "southwest": {
            "lat": 37.4335521,
            "lng": 138.7584168
          }
        },
        "location": {
          "lat": 37.4453356,
          "lng": 138.7686698
        },
        "location_type": "APPROXIMATE",
        "viewport": {
          "northeast": {
            "lat": 37.4667921,
            "lng": 138.7889509
          },
          "southwest": {
            "lat": 37.4335521,
            "lng": 138.7584168
          }
        }
      },
      "place_id": "ChIJMWes7Vap9V8RFdKCIS-unz8",
      "types": [
        "political",
        "sublocality",
        "sublocality_level_3"
      ]
    },
    {
      "address_components": [
        {
          "long_name": "関原町",
          "short_name": "関原町",
          "types": [
            "political",
            "sublocality",
            "sublocality_level_2"
          ]
        },
        {
          "long_name": "長岡市",
          "short_name": "長岡市",
          "types": [
            "locality",
            "political"
          ]
        },
        {
          "long_name": "新潟県",
          "short_name": "新潟県",
          "types": [
            "administrative_area_level_1",
            "political"
          ]
        },
        {
          "long_name": "日本",
          "short_name": "JP",
          "types": [
            "country",
            "political"
          ]
        },
        {
          "long_name": "940-2035",
          "short_name": "940-2035",
          "types": [
            "postal_code"
          ]
        }
      ],
      "formatted_address": "日本、〒940-2035 新潟県長岡市関原町",
      "geometry": {
        "bounds": {
          "northeast": {
            "lat": 37.4667921,
            "lng": 138.7889509
          },
          "southwest": {
            "lat": 37.4264141,
            "lng": 138.7584168
          }
        },
        "location": {
          "lat": 37.4534995,
          "lng": 138.7718225
        },
        "location_type": "APPROXIMATE",
        "viewport": {
          "northeast": {
            "lat": 37.4667921,
            "lng": 138.7889509
          },
          "southwest": {
            "lat": 37.4264141,
            "lng": 138.7584168
          }
        }
      },
      "place_id": "ChIJBR-qrlOp9V8RJdt9Bv5zNFA",
      "types": [
        "political",
        "sublocality",
        "sublocality_level_2"
      ]
    },
    {
      "address_components": [
        {
          "long_name": "940-2035",
          "short_name": "940-2035",
          "types": [
            "postal_code"
          ]
        },
        {
          "long_name": "関原町",
          "short_name": "関原町",
          "types": [
            "political",
            "sublocality",
            "sublocality_level_2"
          ]
        },
        {
          "long_name": "長岡市",
          "short_name": "長岡市",
          "types": [
            "locality",
            "political"
          ]
        },
        {
          "long_name": "新潟県",
          "short_name": "新潟県",
          "types": [
            "administrative_area_level_1",
            "political"
          ]
        },
        {
          "long_name": "日本",
          "short_name": "JP",
          "types": [
            "country",
            "political"
          ]
        }
      ],
      "formatted_address": "日本 〒940-2035",
      "geometry": {
        "bounds": {
          "northeast": {
            "lat": 37.4667921,
            "lng": 138.7889509
          },
          "southwest": {
            "lat": 37.4264141,
            "lng": 138.7584168
          }
        },
        "location": {
          "lat": 37.4534995,
          "lng": 138.7718225
        },
        "location_type": "APPROXIMATE",
        "viewport": {
          "northeast": {
            "lat": 37.4667921,
            "lng": 138.7889509
          },
          "southwest": {
            "lat": 37.4264141,
            "lng": 138.7584168
          }
        }
      },
      "place_id": "ChIJKwIas-Kr9V8R615CzSKz454",
      "types": [
        "postal_code"
      ]
    },
    {
      "address_components": [
        {
          "long_name": "長岡市",
          "short_name": "長岡市",
          "types": [
            "locality",
            "political"
          ]
        },
        {
          "long_name": "新潟県",
          "short_name": "新潟県",
          "types": [
            "administrative_area_level_1",
            "political"
          ]
        },
        {
          "long_name": "日本",
          "short_name": "JP",
          "types": [
            "country",
            "political"
          ]
        }
      ],
      "formatted_address": "日本、新潟県長岡市",
      "geometry": {
        "bounds": {
          "northeast": {
            "lat": 37.7101916,
            "lng": 139.1242987
          },
          "southwest": {
            "lat": 37.1764077,
            "lng": 138.6428979
          }
        },
        "location": {
          "lat": 37.4465187,
          "lng": 138.8513499
        },
        "location_type": "APPROXIMATE",
        "viewport": {
          "northeast": {
            "lat": 37.7101916,
            "lng": 139.1242987
          },
          "southwest": {
            "lat": 37.1764077,
            "lng": 138.6428979
          }
        }
      },
      "place_id": "ChIJLTUCVXoH9V8R7_cio0uDPFE",
      "types": [
        "locality",
        "political"
      ]
    },
    {
      "address_components": [
        {
          "long_name": "新潟県",
          "short_name": "新潟県",
          "types": [
            "administrative_area_level_1",
            "political"
          ]
        },
        {
          "long_name": "日本",
          "short_name": "JP",
          "types": [
            "country",
            "political"
          ]
        }
      ],
      "formatted_address": "日本、新潟県",
      "geometry": {
        "bounds": {
          "northeast": {
            "lat": 38.5535962,
            "lng": 139.8998675
          },
          "southwest": {
            "lat": 36.73657,
            "lng": 137.6350483
          }
        },
        "location": {
          "lat": 37.5178386,
          "lng": 138.9269794
        },
        "location_type": "APPROXIMATE",
        "viewport": {
          "northeast": {
            "lat": 38.5535962,
            "lng": 139.8998675
          },
          "southwest": {
            "lat": 36.73657,
            "lng": 137.6350483
          }
        }
      },
      "place_id": "ChIJATtK2PaFjF8RSPPdfITZi7Q",
      "types": [
        "administrative_area_level_1",
        "political"
      ]
    },
    {
      "address_components": [
        {
          "long_name": "日本",
          "short_name": "JP",
          "types": [
            "country",
            "political"
          ]
        }
      ],
      "formatted_address": "日本",
      "geometry": {
        "bounds": {
          "northeast": {
            "lat": 45.6412626,
            "lng": 154.0031455
          },
          "southwest": {
            "lat": 20.3585295,
            "lng": 122.8554688
          }
        },
        "location": {
          "lat": 36.204824,
          "lng": 138.252924
        },
        "location_type": "APPROXIMATE",
        "viewport": {
          "northeast": {
            "lat": 45.6412626,
            "lng": 154.0031455
          },
          "southwest": {
            "lat": 20.3585295,
            "lng": 122.8554688
          }
        }
      },
      "place_id": "ChIJLxl_1w9OZzQRRFJmfNR1QvU",
      "types": [
        "country",
        "political"
      ]
    },
    {
      "address_components": [
        {
          "long_name": "FQ6J+27",
          "short_name": "FQ6J+27",
          "types": [
            "plus_code"
          ]
        },
        {
          "long_name": "長岡市",
          "short_name": "長岡市",
          "types": [
            "locality",
            "political"
          ]
        },
        {
          "long_name": "新潟県",
          "short_name": "新潟県",
          "types": [
            "administrative_area_level_1",
            "political"
          ]
        },
        {
          "long_name": "日本",
          "short_name": "JP",
          "types": [
            "country",
            "political"
          ]
        }
      ],
      "formatted_address": "FQ6J+27 日本、新潟県長岡市",
      "geometry": {
        "bounds": {
          "northeast": {
            "lat": 37.460125,
            "lng": 138.78075
          },
          "southwest": {
            "lat": 37.46000000000001,
            "lng": 138.780625
          }
        },
        "location": {
          "lat": 37.460056,
          "lng": 138.780722
        },
        "location_type": "ROOFTOP",
        "viewport": {
          "northeast": {
            "lat": 37.4614114802915,
            "lng": 138.7820364802915
          },
          "southwest": {
            "lat": 37.4587135197085,
            "lng": 138.7793385197085
          }
        }
      },
      "place_id": "GhIJDypxHeO6QkARkSi0rPtYYUA",
      "plus_code": {
        "compound_code": "FQ6J+27 日本、新潟県長岡市",
        "global_code": "8Q9WFQ6J+27"
      },
      "types": [
        "plus_code"
      ]
    }
  ]
}