{
  "station": "白根",
  "lat": 37.761778,
  "lng": 139.010806,
  "plus_code": {
    "compound_code": "Q266+P8 日本、新潟県新潟市",
    "global_code": "8Q9XQ266+P8"
  },
  "results": [
    {
      "address_components": [
        {
          "long_name": "１４４０−４",
          "short_name": "１４４０−４",
          "types": [
            "premise"
          ]
        },
        {
          "long_name": "西白根",
          "short_name": "西白根",
          "types": [
            "political",
            "sublocality",
            "sublocality_level_2"
          ]
        },
        {
          "long_name": "南区",
          "short_name": "南区",
          "types": [
            "political",
            "sublocality",
            "sublocality_level_1"
          ]
        },
        {
          "long_name": "新潟市",
          "short_name": "新潟市",
          "types": [
            "locality",
            "political"
          ]
        },
        {
          "long_name": "新潟県",
          "short_name": "新潟県",
          "types": [
            "administrative_area_level_1",
            "political"
          ]
        },
        {
          "long_name": "日本",
          "short_name": "JP",
          "types": [
            "country",
            "political"
          ]
        },
        {
          "long_name": "950-1262",
          "short_name": "950-1262",
          "types": [
            "postal_code"
          ]
        }
      ],
      "formatted_address": "日本、〒950-1262 新潟県新潟市南区西白根１４４０−４",
      "geometry": {
        "bounds": {
          "northeast": {
            "lat": 37.761826,
            "lng": 139.0106716
          },
          "southwest": {
            "lat": 37.761769,
            "lng": 139.0105428
          }
        },
        "location": {
          "lat": 37.7618055,
          "lng": 139.0105869
        },
        "location_type": "ROOFTOP",
        "viewport": {
          "northeast": {
            "lat": 37.7631464802915,
            "lng": 139.0119561802915
          },
          "southwest": {
            "lat": 37.7604485197085,
            "lng": 139.0092582197085
          }
        }
      },
      "place_id": "ChIJa8KlO8Xc9F8Ru0-2aQJc6jo",
      "types": [
        "premise"
      ]
    },
    {
      "address_components": [
        {
          "long_name": "１４４０",
          "short_name": "１４４０",
          "types": [
            "premise"
          ]
        },
        {
          "long_name": "西白根",
          "short_name": "西白根",
          "types": [
            "political",
            "sublocality",
            "sublocality_level_2"
          ]
        },
        {
          "long_name": "南区",
          "short_name": "南区",
          "types": [
            "political",
            "sublocality",
            "sublocality_level_1"
          ]
        },
        {
          "long_name": "新潟市",
          "short_name": "新潟市",
          "types": [
            "locality",
            "political"
          ]
        },
        {
          "long_name": "新潟県",
          "short_name": "新潟県",
          "types": [
            "administrative_area_level_1",
            "political"
          ]
        },
        {
          "long_name": "日本",
          "short_name": "JP",
          "types": [
            "country",
            "political"
          ]
        },
        {
          "long_name": "950-1262",
          "short_name": "950-1262",
          "types": [
            "postal_code"
          ]
        }
      ],
      "formatted_address": "日本、〒950-1262 新潟県新潟市南区西白根１４４０",
      "geometry": {
        "location": {
          "lat": 37.76180009999999,
          "lng": 139.0106161
        },
        "location_type": "ROOFTOP",
        "viewport": {
          "northeast": {
            "lat": 37.76314908029149,
            "lng": 139.0119650802915
          },
          "southwest": {
            "lat": 37.7604511197085,
            "lng": 139.0092671197085
          }
        }
      },
      "place_id": "ChIJa8KlO8Xc9F8R8UqylVeBaUk",
      "plus_code": {
        "compound_code": "Q266+P6 日本、新潟県新潟市",
        "global_code": "8Q9XQ266+P6"
      },
      "types": [
        "street_address"
      ]
    },
    {
      "address_components": [
        {
          "long_name": "黒埼新飯田線",
          "short_name": "県道325号",
          "types": [
            "route"
          ]
        },
        {
          "long_name": "西白根",
          "short_name": "西白根",
          "types": [
            "political",
            "sublocality",
            "sublocality_level_2"
          ]
        },
        {
          "long_name": "南区",
          "short_name": "南区",
          "types": [
            "political",
            "sublocality",
            "sublocality_level_1"
          ]
        },
        {
          "long_name": "新潟市",
          "short_name": "新潟市",
          "types": [
            "locality",
            "political"
          ]
        },
        {
          "long_name": "新潟県",
          "short_name": "新潟県",
          "types": [
            "administrative_area_level_1",
            "political"
          ]
        },
        {
          "long_name": "日本",
          "short_name": "JP",
          "types": [
            "country",
            "political"
          ]
        },
        {
          "long_name": "950-1262",
          "short_name": "950-1262",
          "types": [
            "postal_code"
          ]
        }
      ],
      "formatted_address": "日本、〒950-1262 新潟県新潟市南区西白根 県道325号",
      "geometry": {
        "bounds": {
          "northeast": {
            "lat": 37.7617677,
            "lng": 139.0111707
          },
          "southwest": {
            "lat": 37.7610495,
            "lng": 139.0111023
          }
        },
        "location": {
          "lat": 37.7614079,
          "lng": 139.0111486
        },
        "location_type": "GEOMETRIC_CENTER",
        "viewport": {
          "northeast": {
            "lat": 37.7627575802915,
            "lng": 139.0124854802915
          },
          "southwest": {
            "lat": 37.7600596197085,
            "lng": 139.0097875197085
          }
        }
      },
      "place_id": "ChIJIya4J8Xc9F8RirR4H-Q-UO4",
      "types": [
        "route"
      ]
    },
    {
      "address_components": [
        {
          "long_name": "950-1262",
          "short_name": "950-1262",
          "types": [
            "postal_code"
          ]
        },
        {
          "long_name": "西白根",
          "short_name": "西白根",
          "types": [
            "political",
            "sublocality",
            "sublocality_level_2"
          ]
        },
        {
          "long_name": "南区",
          "short_name": "南区",
          "types": [
            "political",
            "sublocality",
            "sublocality_level_1"
          ]
        },
        {
          "long_name": "新潟市",
          "short_name": "新潟市",
          "types": [
            "locality",
            "political"
          ]
        },
        {
          "long_name": "新潟県",
          "short_name": "新潟県",
          "types": [
            "administrative_area_level_1",
            "political"
          ]
        },
        {
          "long_name": "日本",
          "short_name": "JP",
          "types": [
            "country",
            "political"
          ]
        }
      ],
      "formatted_address": "日本 〒950-1262",
      "geometry": {
        "bounds": {
          "northeast": {
            "lat": 37.7735479,
            "lng": 139.012492
          },
          "southwest": {
            "lat": 37.7519154,
            "lng": 138.9913091
          }
        },
        "location": {
          "lat": 37.7625762,
          "lng": 139.0032593
        },
        "location_type": "APPROXIMATE",
        "viewport": {
          "northeast": {
            "lat": 37.7735479,
            "lng": 139.012492
          },
          "southwest": {
            "lat": 37.7519154,
            "lng": 138.9913091
          }
        }
      },
      "place_id": "ChIJpwfyBCDd9F8Rxh-LRKZtA04",
      "types": [
        "postal_code"
      ]
    },
    {
      "address_components": [
        {
          "long_name": "西白根",
          "short_name": "西白根",
          "types": [
            "political",
            "sublocality",
            "sublocality_level_2"
          ]
        },
        {
          "long_name": "南区",
          "short_name": "南区",
          "types": [
            "political",
            "sublocality",
            "sublocality_level_1"
          ]
        },
        {
          "long_name": "新潟市",
          "short_name": "新潟市",
          "types": [
            "locality",
            "political"
          ]
        },
        {
          "long_name": "新潟県",
          "short_name": "新潟県",
          "types": [
            "administrative_area_level_1",
            "political"
          ]
        },
        {
          "long_name": "日本",
          "short_name": "JP",
          "types": [
            "country",
            "political"
          ]
        },
        {
          "long_name": "950-1262",
          "short_name": "950-1262",
          "types": [
            "postal_code"
          ]
        }
      ],
      "formatted_address": "日本、〒950-1262 新潟県新潟市南区西白根",
      "geometry": {
        "bounds": {
          "northeast": {
            "lat": 37.7735479,
            "lng": 139.012492
          },
          "southwest": {
            "lat": 37.7519154,
            "lng": 138.9913091
          }
        },
        "location": {
          "lat": 37.7625762,
          "lng": 139.0032593
        },
        "location_type": "APPROXIMATE",
        "viewport": {
          "northeast": {
            "lat": 37.7735479,
            "lng": 139.012492
          },
          "southwest": {
            "lat": 37.7519154,
            "lng": 138.9913091
          }
        }
      },
      "place_id": "ChIJuVBrDtHc9F8RDLL0bjPvLbk",
      "types": [
        "political",
        "sublocality",
        "sublocality_level_2"
      ]
    },
    {
      "address_components": [
        {
          "long_name": "南区",
          "short_name": "南区",
          "types": [
            "political",
            "sublocality",
            "sublocality_level_1"
          ]
        },
        {
          "long_name": "新潟市",
          "short_name": "新潟市",
          "types": [
            "locality",
            "political"
          ]
        },
        {
          "long_name": "新潟県",
          "short_name": "新潟県",
          "types": [
            "administrative_area_level_1",
            "political"
          ]
        },
        {
          "long_name": "日本",
          "short_name": "JP",
          "types": [
            "country",
            "political"
          ]
        }
      ],
      "formatted_address": "日本、新潟県新潟市南区",
      "geometry": {
        "bounds": {
          "northeast": {
            "lat": 37.8546684,
            "lng": 139.0716607
          },
          "southwest": {
            "lat": 37.678816,
            "lng": 138.9688992
          }
        },
        "location": {
          "lat": 37.7709799,
          "lng": 139.0286932
        },
        "location_type": "APPROXIMATE",
        "viewport": {
          "northeast": {
            "lat": 37.8546684,
            "lng": 139.0716607
          },
          "southwest": {
            "lat": 37.678816,
            "lng": 138.9688992
          }
        }
      },
      "place_id": "ChIJCdE5BLjc9F8RsaVUvaRjWXE",
      "types": [
        "political",
        "sublocality",
        "sublocality_level_1"
      ]
    },
    {
      "address_components": [
        {
          "long_name": "新潟市",
          "short_name": "新潟市",
          "types": [
            "locality",
            "political"
          ]
        },
        {
          "long_name": "新潟県",
          "short_name": "新潟県",
          "types": [
            "administrative_area_level_1",
            "political"
          ]
        },
        {
          "long_name": "日本",
          "short_name": "JP",
          "types": [
            "country",
            "political"
          ]
        }
      ],
      "formatted_address": "日本、新潟県新潟市",
      "geometry": {
        "bounds": {
          "northeast": {
            "lat": 38.0019173,
            "lng": 139.2669056
          },
          "southwest": {
            "lat": 37.678816,
            "lng": 138.7843233
          }
        },
        "location": {
          "lat": 37.9161244,
          "lng": 139.0363708
        },
        "location_type": "APPROXIMATE",
        "viewport": {
          "northeast": {
            "lat": 38.0019173,
            "lng": 139.2669056
          },
          "southwest": {
            "lat": 37.678816,
            "lng": 138.7843233
          }
        }
      },
      "place_id": "ChIJ98DHVcLF9F8RDSOQycubUPE",
      "types": [
        "locality",
        "political"
      ]
    },
    {
      "address_components": [
        {
          "long_name": "新潟県",
          "short_name": "新潟県",
          "types": [
            "administrative_area_level_1",
            "political"
          ]
        },
        {
          "long_name": "日本",
          "short_name": "JP",
          "types": [
            "country",
            "political"
          ]
        }
      ],
      "formatted_address": "日本、新潟県",
      "geometry": {
        "bounds": {
          "northeast": {
            "lat": 38.5535962,
            "lng": 139.8998675
          },
          "southwest": {
            "lat": 36.73657,
            "lng": 137.6350483
          }
        },
        "location": {
          "lat": 37.5178386,
          "lng": 138.9269794
        },
        "location_type": "APPROXIMATE",
        "viewport": {
          "northeast": {
            "lat": 38.5535962,
            "lng": 139.8998675
          },
          "southwest": {
            "lat": 36.73657,
            "lng": 137.6350483
          }
        }
      },
      "place_id": "ChIJATtK2PaFjF8RSPPdfITZi7Q",
      "types": [
        "administrative_area_level_1",
        "political"
      ]
    },
    {
      "address_components": [
        {
          "long_name": "日本",
          "short_name": "JP",
          "types": [
            "country",
            "political"
          ]
        }
      ],
      "formatted_address": "日本",
      "geometry": {
        "bounds": {
          "northeast": {
            "lat": 45.6412626,
            "lng": 154.0031455
          },
          "southwest": {
            "lat": 20.3585295,
            "lng": 122.8554688
          }
        },
        "location": {
          "lat": 36.204824,
          "lng": 138.252924
        },
        "location_type": "APPROXIMATE",
        "viewport": {
          "northeast": {
            "lat": 45.6412626,
            "lng": 154.0031455
          },
          "southwest": {
            "lat": 20.3585295,
            "lng": 122.8554688
          }
        }
      },
      "place_id": "ChIJLxl_1w9OZzQRRFJmfNR1QvU",
      "types": [
        "country",
        "political"
      ]
    },
    {
      "address_components": [
        {
          "long_name": "Q266+P8",
          "short_name": "Q266+P8",
          "types": [
            "plus_code"
          ]
        },
        {
          "long_name": "新潟市",
          "short_name": "新潟市",
          "types": [
            "locality",
            "political"
          ]
        },
        {
          "long_name": "新潟県",
          "short_name": "新潟県",
          "types": [
            "administrative_area_level_1",
            "political"
          ]
        },
        {
          "long_name": "日本",
          "short_name": "JP",
          "types": [
            "country",
            "political"
          ]
        }
      ],
      "formatted_address": "Q266+P8 日本、新潟県新潟市",
      "geometry": {
        "bounds": {
          "northeast": {
            "lat": 37.761875,
            "lng": 139.010875
          },
          "southwest": {
            "lat": 37.76175,
            "lng": 139.01075
          }
        },
        "location": {
          "lat": 37.761778,
          "lng": 139.010806
        },
        "location_type": "ROOFTOP",
        "viewport": {
          "northeast": {
            "lat": 37.76316148029149,
            "lng": 139.0121614802915
          },
          "southwest": {
            "lat": 37.76046351970849,
            "lng": 139.0094635197085
          }
        }
      },
      "place_id": "GhIJ-WcG8YHhQkAROBPThVhgYUA",
      "plus_code": {
        "compound_code": "Q266+P8 日本、新潟県新潟市",
        "global_code": "8Q9XQ266+P8"
      },
      "types": [
        "plus_code"
      ]
    }
  ]
}