{
  "station": "九十九湾小木",
  "lat": 37.310917,
  "lng": 137.22825,
  "plus_code": {
    "compound_code": "866H+98 日本、石川県能登町",
    "global_code": "8Q9V866H+98"
  },
  "results": [
    {
      "address_components": [
        {
          "long_name": "１−５７",
          "short_name": "１−５７",
          "types": [
            "premise"
          ]
        },
        {
          "long_name": "市之瀬",
          "short_name": "市之瀬",
          "types": [
            "political",
            "sublocality",
            "sublocality_level_2"
          ]
        },
        {
          "long_name": "能登町",
          "short_name": "能登町",
          "types": [
            "locality",
            "political"
          ]
        },
        {
          "long_name": "鳳珠郡",
          "short_name": "鳳珠郡",
          "types": [
            "administrative_area_level_2",
            "political"
          ]
        },
        {
          "long_name": "石川県",
          "short_name": "石川県",
          "types": [
            "administrative_area_level_1",
            "political"
          ]
        },
        {
          "long_name": "日本",
          "short_name": "JP",
          "types": [
            "country",
            "political"
          ]
        },
        {
          "long_name": "927-0554",
          "short_name": "927-0554",
          "types": [
            "postal_code"
          ]
        }
      ],
      "formatted_address": "日本、〒927-0554 石川県鳳珠郡能登町市之瀬１−５７",
      "geometry": {
        "location": {
          "lat": 37.3109067,
          "lng": 137.228267
        },
        "location_type": "ROOFTOP",
        "viewport": {
          "northeast": {
            "lat": 37.3122556802915,
            "lng": 137.2296159802915
          },
          "southwest": {
            "lat": 37.3095577197085,
            "lng": 137.2269180197085
          }
        }
      },
      "place_id": "ChIJAZw8_GrP9l8RubpmTqvdptc",
      "plus_code": {
        "compound_code": "866H+98 日本、石川県能登町",
        "global_code": "8Q9V866H+98"
      },
      "types": [
        "street_address"
      ]
    },
    {
      "address_components": [
        {
          "long_name": "１−５７−３",
          "short_name": "１−５７−３",
          "types": [
            "premise"
          ]
        },
        {
          "long_name": "市之瀬",
          "short_name": "市之瀬",
          "types": [
            "political",
            "sublocality",
            "sublocality_level_2"
          ]
        },
        {
          "long_name": "能登町",
          "short_name": "能登町",
          "types": [
            "locality",
            "political"
          ]
        },
        {
          "long_name": "鳳珠郡",
          "short_name": "鳳珠郡",
          "types": [
            "administrative_area_level_2",
            "political"
          ]
        },
        {
          "long_name": "石川県",
          "short_name": "石川県",
          "types": [
            "administrative_area_level_1",
            "political"
          ]
        },
        {
          "long_name": "日本",
          "short_name": "JP",
          "types": [
            "country",
            "political"
          ]
        },
        {
          "long_name": "927-0554",
          "short_name": "927-0554",
          "types": [
            "postal_code"
          ]
        }
      ],
      "formatted_address": "日本、〒927-0554 石川県鳳珠郡能登町市之瀬１−５７−３",
      "geometry": {
        "bounds": {
          "northeast": {
            "lat": 37.3109929,
            "lng": 137.228352
          },
          "southwest": {
            "lat": 37.3107852,
            "lng": 137.2281619
          }
        },
        "location": {
          "lat": 37.3109128,
          "lng": 137.2282531
        },
        "location_type": "ROOFTOP",
        "viewport": {
          "northeast": {
            "lat": 37.3122380302915,
            "lng": 137.2296059302915
          },
          "southwest": {
            "lat": 37.3095400697085,
            "lng": 137.2269079697085
          }
        }
      },
      "place_id": "ChIJFa4-_GrP9l8RFwTmtBv892M",
      "types": [
        "premise"
      ]
    },
    {
      "address_components": [
        {
          "long_name": "九十九湾（バス）",
          "short_name": "九十九湾（バス）",
          "types": [
            "establishment",
            "point_of_interest",
            "transit_station"
          ]
        },
        {
          "long_name": "市之瀬",
          "short_name": "市之瀬",
          "types": [
            "political",
            "sublocality",
            "sublocality_level_2"
          ]
        },
        {
          "long_name": "能登町",
          "short_name": "能登町",
          "types": [
            "locality",
            "political"
          ]
        },
        {
          "long_name": "鳳珠郡",
          "short_name": "鳳珠郡",
          "types": [
            "administrative_area_level_2",
            "political"
          ]
        },
        {
          "long_name": "石川県",
          "short_name": "石川県",
          "types": [
            "administrative_area_level_1",
            "political"
          ]
        },
        {
          "long_name": "日本",
          "short_name": "JP",
          "types": [
            "country",
            "political"
          ]
        },
        {
          "long_name": "927-0554",
          "short_name": "927-0554",
          "types": [
            "postal_code"
          ]
        }
      ],
      "formatted_address": "日本、〒927-0554 石川県鳳珠郡能登町市之瀬 九十九湾（バス）",
      "geometry": {
        "location": {
          "lat": 37.3106544,
          "lng": 137.2284131
        },
        "location_type": "GEOMETRIC_CENTER",
        "viewport": {
          "northeast": {
            "lat": 37.31200338029149,
            "lng": 137.2297620802915
          },
          "southwest": {
            "lat": 37.30930541970849,
            "lng": 137.2270641197085
          }
        }
      },
      "place_id": "ChIJV7j5_2rP9l8RyRTySmFQdcE",
      "plus_code": {
        "compound_code": "866H+79 日本、石川県能登町",
        "global_code": "8Q9V866H+79"
      },
      "types": [
        "establishment",
        "point_of_interest",
        "transit_station"
      ]
    },
    {
      "address_components": [
        {
          "long_name": "１−６２",
          "short_name": "１−６２",
          "types": [
            "premise"
          ]
        },
        {
          "long_name": "市之瀬",
          "short_name": "市之瀬",
          "types": [
            "political",
            "sublocality",
            "sublocality_level_2"
          ]
        },
        {
          "long_name": "能登町",
          "short_name": "能登町",
          "types": [
            "locality",
            "political"
          ]
        },
        {
          "long_name": "鳳珠郡",
          "short_name": "鳳珠郡",
          "types": [
            "administrative_area_level_2",
            "political"
          ]
        },
        {
          "long_name": "石川県",
          "short_name": "石川県",
          "types": [
            "administrative_area_level_1",
            "political"
          ]
        },
        {
          "long_name": "日本",
          "short_name": "JP",
          "types": [
            "country",
            "political"
          ]
        },
        {
          "long_name": "927-0554",
          "short_name": "927-0554",
          "types": [
            "postal_code"
          ]
        }
      ],
      "formatted_address": "日本、〒927-0554 石川県鳳珠郡能登町市之瀬１−６２",
      "geometry": {
        "location": {
          "lat": 37.3113196,
          "lng": 137.2284558
        },
        "location_type": "ROOFTOP",
        "viewport": {
          "northeast": {
            "lat": 37.3126685802915,
            "lng": 137.2298047802915
          },
          "southwest": {
            "lat": 37.3099706197085,
            "lng": 137.2271068197085
          }
        }
      },
      "place_id": "ChIJe3C372rP9l8R2_dDAgObIoA",
      "plus_code": {
        "compound_code": "866H+G9 日本、石川県能登町",
        "global_code": "8Q9V866H+G9"
      },
      "types": [
        "establishment",
        "point_of_interest"
      ]
    },
    {
      "address_components": [
        {
          "long_name": "能都内浦線",
          "short_name": "県道35号",
          "types": [
            "route"
          ]
        },
        {
          "long_name": "市之瀬",
          "short_name": "市之瀬",
          "types": [
            "political",
            "sublocality",
            "sublocality_level_2"
          ]
        },
        {
          "long_name": "能登町",
          "short_name": "能登町",
          "types": [
            "locality",
            "political"
          ]
        },
        {
          "long_name": "鳳珠郡",
          "short_name": "鳳珠郡",
          "types": [
            "administrative_area_level_2",
            "political"
          ]
        },
        {
          "long_name": "石川県",
          "short_name": "石川県",
          "types": [
            "administrative_area_level_1",
            "political"
          ]
        },
        {
          "long_name": "日本",
          "short_name": "JP",
          "types": [
            "country",
            "political"
          ]
        },
        {
          "long_name": "927-0554",
          "short_name": "927-0554",
          "types": [
            "postal_code"
          ]
        }
      ],
      "formatted_address": "日本、〒927-0554 石川県鳳珠郡能登町市之瀬 県道35号",
      "geometry": {
        "bounds": {
          "northeast": {
            "lat": 37.3111498,
            "lng": 137.2287847
          },
          "southwest": {
            "lat": 37.3103126,
            "lng": 137.2282296
          }
        },
        "location": {
          "lat": 37.31072959999999,
          "lng": 137.2285109
        },
        "location_type": "GEOMETRIC_CENTER",
        "viewport": {
          "northeast": {
            "lat": 37.3120801802915,
            "lng": 137.2298561302915
          },
          "southwest": {
            "lat": 37.3093822197085,
            "lng": 137.2271581697085
          }
        }
      },
      "place_id": "ChIJS1B2_2rP9l8R4kR-4F_MSJA",
      "types": [
        "route"
      ]
    },
    {
      "address_components": [
        {
          "long_name": "市之瀬",
          "short_name": "市之瀬",
          "types": [
            "political",
            "sublocality",
            "sublocality_level_2"
          ]
        },
        {
          "long_name": "能登町",
          "short_name": "能登町",
          "types": [
            "locality",
            "political"
          ]
        },
        {
          "long_name": "鳳珠郡",
          "short_name": "鳳珠郡",
          "types": [
            "administrative_area_level_2",
            "political"
          ]
        },
        {
          "long_name": "石川県",
          "short_name": "石川県",
          "types": [
            "administrative_area_level_1",
            "political"
          ]
        },
        {
          "long_name": "日本",
          "short_name": "JP",
          "types": [
            "country",
            "political"
          ]
        },
        {
          "long_name": "927-0554",
          "short_name": "927-0554",
          "types": [
            "postal_code"
          ]
        }
      ],
      "formatted_address": "日本、〒927-0554 石川県鳳珠郡能登町市之瀬",
      "geometry": {
        "bounds": {
          "northeast": {
            "lat": 37.3170243,
            "lng": 137.2312751
          },
          "southwest": {
            "lat": 37.3057917,
            "lng": 137.2075661
          }
        },
        "location": {
          "lat": 37.313113,
          "lng": 137.2236321
        },
        "location_type": "APPROXIMATE",
        "viewport": {
          "northeast": {
            "lat": 37.3170243,
            "lng": 137.2312751
          },
          "southwest": {
            "lat": 37.3057917,
            "lng": 137.2075661
          }
        }
      },
      "place_id": "ChIJMWaFnRTP9l8RqzuGxPO01pw",
      "types": [
        "political",
        "sublocality",
        "sublocality_level_2"
      ]
    },
    {
      "address_components": [
        {
          "long_name": "927-0554",
          "short_name": "927-0554",
          "types": [
            "postal_code"
          ]
        },
        {
          "long_name": "市之瀬",
          "short_name": "市之瀬",
          "types": [
            "political",
            "sublocality",
            "sublocality_level_2"
          ]
        },
        {
          "long_name": "能登町",
          "short_name": "能登町",
          "types": [
            "locality",
            "political"
          ]
        },
        {
          "long_name": "鳳珠郡",
          "short_name": "鳳珠郡",
          "types": [
            "administrative_area_level_2",
            "political"
          ]
        },
        {
          "long_name": "石川県",
          "short_name": "石川県",
          "types": [
            "administrative_area_level_1",
            "political"
          ]
        },
        {
          "long_name": "日本",
          "short_name": "JP",
          "types": [
            "country",
            "political"
          ]
        }
      ],
      "formatted_address": "日本 〒927-0554",
      "geometry": {
        "bounds": {
          "northeast": {
            "lat": 37.3170243,
            "lng": 137.2312751
          },
          "southwest": {
            "lat": 37.3057917,
            "lng": 137.2075661
          }
        },
        "location": {
          "lat": 37.313113,
          "lng": 137.2236321
        },
        "location_type": "APPROXIMATE",
        "viewport": {
          "northeast": {
            "lat": 37.3170243,
            "lng": 137.2312751
          },
          "southwest": {
            "lat": 37.3057917,
            "lng": 137.2075661
          }
        }
      },
      "place_id": "ChIJj0wsWWrP9l8RcWyw6uztHdI",
      "types": [
        "postal_code"
      ]
    },
    {
      "address_components": [
        {
          "long_name": "能登町",
          "short_name": "能登町",
          "types": [
            "locality",
            "political"
          ]
        },
        {
          "long_name": "鳳珠郡",
          "short_name": "鳳珠郡",
          "types": [
            "administrative_area_level_2",
            "political"
          ]
        },
        {
          "long_name": "石川県",
          "short_name": "石川県",
          "types": [
            "administrative_area_level_1",
            "political"
          ]
        },
        {
          "long_name": "日本",
          "short_name": "JP",
          "types": [
            "country",
            "political"
          ]
        }
      ],
      "formatted_address": "日本、石川県鳳珠郡能登町",
      "geometry": {
        "bounds": {
          "northeast": {
            "lat": 37.406005,
            "lng": 137.2689339
          },
          "southwest": {
            "lat": 37.24671420000001,
            "lng": 136.961842
          }
        },
        "location": {
          "lat": 37.3066518,
          "lng": 137.1500418
        },
        "location_type": "APPROXIMATE",
        "viewport": {
          "northeast": {
            "lat": 37.406005,
            "lng": 137.2689339
          },
          "southwest": {
            "lat": 37.24671420000001,
            "lng": 136.961842
          }
        }
      },
      "place_id": "ChIJoy-cieXN9l8R8cpGddQ40yM",
      "types": [
        "locality",
        "political"
      ]
    },
    {
      "address_components": [
        {
          "long_name": "鳳珠郡",
          "short_name": "鳳珠郡",
          "types": [
            "administrative_area_level_2",
            "political"
          ]
        },
        {
          "long_name": "石川県",
          "short_name": "石川県",
          "types": [
            "administrative_area_level_1",
            "political"
          ]
        },
        {
          "long_name": "日本",
          "short_name": "JP",
          "types": [
            "country",
            "political"
          ]
        }
      ],
      "formatted_address": "日本、石川県鳳珠郡",
      "geometry": {
        "bounds": {
          "northeast": {
            "lat": 37.406005,
            "lng": 137.2689339
          },
          "southwest": {
            "lat": 37.1640311,
            "lng": 136.7881235
          }
        },
        "location": {
          "lat": 37.29894110000001,
          "lng": 137.0324186
        },
        "location_type": "APPROXIMATE",
        "viewport": {
          "northeast": {
            "lat": 37.406005,
            "lng": 137.2689339
          },
          "southwest": {
            "lat": 37.1640311,
            "lng": 136.7881235
          }
        }
      },
      "place_id": "ChIJ6VbNHPrT9l8RTUNBUs-clgQ",
      "types": [
        "administrative_area_level_2",
        "political"
      ]
    },
    {
      "address_components": [
        {
          "long_name": "石川県",
          "short_name": "石川県",
          "types": [
            "administrative_area_level_1",
            "political"
          ]
        },
        {
          "long_name": "日本",
          "short_name": "JP",
          "types": [
            "country",
            "political"
          ]
        }
      ],
      "formatted_address": "日本、石川県",
      "geometry": {
        "bounds": {
          "northeast": {
            "lat": 37.8579593,
            "lng": 137.3652437
          },
          "southwest": {
            "lat": 36.0674589,
            "lng": 136.2436536
          }
        },
        "location": {
          "lat": 36.3260317,
          "lng": 136.5289653
        },
        "location_type": "APPROXIMATE",
        "viewport": {
          "northeast": {
            "lat": 37.8579593,
            "lng": 137.3652437
          },
          "southwest": {
            "lat": 36.0674589,
            "lng": 136.2436536
          }
        }
      },
      "place_id": "ChIJ7xq8wV5-8V8RtJoYjRM81Es",
      "types": [
        "administrative_area_level_1",
        "political"
      ]
    },
    {
      "address_components": [
        {
          "long_name": "日本",
          "short_name": "JP",
          "types": [
            "country",
            "political"
          ]
        }
      ],
      "formatted_address": "日本",
      "geometry": {
        "bounds": {
          "northeast": {
            "lat": 45.6412626,
            "lng": 154.0031455
          },
          "southwest": {
            "lat": 20.3585295,
            "lng": 122.8554688
          }
        },
        "location": {
          "lat": 36.204824,
          "lng": 138.252924
        },
        "location_type": "APPROXIMATE",
        "viewport": {
          "northeast": {
            "lat": 45.6412626,
            "lng": 154.0031455
          },
          "southwest": {
            "lat": 20.3585295,
            "lng": 122.8554688
          }
        }
      },
      "place_id": "ChIJLxl_1w9OZzQRRFJmfNR1QvU",
      "types": [
        "country",
        "political"
      ]
    },
    {
      "address_components": [
        {
          "long_name": "866H+98",
          "short_name": "866H+98",
          "types": [
            "plus_code"
          ]
        },
        {
          "long_name": "能登町",
          "short_name": "能登町",
          "types": [
            "locality",
            "political"
          ]
        },
        {
          "long_name": "鳳珠郡",
          "short_name": "鳳珠郡",
          "types": [
            "administrative_area_level_2",
            "political"
          ]
        },
        {
          "long_name": "石川県",
          "short_name": "石川県",
          "types": [
            "administrative_area_level_1",
            "political"
          ]
        },
        {
          "long_name": "日本",
          "short_name": "JP",
          "types": [
            "country",
            "political"
          ]
        }
      ],
      "formatted_address": "866H+98 日本、石川県能登町",
      "geometry": {
        "bounds": {
          "northeast": {
            "lat": 37.311,
            "lng": 137.228375
          },
          "southwest": {
            "lat": 37.310875,
            "lng": 137.22825
          }
        },
        "location": {
          "lat": 37.310917,
          "lng": 137.22825
        },
        "location_type": "ROOFTOP",
        "viewport": {
          "northeast": {
            "lat": 37.3122864802915,
            "lng": 137.2296614802915
          },
          "southwest": {
            "lat": 37.3095885197085,
            "lng": 137.2269635197085
          }
        }
      },
      "place_id": "GhIJnWLVIMynQkAR_Knx0k0nYUA",
      "plus_code": {
        "compound_code": "866H+98 日本、石川県能登町",
        "global_code": "8Q9V866H+98"
      },
      "types": [
        "plus_code"
      ]
    }
  ]
}