{
  "station": "藤波",
  "lat": 37.296667,
  "lng": 137.1365,
  "plus_code": {
    "compound_code": "74WP+MH 日本、石川県能登町",
    "global_code": "8Q9V74WP+MH"
  },
  "results": [
    {
      "address_components": [
        {
          "long_name": "２２−２７丙",
          "short_name": "２２−２７丙",
          "types": [
            "premise"
          ]
        },
        {
          "long_name": "藤波",
          "short_name": "藤波",
          "types": [
            "political",
            "sublocality",
            "sublocality_level_2"
          ]
        },
        {
          "long_name": "能登町",
          "short_name": "能登町",
          "types": [
            "locality",
            "political"
          ]
        },
        {
          "long_name": "鳳珠郡",
          "short_name": "鳳珠郡",
          "types": [
            "administrative_area_level_2",
            "political"
          ]
        },
        {
          "long_name": "石川県",
          "short_name": "石川県",
          "types": [
            "administrative_area_level_1",
            "political"
          ]
        },
        {
          "long_name": "日本",
          "short_name": "JP",
          "types": [
            "country",
            "political"
          ]
        },
        {
          "long_name": "927-0441",
          "short_name": "927-0441",
          "types": [
            "postal_code"
          ]
        }
      ],
      "formatted_address": "日本、〒927-0441 石川県鳳珠郡能登町藤波２２−２７丙",
      "geometry": {
        "location": {
          "lat": 37.2966215,
          "lng": 137.1361577
        },
        "location_type": "ROOFTOP",
        "viewport": {
          "northeast": {
            "lat": 37.2979704802915,
            "lng": 137.1375066802915
          },
          "southwest": {
            "lat": 37.2952725197085,
            "lng": 137.1348087197085
          }
        }
      },
      "place_id": "ChIJ4b5MGtHR9l8RG9rCPOI-ohk",
      "plus_code": {
        "compound_code": "74WP+JF 日本、石川県能登町",
        "global_code": "8Q9V74WP+JF"
      },
      "types": [
        "establishment",
        "point_of_interest"
      ]
    },
    {
      "address_components": [
        {
          "long_name": "２２−２３",
          "short_name": "２２−２３",
          "types": [
            "premise"
          ]
        },
        {
          "long_name": "藤波",
          "short_name": "藤波",
          "types": [
            "political",
            "sublocality",
            "sublocality_level_2"
          ]
        },
        {
          "long_name": "能登町",
          "short_name": "能登町",
          "types": [
            "locality",
            "political"
          ]
        },
        {
          "long_name": "鳳珠郡",
          "short_name": "鳳珠郡",
          "types": [
            "administrative_area_level_2",
            "political"
          ]
        },
        {
          "long_name": "石川県",
          "short_name": "石川県",
          "types": [
            "administrative_area_level_1",
            "political"
          ]
        },
        {
          "long_name": "日本",
          "short_name": "JP",
          "types": [
            "country",
            "political"
          ]
        },
        {
          "long_name": "927-0441",
          "short_name": "927-0441",
          "types": [
            "postal_code"
          ]
        }
      ],
      "formatted_address": "日本、〒927-0441 石川県鳳珠郡能登町藤波２２−２３",
      "geometry": {
        "location": {
          "lat": 37.2966335,
          "lng": 137.1361463
        },
        "location_type": "ROOFTOP",
        "viewport": {
          "northeast": {
            "lat": 37.29798248029149,
            "lng": 137.1374952802915
          },
          "southwest": {
            "lat": 37.2952845197085,
            "lng": 137.1347973197085
          }
        }
      },
      "place_id": "ChIJyXK0G9HR9l8R8AfFuUSdZ2M",
      "plus_code": {
        "compound_code": "74WP+MF 日本、石川県能登町",
        "global_code": "8Q9V74WP+MF"
      },
      "types": [
        "street_address"
      ]
    },
    {
      "address_components": [
        {
          "long_name": "２１−１７",
          "short_name": "２１−１７",
          "types": [
            "premise"
          ]
        },
        {
          "long_name": "藤波",
          "short_name": "藤波",
          "types": [
            "political",
            "sublocality",
            "sublocality_level_2"
          ]
        },
        {
          "long_name": "能登町",
          "short_name": "能登町",
          "types": [
            "locality",
            "political"
          ]
        },
        {
          "long_name": "鳳珠郡",
          "short_name": "鳳珠郡",
          "types": [
            "administrative_area_level_2",
            "political"
          ]
        },
        {
          "long_name": "石川県",
          "short_name": "石川県",
          "types": [
            "administrative_area_level_1",
            "political"
          ]
        },
        {
          "long_name": "日本",
          "short_name": "JP",
          "types": [
            "country",
            "political"
          ]
        },
        {
          "long_name": "927-0441",
          "short_name": "927-0441",
          "types": [
            "postal_code"
          ]
        }
      ],
      "formatted_address": "日本、〒927-0441 石川県鳳珠郡能登町藤波２１−１７",
      "geometry": {
        "bounds": {
          "northeast": {
            "lat": 37.2962885,
            "lng": 137.1376766
          },
          "southwest": {
            "lat": 37.2961013,
            "lng": 137.1374297
          }
        },
        "location": {
          "lat": 37.2961948,
          "lng": 137.1375679
        },
        "location_type": "ROOFTOP",
        "viewport": {
          "northeast": {
            "lat": 37.29754388029149,
            "lng": 137.1389021302915
          },
          "southwest": {
            "lat": 37.2948459197085,
            "lng": 137.1362041697085
          }
        }
      },
      "place_id": "ChIJC8j5QdHR9l8Rk8UPShD0MR0",
      "types": [
        "premise"
      ]
    },
    {
      "address_components": [
        {
          "long_name": "国道249号",
          "short_name": "国道249号",
          "types": [
            "route"
          ]
        },
        {
          "long_name": "藤波",
          "short_name": "藤波",
          "types": [
            "political",
            "sublocality",
            "sublocality_level_2"
          ]
        },
        {
          "long_name": "能登町",
          "short_name": "能登町",
          "types": [
            "locality",
            "political"
          ]
        },
        {
          "long_name": "鳳珠郡",
          "short_name": "鳳珠郡",
          "types": [
            "administrative_area_level_2",
            "political"
          ]
        },
        {
          "long_name": "石川県",
          "short_name": "石川県",
          "types": [
            "administrative_area_level_1",
            "political"
          ]
        },
        {
          "long_name": "日本",
          "short_name": "JP",
          "types": [
            "country",
            "political"
          ]
        },
        {
          "long_name": "927-0441",
          "short_name": "927-0441",
          "types": [
            "postal_code"
          ]
        }
      ],
      "formatted_address": "日本、〒927-0441 石川県鳳珠郡能登町藤波 国道249号",
      "geometry": {
        "bounds": {
          "northeast": {
            "lat": 37.296007,
            "lng": 137.137566
          },
          "southwest": {
            "lat": 37.2950386,
            "lng": 137.1364924
          }
        },
        "location": {
          "lat": 37.2956025,
          "lng": 137.1369148
        },
        "location_type": "GEOMETRIC_CENTER",
        "viewport": {
          "northeast": {
            "lat": 37.2968717802915,
            "lng": 137.1383781802915
          },
          "southwest": {
            "lat": 37.2941738197085,
            "lng": 137.1356802197085
          }
        }
      },
      "place_id": "ChIJGyscedHR9l8RZH_fYPbKntI",
      "types": [
        "route"
      ]
    },
    {
      "address_components": [
        {
          "long_name": "927-0441",
          "short_name": "927-0441",
          "types": [
            "postal_code"
          ]
        },
        {
          "long_name": "藤波",
          "short_name": "藤波",
          "types": [
            "political",
            "sublocality",
            "sublocality_level_2"
          ]
        },
        {
          "long_name": "能登町",
          "short_name": "能登町",
          "types": [
            "locality",
            "political"
          ]
        },
        {
          "long_name": "鳳珠郡",
          "short_name": "鳳珠郡",
          "types": [
            "administrative_area_level_2",
            "political"
          ]
        },
        {
          "long_name": "石川県",
          "short_name": "石川県",
          "types": [
            "administrative_area_level_1",
            "political"
          ]
        },
        {
          "long_name": "日本",
          "short_name": "JP",
          "types": [
            "country",
            "political"
          ]
        }
      ],
      "formatted_address": "日本 〒927-0441",
      "geometry": {
        "bounds": {
          "northeast": {
            "lat": 37.3197772,
            "lng": 137.1485053
          },
          "southwest": {
            "lat": 37.2897009,
            "lng": 137.1071887
          }
        },
        "location": {
          "lat": 37.2989559,
          "lng": 137.1301093
        },
        "location_type": "APPROXIMATE",
        "viewport": {
          "northeast": {
            "lat": 37.3197772,
            "lng": 137.1485053
          },
          "southwest": {
            "lat": 37.2897009,
            "lng": 137.1071887
          }
        }
      },
      "place_id": "ChIJ0WjkgSbO9l8RwO45MBMH2hY",
      "types": [
        "postal_code"
      ]
    },
    {
      "address_components": [
        {
          "long_name": "藤波",
          "short_name": "藤波",
          "types": [
            "political",
            "sublocality",
            "sublocality_level_2"
          ]
        },
        {
          "long_name": "能登町",
          "short_name": "能登町",
          "types": [
            "locality",
            "political"
          ]
        },
        {
          "long_name": "鳳珠郡",
          "short_name": "鳳珠郡",
          "types": [
            "administrative_area_level_2",
            "political"
          ]
        },
        {
          "long_name": "石川県",
          "short_name": "石川県",
          "types": [
            "administrative_area_level_1",
            "political"
          ]
        },
        {
          "long_name": "日本",
          "short_name": "JP",
          "types": [
            "country",
            "political"
          ]
        },
        {
          "long_name": "927-0441",
          "short_name": "927-0441",
          "types": [
            "postal_code"
          ]
        }
      ],
      "formatted_address": "日本、〒927-0441 石川県鳳珠郡能登町藤波",
      "geometry": {
        "bounds": {
          "northeast": {
            "lat": 37.3197772,
            "lng": 137.1485053
          },
          "southwest": {
            "lat": 37.2897009,
            "lng": 137.1071887
          }
        },
        "location": {
          "lat": 37.2989559,
          "lng": 137.1301093
        },
        "location_type": "APPROXIMATE",
        "viewport": {
          "northeast": {
            "lat": 37.3197772,
            "lng": 137.1485053
          },
          "southwest": {
            "lat": 37.2897009,
            "lng": 137.1071887
          }
        }
      },
      "place_id": "ChIJtYSy0d_R9l8Rv3uAbcmgzMI",
      "types": [
        "political",
        "sublocality",
        "sublocality_level_2"
      ]
    },
    {
      "address_components": [
        {
          "long_name": "能登町",
          "short_name": "能登町",
          "types": [
            "locality",
            "political"
          ]
        },
        {
          "long_name": "鳳珠郡",
          "short_name": "鳳珠郡",
          "types": [
            "administrative_area_level_2",
            "political"
          ]
        },
        {
          "long_name": "石川県",
          "short_name": "石川県",
          "types": [
            "administrative_area_level_1",
            "political"
          ]
        },
        {
          "long_name": "日本",
          "short_name": "JP",
          "types": [
            "country",
            "political"
          ]
        }
      ],
      "formatted_address": "日本、石川県鳳珠郡能登町",
      "geometry": {
        "bounds": {
          "northeast": {
            "lat": 37.406005,
            "lng": 137.2689339
          },
          "southwest": {
            "lat": 37.24671420000001,
            "lng": 136.961842
          }
        },
        "location": {
          "lat": 37.3066518,
          "lng": 137.1500418
        },
        "location_type": "APPROXIMATE",
        "viewport": {
          "northeast": {
            "lat": 37.406005,
            "lng": 137.2689339
          },
          "southwest": {
            "lat": 37.24671420000001,
            "lng": 136.961842
          }
        }
      },
      "place_id": "ChIJoy-cieXN9l8R8cpGddQ40yM",
      "types": [
        "locality",
        "political"
      ]
    },
    {
      "address_components": [
        {
          "long_name": "鳳珠郡",
          "short_name": "鳳珠郡",
          "types": [
            "administrative_area_level_2",
            "political"
          ]
        },
        {
          "long_name": "石川県",
          "short_name": "石川県",
          "types": [
            "administrative_area_level_1",
            "political"
          ]
        },
        {
          "long_name": "日本",
          "short_name": "JP",
          "types": [
            "country",
            "political"
          ]
        }
      ],
      "formatted_address": "日本、石川県鳳珠郡",
      "geometry": {
        "bounds": {
          "northeast": {
            "lat": 37.406005,
            "lng": 137.2689339
          },
          "southwest": {
            "lat": 37.1640311,
            "lng": 136.7881235
          }
        },
        "location": {
          "lat": 37.29894110000001,
          "lng": 137.0324186
        },
        "location_type": "APPROXIMATE",
        "viewport": {
          "northeast": {
            "lat": 37.406005,
            "lng": 137.2689339
          },
          "southwest": {
            "lat": 37.1640311,
            "lng": 136.7881235
          }
        }
      },
      "place_id": "ChIJ6VbNHPrT9l8RTUNBUs-clgQ",
      "types": [
        "administrative_area_level_2",
        "political"
      ]
    },
    {
      "address_components": [
        {
          "long_name": "石川県",
          "short_name": "石川県",
          "types": [
            "administrative_area_level_1",
            "political"
          ]
        },
        {
          "long_name": "日本",
          "short_name": "JP",
          "types": [
            "country",
            "political"
          ]
        }
      ],
      "formatted_address": "日本、石川県",
      "geometry": {
        "bounds": {
          "northeast": {
            "lat": 37.8579593,
            "lng": 137.3652437
          },
          "southwest": {
            "lat": 36.0674589,
            "lng": 136.2436536
          }
        },
        "location": {
          "lat": 36.3260317,
          "lng": 136.5289653
        },
        "location_type": "APPROXIMATE",
        "viewport": {
          "northeast": {
            "lat": 37.8579593,
            "lng": 137.3652437
          },
          "southwest": {
            "lat": 36.0674589,
            "lng": 136.2436536
          }
        }
      },
      "place_id": "ChIJ7xq8wV5-8V8RtJoYjRM81Es",
      "types": [
        "administrative_area_level_1",
        "political"
      ]
    },
    {
      "address_components": [
        {
          "long_name": "日本",
          "short_name": "JP",
          "types": [
            "country",
            "political"
          ]
        }
      ],
      "formatted_address": "日本",
      "geometry": {
        "bounds": {
          "northeast": {
            "lat": 45.6412626,
            "lng": 154.0031455
          },
          "southwest": {
            "lat": 20.3585295,
            "lng": 122.8554688
          }
        },
        "location": {
          "lat": 36.204824,
          "lng": 138.252924
        },
        "location_type": "APPROXIMATE",
        "viewport": {
          "northeast": {
            "lat": 45.6412626,
            "lng": 154.0031455
          },
          "southwest": {
            "lat": 20.3585295,
            "lng": 122.8554688
          }
        }
      },
      "place_id": "ChIJLxl_1w9OZzQRRFJmfNR1QvU",
      "types": [
        "country",
        "political"
      ]
    },
    {
      "address_components": [
        {
          "long_name": "74WP+MH",
          "short_name": "74WP+MH",
          "types": [
            "plus_code"
          ]
        },
        {
          "long_name": "能登町",
          "short_name": "能登町",
          "types": [
            "locality",
            "political"
          ]
        },
        {
          "long_name": "鳳珠郡",
          "short_name": "鳳珠郡",
          "types": [
            "administrative_area_level_2",
            "political"
          ]
        },
        {
          "long_name": "石川県",
          "short_name": "石川県",
          "types": [
            "administrative_area_level_1",
            "political"
          ]
        },
        {
          "long_name": "日本",
          "short_name": "JP",
          "types": [
            "country",
            "political"
          ]
        }
      ],
      "formatted_address": "74WP+MH 日本、石川県能登町",
      "geometry": {
        "bounds": {
          "northeast": {
            "lat": 37.29675,
            "lng": 137.1365
          },
          "southwest": {
            "lat": 37.29662500000001,
            "lng": 137.136375
          }
        },
        "location": {
          "lat": 37.296667,
          "lng": 137.1365
        },
        "location_type": "ROOFTOP",
        "viewport": {
          "northeast": {
            "lat": 37.2980364802915,
            "lng": 137.1377864802915
          },
          "southwest": {
            "lat": 37.2953385197085,
            "lng": 137.1350885197085
          }
        }
      },
      "place_id": "GhIJtmYrL_mlQkAR7Xw_NV4kYUA",
      "plus_code": {
        "compound_code": "74WP+MH 日本、石川県能登町",
        "global_code": "8Q9V74WP+MH"
      },
      "types": [
        "plus_code"
      ]
    }
  ]
}