{
  "station": "正院",
  "lat": 37.445861,
  "lng": 137.2885,
  "plus_code": {
    "compound_code": "C7WQ+89 日本、石川県珠洲市",
    "global_code": "8Q9VC7WQ+89"
  },
  "results": [
    {
      "address_components": [
        {
          "long_name": "３８",
          "short_name": "３８",
          "types": [
            "premise"
          ]
        },
        {
          "long_name": "正院",
          "short_name": "正院",
          "types": [
            "political",
            "sublocality",
            "sublocality_level_3"
          ]
        },
        {
          "long_name": "正院町",
          "short_name": "正院町",
          "types": [
            "political",
            "sublocality",
            "sublocality_level_2"
          ]
        },
        {
          "long_name": "珠洲市",
          "short_name": "珠洲市",
          "types": [
            "locality",
            "political"
          ]
        },
        {
          "long_name": "石川県",
          "short_name": "石川県",
          "types": [
            "administrative_area_level_1",
            "political"
          ]
        },
        {
          "long_name": "日本",
          "short_name": "JP",
          "types": [
            "country",
            "political"
          ]
        },
        {
          "long_name": "927-1206",
          "short_name": "927-1206",
          "types": [
            "postal_code"
          ]
        }
      ],
      "formatted_address": "日本、〒927-1206 石川県珠洲市正院町正院３８",
      "geometry": {
        "location": {
          "lat": 37.4458124,
          "lng": 137.2883054
        },
        "location_type": "ROOFTOP",
        "viewport": {
          "northeast": {
            "lat": 37.4471613802915,
            "lng": 137.2896543802915
          },
          "southwest": {
            "lat": 37.44446341970851,
            "lng": 137.2869564197085
          }
        }
      },
      "place_id": "ChIJiepBTZe09l8R9x9wKYq1PmI",
      "plus_code": {
        "compound_code": "C7WQ+88 日本、石川県珠洲市",
        "global_code": "8Q9VC7WQ+88"
      },
      "types": [
        "establishment",
        "museum",
        "point_of_interest"
      ]
    },
    {
      "address_components": [
        {
          "long_name": "３８",
          "short_name": "３８",
          "types": [
            "premise"
          ]
        },
        {
          "long_name": "正院",
          "short_name": "正院",
          "types": [
            "political",
            "sublocality",
            "sublocality_level_3"
          ]
        },
        {
          "long_name": "正院町",
          "short_name": "正院町",
          "types": [
            "political",
            "sublocality",
            "sublocality_level_2"
          ]
        },
        {
          "long_name": "珠洲市",
          "short_name": "珠洲市",
          "types": [
            "locality",
            "political"
          ]
        },
        {
          "long_name": "石川県",
          "short_name": "石川県",
          "types": [
            "administrative_area_level_1",
            "political"
          ]
        },
        {
          "long_name": "日本",
          "short_name": "JP",
          "types": [
            "country",
            "political"
          ]
        },
        {
          "long_name": "927-1206",
          "short_name": "927-1206",
          "types": [
            "postal_code"
          ]
        }
      ],
      "formatted_address": "日本、〒927-1206 石川県珠洲市正院町正院３８",
      "geometry": {
        "location": {
          "lat": 37.4458124,
          "lng": 137.2883054
        },
        "location_type": "ROOFTOP",
        "viewport": {
          "northeast": {
            "lat": 37.4471613802915,
            "lng": 137.2896543802915
          },
          "southwest": {
            "lat": 37.44446341970851,
            "lng": 137.2869564197085
          }
        }
      },
      "place_id": "ChIJcVnjTJe09l8R3njMP1Ygm3w",
      "plus_code": {
        "compound_code": "C7WQ+88 日本、石川県珠洲市",
        "global_code": "8Q9VC7WQ+88"
      },
      "types": [
        "street_address"
      ]
    },
    {
      "address_components": [
        {
          "long_name": "１−４１",
          "short_name": "１−４１",
          "types": [
            "premise"
          ]
        },
        {
          "long_name": "正院",
          "short_name": "正院",
          "types": [
            "political",
            "sublocality",
            "sublocality_level_3"
          ]
        },
        {
          "long_name": "正院町",
          "short_name": "正院町",
          "types": [
            "political",
            "sublocality",
            "sublocality_level_2"
          ]
        },
        {
          "long_name": "珠洲市",
          "short_name": "珠洲市",
          "types": [
            "locality",
            "political"
          ]
        },
        {
          "long_name": "石川県",
          "short_name": "石川県",
          "types": [
            "administrative_area_level_1",
            "political"
          ]
        },
        {
          "long_name": "日本",
          "short_name": "JP",
          "types": [
            "country",
            "political"
          ]
        },
        {
          "long_name": "927-1206",
          "short_name": "927-1206",
          "types": [
            "postal_code"
          ]
        }
      ],
      "formatted_address": "日本、〒927-1206 石川県珠洲市正院町正院１−４１",
      "geometry": {
        "bounds": {
          "northeast": {
            "lat": 37.4457628,
            "lng": 137.2887967
          },
          "southwest": {
            "lat": 37.4456852,
            "lng": 137.2887339
          }
        },
        "location": {
          "lat": 37.4456998,
          "lng": 137.2887549
        },
        "location_type": "ROOFTOP",
        "viewport": {
          "northeast": {
            "lat": 37.4470729802915,
            "lng": 137.2901142802915
          },
          "southwest": {
            "lat": 37.4443750197085,
            "lng": 137.2874163197085
          }
        }
      },
      "place_id": "ChIJg9x4spC09l8RUHa3CXzrT50",
      "types": [
        "premise"
      ]
    },
    {
      "address_components": [
        {
          "long_name": "Unnamed Road",
          "short_name": "Unnamed Road",
          "types": [
            "route"
          ]
        },
        {
          "long_name": "正院",
          "short_name": "正院",
          "types": [
            "political",
            "sublocality",
            "sublocality_level_3"
          ]
        },
        {
          "long_name": "正院町",
          "short_name": "正院町",
          "types": [
            "political",
            "sublocality",
            "sublocality_level_2"
          ]
        },
        {
          "long_name": "珠洲市",
          "short_name": "珠洲市",
          "types": [
            "locality",
            "political"
          ]
        },
        {
          "long_name": "石川県",
          "short_name": "石川県",
          "types": [
            "administrative_area_level_1",
            "political"
          ]
        },
        {
          "long_name": "日本",
          "short_name": "JP",
          "types": [
            "country",
            "political"
          ]
        },
        {
          "long_name": "927-1206",
          "short_name": "927-1206",
          "types": [
            "postal_code"
          ]
        }
      ],
      "formatted_address": "Unnamed Road, 正院 正院町 珠洲市 石川県 927-1206 日本",
      "geometry": {
        "bounds": {
          "northeast": {
            "lat": 37.4457297,
            "lng": 137.288595
          },
          "southwest": {
            "lat": 37.445613,
            "lng": 137.2881744
          }
        },
        "location": {
          "lat": 37.44567139999999,
          "lng": 137.2883847
        },
        "location_type": "GEOMETRIC_CENTER",
        "viewport": {
          "northeast": {
            "lat": 37.4470203302915,
            "lng": 137.2897336802915
          },
          "southwest": {
            "lat": 37.4443223697085,
            "lng": 137.2870357197085
          }
        }
      },
      "place_id": "ChIJdVBcs5C09l8REEygLChmuak",
      "types": [
        "route"
      ]
    },
    {
      "address_components": [
        {
          "long_name": "正院",
          "short_name": "正院",
          "types": [
            "political",
            "sublocality",
            "sublocality_level_3"
          ]
        },
        {
          "long_name": "正院町",
          "short_name": "正院町",
          "types": [
            "political",
            "sublocality",
            "sublocality_level_2"
          ]
        },
        {
          "long_name": "珠洲市",
          "short_name": "珠洲市",
          "types": [
            "locality",
            "political"
          ]
        },
        {
          "long_name": "石川県",
          "short_name": "石川県",
          "types": [
            "administrative_area_level_1",
            "political"
          ]
        },
        {
          "long_name": "日本",
          "short_name": "JP",
          "types": [
            "country",
            "political"
          ]
        },
        {
          "long_name": "927-1206",
          "short_name": "927-1206",
          "types": [
            "postal_code"
          ]
        }
      ],
      "formatted_address": "日本、〒927-1206 石川県珠洲市正院町正院",
      "geometry": {
        "bounds": {
          "northeast": {
            "lat": 37.4472539,
            "lng": 137.2958495
          },
          "southwest": {
            "lat": 37.4416075,
            "lng": 137.286239
          }
        },
        "location": {
          "lat": 37.4436835,
          "lng": 137.2915398
        },
        "location_type": "APPROXIMATE",
        "viewport": {
          "northeast": {
            "lat": 37.4472539,
            "lng": 137.2958495
          },
          "southwest": {
            "lat": 37.4416075,
            "lng": 137.286239
          }
        }
      },
      "place_id": "ChIJFbSIY5C09l8RZeeg81NBv5I",
      "types": [
        "political",
        "sublocality",
        "sublocality_level_3"
      ]
    },
    {
      "address_components": [
        {
          "long_name": "927-1206",
          "short_name": "927-1206",
          "types": [
            "postal_code"
          ]
        },
        {
          "long_name": "正院町",
          "short_name": "正院町",
          "types": [
            "political",
            "sublocality",
            "sublocality_level_2"
          ]
        },
        {
          "long_name": "珠洲市",
          "short_name": "珠洲市",
          "types": [
            "locality",
            "political"
          ]
        },
        {
          "long_name": "石川県",
          "short_name": "石川県",
          "types": [
            "administrative_area_level_1",
            "political"
          ]
        },
        {
          "long_name": "日本",
          "short_name": "JP",
          "types": [
            "country",
            "political"
          ]
        }
      ],
      "formatted_address": "日本 〒927-1206",
      "geometry": {
        "bounds": {
          "northeast": {
            "lat": 37.4472539,
            "lng": 137.2958495
          },
          "southwest": {
            "lat": 37.4414478,
            "lng": 137.286239
          }
        },
        "location": {
          "lat": 37.4436835,
          "lng": 137.2915398
        },
        "location_type": "APPROXIMATE",
        "viewport": {
          "northeast": {
            "lat": 37.4472539,
            "lng": 137.2958495
          },
          "southwest": {
            "lat": 37.4414478,
            "lng": 137.286239
          }
        }
      },
      "place_id": "ChIJdYF2mZq09l8RgSKEjDQZaik",
      "types": [
        "postal_code"
      ]
    },
    {
      "address_components": [
        {
          "long_name": "正院町",
          "short_name": "正院町",
          "types": [
            "political",
            "sublocality",
            "sublocality_level_2"
          ]
        },
        {
          "long_name": "珠洲市",
          "short_name": "珠洲市",
          "types": [
            "locality",
            "political"
          ]
        },
        {
          "long_name": "石川県",
          "short_name": "石川県",
          "types": [
            "administrative_area_level_1",
            "political"
          ]
        },
        {
          "long_name": "日本",
          "short_name": "JP",
          "types": [
            "country",
            "political"
          ]
        }
      ],
      "formatted_address": "日本、石川県珠洲市正院町",
      "geometry": {
        "bounds": {
          "northeast": {
            "lat": 37.4918477,
            "lng": 137.3111169
          },
          "southwest": {
            "lat": 37.4376964,
            "lng": 137.2557642
          }
        },
        "location": {
          "lat": 37.4722699,
          "lng": 137.2856831
        },
        "location_type": "APPROXIMATE",
        "viewport": {
          "northeast": {
            "lat": 37.4918477,
            "lng": 137.3111169
          },
          "southwest": {
            "lat": 37.4376964,
            "lng": 137.2557642
          }
        }
      },
      "place_id": "ChIJdXB6akKz9l8R87Q3UXCB3PI",
      "types": [
        "political",
        "sublocality",
        "sublocality_level_2"
      ]
    },
    {
      "address_components": [
        {
          "long_name": "珠洲市",
          "short_name": "珠洲市",
          "types": [
            "locality",
            "political"
          ]
        },
        {
          "long_name": "石川県",
          "short_name": "石川県",
          "types": [
            "administrative_area_level_1",
            "political"
          ]
        },
        {
          "long_name": "日本",
          "short_name": "JP",
          "types": [
            "country",
            "political"
          ]
        }
      ],
      "formatted_address": "日本、石川県珠洲市",
      "geometry": {
        "bounds": {
          "northeast": {
            "lat": 37.5359666,
            "lng": 137.3652437
          },
          "southwest": {
            "lat": 37.3546371,
            "lng": 137.0848187
          }
        },
        "location": {
          "lat": 37.4363883,
          "lng": 137.260524
        },
        "location_type": "APPROXIMATE",
        "viewport": {
          "northeast": {
            "lat": 37.5359666,
            "lng": 137.3652437
          },
          "southwest": {
            "lat": 37.3546371,
            "lng": 137.0848187
          }
        }
      },
      "place_id": "ChIJuYt709NK8V8R47YubB4cLiU",
      "types": [
        "locality",
        "political"
      ]
    },
    {
      "address_components": [
        {
          "long_name": "石川県",
          "short_name": "石川県",
          "types": [
            "administrative_area_level_1",
            "political"
          ]
        },
        {
          "long_name": "日本",
          "short_name": "JP",
          "types": [
            "country",
            "political"
          ]
        }
      ],
      "formatted_address": "日本、石川県",
      "geometry": {
        "bounds": {
          "northeast": {
            "lat": 37.8579593,
            "lng": 137.3652437
          },
          "southwest": {
            "lat": 36.0674589,
            "lng": 136.2436536
          }
        },
        "location": {
          "lat": 36.3260317,
          "lng": 136.5289653
        },
        "location_type": "APPROXIMATE",
        "viewport": {
          "northeast": {
            "lat": 37.8579593,
            "lng": 137.3652437
          },
          "southwest": {
            "lat": 36.0674589,
            "lng": 136.2436536
          }
        }
      },
      "place_id": "ChIJ7xq8wV5-8V8RtJoYjRM81Es",
      "types": [
        "administrative_area_level_1",
        "political"
      ]
    },
    {
      "address_components": [
        {
          "long_name": "日本",
          "short_name": "JP",
          "types": [
            "country",
            "political"
          ]
        }
      ],
      "formatted_address": "日本",
      "geometry": {
        "bounds": {
          "northeast": {
            "lat": 45.6412626,
            "lng": 154.0031455
          },
          "southwest": {
            "lat": 20.3585295,
            "lng": 122.8554688
          }
        },
        "location": {
          "lat": 36.204824,
          "lng": 138.252924
        },
        "location_type": "APPROXIMATE",
        "viewport": {
          "northeast": {
            "lat": 45.6412626,
            "lng": 154.0031455
          },
          "southwest": {
            "lat": 20.3585295,
            "lng": 122.8554688
          }
        }
      },
      "place_id": "ChIJLxl_1w9OZzQRRFJmfNR1QvU",
      "types": [
        "country",
        "political"
      ]
    },
    {
      "address_components": [
        {
          "long_name": "C7WQ+89",
          "short_name": "C7WQ+89",
          "types": [
            "plus_code"
          ]
        },
        {
          "long_name": "珠洲市",
          "short_name": "珠洲市",
          "types": [
            "locality",
            "political"
          ]
        },
        {
          "long_name": "石川県",
          "short_name": "石川県",
          "types": [
            "administrative_area_level_1",
            "political"
          ]
        },
        {
          "long_name": "日本",
          "short_name": "JP",
          "types": [
            "country",
            "political"
          ]
        }
      ],
      "formatted_address": "C7WQ+89 日本、石川県珠洲市",
      "geometry": {
        "bounds": {
          "northeast": {
            "lat": 37.44587500000001,
            "lng": 137.2885
          },
          "southwest": {
            "lat": 37.44575,
            "lng": 137.288375
          }
        },
        "location": {
          "lat": 37.445861,
          "lng": 137.2885
        },
        "location_type": "ROOFTOP",
        "viewport": {
          "northeast": {
            "lat": 37.44716148029151,
            "lng": 137.2897864802915
          },
          "southwest": {
            "lat": 37.44446351970851,
            "lng": 137.2870885197085
          }
        }
      },
      "place_id": "GhIJ68cm-RG5QkARrBxaZDspYUA",
      "plus_code": {
        "compound_code": "C7WQ+89 日本、石川県珠洲市",
        "global_code": "8Q9VC7WQ+89"
      },
      "types": [
        "plus_code"
      ]
    }
  ]
}