{
  "station": "海老江(富山)",
  "lat": 36.764167,
  "lng": 137.148056,
  "plus_code": {
    "compound_code": "Q47X+M6 日本、富山県射水市",
    "global_code": "8Q8VQ47X+M6"
  },
  "results": [
    {
      "address_components": [
        {
          "long_name": "１",
          "short_name": "１",
          "types": [
            "premise"
          ]
        },
        {
          "long_name": "５",
          "short_name": "５",
          "types": [
            "political",
            "sublocality",
            "sublocality_level_4"
          ]
        },
        {
          "long_name": "東明中町",
          "short_name": "東明中町",
          "types": [
            "political",
            "sublocality",
            "sublocality_level_2"
          ]
        },
        {
          "long_name": "射水市",
          "short_name": "射水市",
          "types": [
            "locality",
            "political"
          ]
        },
        {
          "long_name": "富山県",
          "short_name": "富山県",
          "types": [
            "administrative_area_level_1",
            "political"
          ]
        },
        {
          "long_name": "日本",
          "short_name": "JP",
          "types": [
            "country",
            "political"
          ]
        },
        {
          "long_name": "933-0238",
          "short_name": "933-0238",
          "types": [
            "postal_code"
          ]
        }
      ],
      "formatted_address": "日本、〒933-0238 富山県射水市東明中町５−１",
      "geometry": {
        "bounds": {
          "northeast": {
            "lat": 36.7641425,
            "lng": 137.1483782
          },
          "southwest": {
            "lat": 36.7639799,
            "lng": 137.1481543
          }
        },
        "location": {
          "lat": 36.7640751,
          "lng": 137.1482665
        },
        "location_type": "ROOFTOP",
        "viewport": {
          "northeast": {
            "lat": 36.7654101802915,
            "lng": 137.1496152302915
          },
          "southwest": {
            "lat": 36.7627122197085,
            "lng": 137.1469172697085
          }
        }
      },
      "place_id": "ChIJd79OoaGe918Rvvquof7NEhI",
      "types": [
        "premise"
      ]
    },
    {
      "address_components": [
        {
          "long_name": "１０５０",
          "short_name": "１０５０",
          "types": [
            "premise"
          ]
        },
        {
          "long_name": "海老江",
          "short_name": "海老江",
          "types": [
            "political",
            "sublocality",
            "sublocality_level_2"
          ]
        },
        {
          "long_name": "射水市",
          "short_name": "射水市",
          "types": [
            "locality",
            "political"
          ]
        },
        {
          "long_name": "富山県",
          "short_name": "富山県",
          "types": [
            "administrative_area_level_1",
            "political"
          ]
        },
        {
          "long_name": "日本",
          "short_name": "JP",
          "types": [
            "country",
            "political"
          ]
        },
        {
          "long_name": "933-0233",
          "short_name": "933-0233",
          "types": [
            "postal_code"
          ]
        }
      ],
      "formatted_address": "日本、〒933-0233 富山県射水市海老江１０５０",
      "geometry": {
        "location": {
          "lat": 36.7644142,
          "lng": 137.1482462
        },
        "location_type": "ROOFTOP",
        "viewport": {
          "northeast": {
            "lat": 36.76576318029149,
            "lng": 137.1495951802915
          },
          "southwest": {
            "lat": 36.7630652197085,
            "lng": 137.1468972197085
          }
        }
      },
      "place_id": "ChIJJeryl6Ge918RwKoR2iJiB38",
      "plus_code": {
        "compound_code": "Q47X+Q7 日本、富山県射水市",
        "global_code": "8Q8VQ47X+Q7"
      },
      "types": [
        "street_address"
      ]
    },
    {
      "address_components": [
        {
          "long_name": "Unnamed Road",
          "short_name": "Unnamed Road",
          "types": [
            "route"
          ]
        },
        {
          "long_name": "射水市",
          "short_name": "射水市",
          "types": [
            "locality",
            "political"
          ]
        },
        {
          "long_name": "富山県",
          "short_name": "富山県",
          "types": [
            "administrative_area_level_1",
            "political"
          ]
        },
        {
          "long_name": "日本",
          "short_name": "JP",
          "types": [
            "country",
            "political"
          ]
        }
      ],
      "formatted_address": "Unnamed Road, 射水市 富山県 日本",
      "geometry": {
        "bounds": {
          "northeast": {
            "lat": 36.7642708,
            "lng": 137.1480559
          },
          "southwest": {
            "lat": 36.7642085,
            "lng": 137.1480348
          }
        },
        "location": {
          "lat": 36.7642397,
          "lng": 137.1480453
        },
        "location_type": "GEOMETRIC_CENTER",
        "viewport": {
          "northeast": {
            "lat": 36.7655886302915,
            "lng": 137.1493943302915
          },
          "southwest": {
            "lat": 36.7628906697085,
            "lng": 137.1466963697085
          }
        }
      },
      "place_id": "ChIJCxgvo6Ge918RtEe7F-XOGNY",
      "types": [
        "route"
      ]
    },
    {
      "address_components": [
        {
          "long_name": "東明中町",
          "short_name": "東明中町",
          "types": [
            "political",
            "sublocality",
            "sublocality_level_2"
          ]
        },
        {
          "long_name": "射水市",
          "short_name": "射水市",
          "types": [
            "locality",
            "political"
          ]
        },
        {
          "long_name": "富山県",
          "short_name": "富山県",
          "types": [
            "administrative_area_level_1",
            "political"
          ]
        },
        {
          "long_name": "日本",
          "short_name": "JP",
          "types": [
            "country",
            "political"
          ]
        },
        {
          "long_name": "933-0238",
          "short_name": "933-0238",
          "types": [
            "postal_code"
          ]
        }
      ],
      "formatted_address": "日本、〒933-0238 富山県射水市東明中町",
      "geometry": {
        "bounds": {
          "northeast": {
            "lat": 36.7648779,
            "lng": 137.1492592
          },
          "southwest": {
            "lat": 36.7624636,
            "lng": 137.1455907
          }
        },
        "location": {
          "lat": 36.76380270000001,
          "lng": 137.1475746
        },
        "location_type": "APPROXIMATE",
        "viewport": {
          "northeast": {
            "lat": 36.76501973029149,
            "lng": 137.1492592
          },
          "southwest": {
            "lat": 36.7623217697085,
            "lng": 137.1455907
          }
        }
      },
      "place_id": "ChIJgRRrq6Ge918RLKoxgPRUTwQ",
      "types": [
        "political",
        "sublocality",
        "sublocality_level_2"
      ]
    },
    {
      "address_components": [
        {
          "long_name": "933-0238",
          "short_name": "933-0238",
          "types": [
            "postal_code"
          ]
        },
        {
          "long_name": "東明中町",
          "short_name": "東明中町",
          "types": [
            "political",
            "sublocality",
            "sublocality_level_2"
          ]
        },
        {
          "long_name": "射水市",
          "short_name": "射水市",
          "types": [
            "locality",
            "political"
          ]
        },
        {
          "long_name": "富山県",
          "short_name": "富山県",
          "types": [
            "administrative_area_level_1",
            "political"
          ]
        },
        {
          "long_name": "日本",
          "short_name": "JP",
          "types": [
            "country",
            "political"
          ]
        }
      ],
      "formatted_address": "日本 〒933-0238",
      "geometry": {
        "bounds": {
          "northeast": {
            "lat": 36.7648779,
            "lng": 137.1492592
          },
          "southwest": {
            "lat": 36.7624636,
            "lng": 137.1455907
          }
        },
        "location": {
          "lat": 36.76380270000001,
          "lng": 137.1475746
        },
        "location_type": "APPROXIMATE",
        "viewport": {
          "northeast": {
            "lat": 36.76501973029149,
            "lng": 137.1492592
          },
          "southwest": {
            "lat": 36.7623217697085,
            "lng": 137.1455907
          }
        }
      },
      "place_id": "ChIJ_8UmNaCe918RPo4hU_rSd-I",
      "types": [
        "postal_code"
      ]
    },
    {
      "address_components": [
        {
          "long_name": "射水市",
          "short_name": "射水市",
          "types": [
            "locality",
            "political"
          ]
        },
        {
          "long_name": "富山県",
          "short_name": "富山県",
          "types": [
            "administrative_area_level_1",
            "political"
          ]
        },
        {
          "long_name": "日本",
          "short_name": "JP",
          "types": [
            "country",
            "political"
          ]
        }
      ],
      "formatted_address": "日本、富山県射水市",
      "geometry": {
        "bounds": {
          "northeast": {
            "lat": 36.7937153,
            "lng": 137.1800418
          },
          "southwest": {
            "lat": 36.6459964,
            "lng": 137.0105111
          }
        },
        "location": {
          "lat": 36.7306389,
          "lng": 137.0755452
        },
        "location_type": "APPROXIMATE",
        "viewport": {
          "northeast": {
            "lat": 36.7937153,
            "lng": 137.1800418
          },
          "southwest": {
            "lat": 36.6459964,
            "lng": 137.0105111
          }
        }
      },
      "place_id": "ChIJsy_VM1eb918R8JyUCQnqcpc",
      "types": [
        "locality",
        "political"
      ]
    },
    {
      "address_components": [
        {
          "long_name": "富山県",
          "short_name": "富山県",
          "types": [
            "administrative_area_level_1",
            "political"
          ]
        },
        {
          "long_name": "日本",
          "short_name": "JP",
          "types": [
            "country",
            "political"
          ]
        }
      ],
      "formatted_address": "日本、富山県",
      "geometry": {
        "bounds": {
          "northeast": {
            "lat": 36.9826438,
            "lng": 137.7633442
          },
          "southwest": {
            "lat": 36.2745068,
            "lng": 136.7683708
          }
        },
        "location": {
          "lat": 36.6958266,
          "lng": 137.2137071
        },
        "location_type": "APPROXIMATE",
        "viewport": {
          "northeast": {
            "lat": 36.9826438,
            "lng": 137.7633442
          },
          "southwest": {
            "lat": 36.2745068,
            "lng": 136.7683708
          }
        }
      },
      "place_id": "ChIJSca2CRSS918Rc1GBWMBBk3w",
      "types": [
        "administrative_area_level_1",
        "political"
      ]
    },
    {
      "address_components": [
        {
          "long_name": "日本",
          "short_name": "JP",
          "types": [
            "country",
            "political"
          ]
        }
      ],
      "formatted_address": "日本",
      "geometry": {
        "bounds": {
          "northeast": {
            "lat": 45.6412626,
            "lng": 154.0031455
          },
          "southwest": {
            "lat": 20.3585295,
            "lng": 122.8554688
          }
        },
        "location": {
          "lat": 36.204824,
          "lng": 138.252924
        },
        "location_type": "APPROXIMATE",
        "viewport": {
          "northeast": {
            "lat": 45.6412626,
            "lng": 154.0031455
          },
          "southwest": {
            "lat": 20.3585295,
            "lng": 122.8554688
          }
        }
      },
      "place_id": "ChIJLxl_1w9OZzQRRFJmfNR1QvU",
      "types": [
        "country",
        "political"
      ]
    },
    {
      "address_components": [
        {
          "long_name": "Q47X+M6",
          "short_name": "Q47X+M6",
          "types": [
            "plus_code"
          ]
        },
        {
          "long_name": "射水市",
          "short_name": "射水市",
          "types": [
            "locality",
            "political"
          ]
        },
        {
          "long_name": "富山県",
          "short_name": "富山県",
          "types": [
            "administrative_area_level_1",
            "political"
          ]
        },
        {
          "long_name": "日本",
          "short_name": "JP",
          "types": [
            "country",
            "political"
          ]
        }
      ],
      "formatted_address": "Q47X+M6 日本、富山県射水市",
      "geometry": {
        "bounds": {
          "northeast": {
            "lat": 36.76425,
            "lng": 137.148125
          },
          "southwest": {
            "lat": 36.764125,
            "lng": 137.148
          }
        },
        "location": {
          "lat": 36.764167,
          "lng": 137.148056
        },
        "location_type": "ROOFTOP",
        "viewport": {
          "northeast": {
            "lat": 36.76553648029149,
            "lng": 137.1494114802915
          },
          "southwest": {
            "lat": 36.7628385197085,
            "lng": 137.1467135197085
          }
        }
      },
      "place_id": "GhIJWtdoOdBhQkARQL_v37wkYUA",
      "plus_code": {
        "compound_code": "Q47X+M6 日本、富山県射水市",
        "global_code": "8Q8VQ47X+M6"
      },
      "types": [
        "plus_code"
      ]
    }
  ]
}