{
  "station": "鹿波",
  "lat": 37.216111,
  "lng": 136.989472,
  "plus_code": {
    "compound_code": "6X8Q+CQ 日本、石川県穴水町",
    "global_code": "8Q9R6X8Q+CQ"
  },
  "results": [
    {
      "address_components": [
        {
          "long_name": "１６",
          "short_name": "１６",
          "types": [
            "premise"
          ]
        },
        {
          "long_name": "ル",
          "short_name": "ル",
          "types": [
            "political",
            "sublocality",
            "sublocality_level_3"
          ]
        },
        {
          "long_name": "鹿波",
          "short_name": "鹿波",
          "types": [
            "political",
            "sublocality",
            "sublocality_level_2"
          ]
        },
        {
          "long_name": "穴水町",
          "short_name": "穴水町",
          "types": [
            "locality",
            "political"
          ]
        },
        {
          "long_name": "鳳珠郡",
          "short_name": "鳳珠郡",
          "types": [
            "administrative_area_level_2",
            "political"
          ]
        },
        {
          "long_name": "石川県",
          "short_name": "石川県",
          "types": [
            "administrative_area_level_1",
            "political"
          ]
        },
        {
          "long_name": "日本",
          "short_name": "JP",
          "types": [
            "country",
            "political"
          ]
        },
        {
          "long_name": "927-0223",
          "short_name": "927-0223",
          "types": [
            "postal_code"
          ]
        }
      ],
      "formatted_address": "日本、〒927-0223 石川県鳳珠郡穴水町鹿波ル−１６",
      "geometry": {
        "location": {
          "lat": 37.2161856,
          "lng": 136.9896798
        },
        "location_type": "ROOFTOP",
        "viewport": {
          "northeast": {
            "lat": 37.2175345802915,
            "lng": 136.9910287802915
          },
          "southwest": {
            "lat": 37.2148366197085,
            "lng": 136.9883308197085
          }
        }
      },
      "place_id": "ChIJy0126y8o918R8tbd4KkQXCA",
      "plus_code": {
        "compound_code": "6X8Q+FV 日本、石川県穴水町",
        "global_code": "8Q9R6X8Q+FV"
      },
      "types": [
        "street_address"
      ]
    },
    {
      "address_components": [
        {
          "long_name": "Unnamed Road",
          "short_name": "Unnamed Road",
          "types": [
            "route"
          ]
        },
        {
          "long_name": "穴水町",
          "short_name": "穴水町",
          "types": [
            "locality",
            "political"
          ]
        },
        {
          "long_name": "鳳珠郡",
          "short_name": "鳳珠郡",
          "types": [
            "administrative_area_level_2",
            "political"
          ]
        },
        {
          "long_name": "石川県",
          "short_name": "石川県",
          "types": [
            "administrative_area_level_1",
            "political"
          ]
        },
        {
          "long_name": "日本",
          "short_name": "JP",
          "types": [
            "country",
            "political"
          ]
        }
      ],
      "formatted_address": "Unnamed Road, 穴水町 鳳珠郡 石川県 日本",
      "geometry": {
        "bounds": {
          "northeast": {
            "lat": 37.2178653,
            "lng": 136.9910244
          },
          "southwest": {
            "lat": 37.2153556,
            "lng": 136.9827515
          }
        },
        "location": {
          "lat": 37.2169598,
          "lng": 136.9868187
        },
        "location_type": "GEOMETRIC_CENTER",
        "viewport": {
          "northeast": {
            "lat": 37.21795943029149,
            "lng": 136.9910244
          },
          "southwest": {
            "lat": 37.21526146970849,
            "lng": 136.9827515
          }
        }
      },
      "place_id": "ChIJhbUQ1jEo918RcjMXo3DLErs",
      "types": [
        "route"
      ]
    },
    {
      "address_components": [
        {
          "long_name": "ル",
          "short_name": "ル",
          "types": [
            "political",
            "sublocality",
            "sublocality_level_3"
          ]
        },
        {
          "long_name": "鹿波",
          "short_name": "鹿波",
          "types": [
            "political",
            "sublocality",
            "sublocality_level_2"
          ]
        },
        {
          "long_name": "穴水町",
          "short_name": "穴水町",
          "types": [
            "locality",
            "political"
          ]
        },
        {
          "long_name": "鳳珠郡",
          "short_name": "鳳珠郡",
          "types": [
            "administrative_area_level_2",
            "political"
          ]
        },
        {
          "long_name": "石川県",
          "short_name": "石川県",
          "types": [
            "administrative_area_level_1",
            "political"
          ]
        },
        {
          "long_name": "日本",
          "short_name": "JP",
          "types": [
            "country",
            "political"
          ]
        },
        {
          "long_name": "927-0223",
          "short_name": "927-0223",
          "types": [
            "postal_code"
          ]
        }
      ],
      "formatted_address": "日本、〒927-0223 石川県鳳珠郡穴水町鹿波ル",
      "geometry": {
        "bounds": {
          "northeast": {
            "lat": 37.2166982,
            "lng": 136.9901678
          },
          "southwest": {
            "lat": 37.2158842,
            "lng": 136.988089
          }
        },
        "location": {
          "lat": 37.2164026,
          "lng": 136.9886652
        },
        "location_type": "APPROXIMATE",
        "viewport": {
          "northeast": {
            "lat": 37.2176401802915,
            "lng": 136.9904773802915
          },
          "southwest": {
            "lat": 37.2149422197085,
            "lng": 136.9877794197085
          }
        }
      },
      "place_id": "ChIJFUEvwi8o918R5jaHxEgrQdE",
      "types": [
        "political",
        "sublocality",
        "sublocality_level_3"
      ]
    },
    {
      "address_components": [
        {
          "long_name": "927-0223",
          "short_name": "927-0223",
          "types": [
            "postal_code"
          ]
        },
        {
          "long_name": "鹿波",
          "short_name": "鹿波",
          "types": [
            "political",
            "sublocality",
            "sublocality_level_2"
          ]
        },
        {
          "long_name": "穴水町",
          "short_name": "穴水町",
          "types": [
            "locality",
            "political"
          ]
        },
        {
          "long_name": "鳳珠郡",
          "short_name": "鳳珠郡",
          "types": [
            "administrative_area_level_2",
            "political"
          ]
        },
        {
          "long_name": "石川県",
          "short_name": "石川県",
          "types": [
            "administrative_area_level_1",
            "political"
          ]
        },
        {
          "long_name": "日本",
          "short_name": "JP",
          "types": [
            "country",
            "political"
          ]
        }
      ],
      "formatted_address": "日本 〒927-0223",
      "geometry": {
        "bounds": {
          "northeast": {
            "lat": 37.2313084,
            "lng": 137.0184386
          },
          "southwest": {
            "lat": 37.1828728,
            "lng": 136.9820821
          }
        },
        "location": {
          "lat": 37.2126364,
          "lng": 136.9991578
        },
        "location_type": "APPROXIMATE",
        "viewport": {
          "northeast": {
            "lat": 37.2313084,
            "lng": 137.0184386
          },
          "southwest": {
            "lat": 37.1828728,
            "lng": 136.9820821
          }
        }
      },
      "place_id": "ChIJpWJMJTwo918R4Nvp63IL1VQ",
      "types": [
        "postal_code"
      ]
    },
    {
      "address_components": [
        {
          "long_name": "鹿波",
          "short_name": "鹿波",
          "types": [
            "political",
            "sublocality",
            "sublocality_level_2"
          ]
        },
        {
          "long_name": "穴水町",
          "short_name": "穴水町",
          "types": [
            "locality",
            "political"
          ]
        },
        {
          "long_name": "鳳珠郡",
          "short_name": "鳳珠郡",
          "types": [
            "administrative_area_level_2",
            "political"
          ]
        },
        {
          "long_name": "石川県",
          "short_name": "石川県",
          "types": [
            "administrative_area_level_1",
            "political"
          ]
        },
        {
          "long_name": "日本",
          "short_name": "JP",
          "types": [
            "country",
            "political"
          ]
        },
        {
          "long_name": "927-0223",
          "short_name": "927-0223",
          "types": [
            "postal_code"
          ]
        }
      ],
      "formatted_address": "日本、〒927-0223 石川県鳳珠郡穴水町鹿波",
      "geometry": {
        "bounds": {
          "northeast": {
            "lat": 37.2313084,
            "lng": 137.0184386
          },
          "southwest": {
            "lat": 37.1828728,
            "lng": 136.9820821
          }
        },
        "location": {
          "lat": 37.2126364,
          "lng": 136.9991578
        },
        "location_type": "APPROXIMATE",
        "viewport": {
          "northeast": {
            "lat": 37.2313084,
            "lng": 137.0184386
          },
          "southwest": {
            "lat": 37.1828728,
            "lng": 136.9820821
          }
        }
      },
      "place_id": "ChIJhxCW4xMo918RUjU5hgYfmX4",
      "types": [
        "political",
        "sublocality",
        "sublocality_level_2"
      ]
    },
    {
      "address_components": [
        {
          "long_name": "穴水町",
          "short_name": "穴水町",
          "types": [
            "locality",
            "political"
          ]
        },
        {
          "long_name": "鳳珠郡",
          "short_name": "鳳珠郡",
          "types": [
            "administrative_area_level_2",
            "political"
          ]
        },
        {
          "long_name": "石川県",
          "short_name": "石川県",
          "types": [
            "administrative_area_level_1",
            "political"
          ]
        },
        {
          "long_name": "日本",
          "short_name": "JP",
          "types": [
            "country",
            "political"
          ]
        }
      ],
      "formatted_address": "日本、石川県鳳珠郡穴水町",
      "geometry": {
        "bounds": {
          "northeast": {
            "lat": 37.3058131,
            "lng": 137.0832514
          },
          "southwest": {
            "lat": 37.1640311,
            "lng": 136.7881235
          }
        },
        "location": {
          "lat": 37.2310256,
          "lng": 136.9124314
        },
        "location_type": "APPROXIMATE",
        "viewport": {
          "northeast": {
            "lat": 37.3058131,
            "lng": 137.0832514
          },
          "southwest": {
            "lat": 37.1640311,
            "lng": 136.7881235
          }
        }
      },
      "place_id": "ChIJcYJ9bR4q918RMbEkm1OwDMI",
      "types": [
        "locality",
        "political"
      ]
    },
    {
      "address_components": [
        {
          "long_name": "鳳珠郡",
          "short_name": "鳳珠郡",
          "types": [
            "administrative_area_level_2",
            "political"
          ]
        },
        {
          "long_name": "石川県",
          "short_name": "石川県",
          "types": [
            "administrative_area_level_1",
            "political"
          ]
        },
        {
          "long_name": "日本",
          "short_name": "JP",
          "types": [
            "country",
            "political"
          ]
        }
      ],
      "formatted_address": "日本、石川県鳳珠郡",
      "geometry": {
        "bounds": {
          "northeast": {
            "lat": 37.406005,
            "lng": 137.2689339
          },
          "southwest": {
            "lat": 37.1640311,
            "lng": 136.7881235
          }
        },
        "location": {
          "lat": 37.29894110000001,
          "lng": 137.0324186
        },
        "location_type": "APPROXIMATE",
        "viewport": {
          "northeast": {
            "lat": 37.406005,
            "lng": 137.2689339
          },
          "southwest": {
            "lat": 37.1640311,
            "lng": 136.7881235
          }
        }
      },
      "place_id": "ChIJ6VbNHPrT9l8RTUNBUs-clgQ",
      "types": [
        "administrative_area_level_2",
        "political"
      ]
    },
    {
      "address_components": [
        {
          "long_name": "石川県",
          "short_name": "石川県",
          "types": [
            "administrative_area_level_1",
            "political"
          ]
        },
        {
          "long_name": "日本",
          "short_name": "JP",
          "types": [
            "country",
            "political"
          ]
        }
      ],
      "formatted_address": "日本、石川県",
      "geometry": {
        "bounds": {
          "northeast": {
            "lat": 37.8579593,
            "lng": 137.3652437
          },
          "southwest": {
            "lat": 36.0674589,
            "lng": 136.2436536
          }
        },
        "location": {
          "lat": 36.3260317,
          "lng": 136.5289653
        },
        "location_type": "APPROXIMATE",
        "viewport": {
          "northeast": {
            "lat": 37.8579593,
            "lng": 137.3652437
          },
          "southwest": {
            "lat": 36.0674589,
            "lng": 136.2436536
          }
        }
      },
      "place_id": "ChIJ7xq8wV5-8V8RtJoYjRM81Es",
      "types": [
        "administrative_area_level_1",
        "political"
      ]
    },
    {
      "address_components": [
        {
          "long_name": "日本",
          "short_name": "JP",
          "types": [
            "country",
            "political"
          ]
        }
      ],
      "formatted_address": "日本",
      "geometry": {
        "bounds": {
          "northeast": {
            "lat": 45.6412626,
            "lng": 154.0031455
          },
          "southwest": {
            "lat": 20.3585295,
            "lng": 122.8554688
          }
        },
        "location": {
          "lat": 36.204824,
          "lng": 138.252924
        },
        "location_type": "APPROXIMATE",
        "viewport": {
          "northeast": {
            "lat": 45.6412626,
            "lng": 154.0031455
          },
          "southwest": {
            "lat": 20.3585295,
            "lng": 122.8554688
          }
        }
      },
      "place_id": "ChIJLxl_1w9OZzQRRFJmfNR1QvU",
      "types": [
        "country",
        "political"
      ]
    },
    {
      "address_components": [
        {
          "long_name": "6X8Q+CQ",
          "short_name": "6X8Q+CQ",
          "types": [
            "plus_code"
          ]
        },
        {
          "long_name": "穴水町",
          "short_name": "穴水町",
          "types": [
            "locality",
            "political"
          ]
        },
        {
          "long_name": "鳳珠郡",
          "short_name": "鳳珠郡",
          "types": [
            "administrative_area_level_2",
            "political"
          ]
        },
        {
          "long_name": "石川県",
          "short_name": "石川県",
          "types": [
            "administrative_area_level_1",
            "political"
          ]
        },
        {
          "long_name": "日本",
          "short_name": "JP",
          "types": [
            "country",
            "political"
          ]
        }
      ],
      "formatted_address": "6X8Q+CQ 日本、石川県穴水町",
      "geometry": {
        "bounds": {
          "northeast": {
            "lat": 37.216125,
            "lng": 136.9895
          },
          "southwest": {
            "lat": 37.216,
            "lng": 136.989375
          }
        },
        "location": {
          "lat": 37.216111,
          "lng": 136.989472
        },
        "location_type": "ROOFTOP",
        "viewport": {
          "northeast": {
            "lat": 37.2174114802915,
            "lng": 136.9907864802915
          },
          "southwest": {
            "lat": 37.2147135197085,
            "lng": 136.9880885197085
          }
        }
      },
      "place_id": "GhIJJqd2hqmbQkAR2QkvwakfYUA",
      "plus_code": {
        "compound_code": "6X8Q+CQ 日本、石川県穴水町",
        "global_code": "8Q9R6X8Q+CQ"
      },
      "types": [
        "plus_code"
      ]
    }
  ]
}