{
  "station": "鵜川",
  "lat": 37.257528,
  "lng": 137.080889,
  "plus_code": {
    "compound_code": "735J+29 日本、石川県能登町",
    "global_code": "8Q9V735J+29"
  },
  "results": [
    {
      "address_components": [
        {
          "long_name": "２５−１３",
          "short_name": "２５−１３",
          "types": [
            "premise"
          ]
        },
        {
          "long_name": "鵜川",
          "short_name": "鵜川",
          "types": [
            "political",
            "sublocality",
            "sublocality_level_2"
          ]
        },
        {
          "long_name": "能登町",
          "short_name": "能登町",
          "types": [
            "locality",
            "political"
          ]
        },
        {
          "long_name": "鳳珠郡",
          "short_name": "鳳珠郡",
          "types": [
            "administrative_area_level_2",
            "political"
          ]
        },
        {
          "long_name": "石川県",
          "short_name": "石川県",
          "types": [
            "administrative_area_level_1",
            "political"
          ]
        },
        {
          "long_name": "日本",
          "short_name": "JP",
          "types": [
            "country",
            "political"
          ]
        },
        {
          "long_name": "927-0302",
          "short_name": "927-0302",
          "types": [
            "postal_code"
          ]
        }
      ],
      "formatted_address": "日本、〒927-0302 石川県鳳珠郡能登町鵜川２５−１３",
      "geometry": {
        "location": {
          "lat": 37.25759499999999,
          "lng": 137.0808862
        },
        "location_type": "ROOFTOP",
        "viewport": {
          "northeast": {
            "lat": 37.2589439802915,
            "lng": 137.0822351802915
          },
          "southwest": {
            "lat": 37.2562460197085,
            "lng": 137.0795372197085
          }
        }
      },
      "place_id": "ChIJhXlOQ9LQ9l8RSuMyDgroPww",
      "plus_code": {
        "compound_code": "735J+29 日本、石川県能登町",
        "global_code": "8Q9V735J+29"
      },
      "types": [
        "street_address"
      ]
    },
    {
      "address_components": [
        {
          "long_name": "２５−５",
          "short_name": "２５−５",
          "types": [
            "premise"
          ]
        },
        {
          "long_name": "鵜川",
          "short_name": "鵜川",
          "types": [
            "political",
            "sublocality",
            "sublocality_level_2"
          ]
        },
        {
          "long_name": "能登町",
          "short_name": "能登町",
          "types": [
            "locality",
            "political"
          ]
        },
        {
          "long_name": "鳳珠郡",
          "short_name": "鳳珠郡",
          "types": [
            "administrative_area_level_2",
            "political"
          ]
        },
        {
          "long_name": "石川県",
          "short_name": "石川県",
          "types": [
            "administrative_area_level_1",
            "political"
          ]
        },
        {
          "long_name": "日本",
          "short_name": "JP",
          "types": [
            "country",
            "political"
          ]
        },
        {
          "long_name": "927-0302",
          "short_name": "927-0302",
          "types": [
            "postal_code"
          ]
        }
      ],
      "formatted_address": "日本、〒927-0302 石川県鳳珠郡能登町鵜川２５−５",
      "geometry": {
        "location": {
          "lat": 37.2576701,
          "lng": 137.0803414
        },
        "location_type": "ROOFTOP",
        "viewport": {
          "northeast": {
            "lat": 37.2590190802915,
            "lng": 137.0816903802915
          },
          "southwest": {
            "lat": 37.2563211197085,
            "lng": 137.0789924197085
          }
        }
      },
      "place_id": "ChIJv9l5WtLQ9l8REd5hOo6iCwA",
      "plus_code": {
        "compound_code": "735J+34 日本、石川県能登町",
        "global_code": "8Q9V735J+34"
      },
      "types": [
        "establishment",
        "point_of_interest"
      ]
    },
    {
      "address_components": [
        {
          "long_name": "鵜川駅前（バス）",
          "short_name": "鵜川駅前（バス）",
          "types": [
            "establishment",
            "point_of_interest",
            "transit_station"
          ]
        },
        {
          "long_name": "鵜川",
          "short_name": "鵜川",
          "types": [
            "political",
            "sublocality",
            "sublocality_level_2"
          ]
        },
        {
          "long_name": "能登町",
          "short_name": "能登町",
          "types": [
            "locality",
            "political"
          ]
        },
        {
          "long_name": "鳳珠郡",
          "short_name": "鳳珠郡",
          "types": [
            "administrative_area_level_2",
            "political"
          ]
        },
        {
          "long_name": "石川県",
          "short_name": "石川県",
          "types": [
            "administrative_area_level_1",
            "political"
          ]
        },
        {
          "long_name": "日本",
          "short_name": "JP",
          "types": [
            "country",
            "political"
          ]
        },
        {
          "long_name": "927-0302",
          "short_name": "927-0302",
          "types": [
            "postal_code"
          ]
        }
      ],
      "formatted_address": "日本、〒927-0302 石川県鳳珠郡能登町鵜川 鵜川駅前（バス）",
      "geometry": {
        "location": {
          "lat": 37.25704650000001,
          "lng": 137.08098
        },
        "location_type": "GEOMETRIC_CENTER",
        "viewport": {
          "northeast": {
            "lat": 37.25839548029151,
            "lng": 137.0823289802915
          },
          "southwest": {
            "lat": 37.25569751970851,
            "lng": 137.0796310197085
          }
        }
      },
      "place_id": "ChIJyR7NY9LQ9l8ROlB7g5Q2Ukc",
      "plus_code": {
        "compound_code": "734J+R9 日本、石川県能登町",
        "global_code": "8Q9V734J+R9"
      },
      "types": [
        "establishment",
        "point_of_interest",
        "transit_station"
      ]
    },
    {
      "address_components": [
        {
          "long_name": "国道249号",
          "short_name": "国道249号",
          "types": [
            "route"
          ]
        },
        {
          "long_name": "鵜川",
          "short_name": "鵜川",
          "types": [
            "political",
            "sublocality",
            "sublocality_level_2"
          ]
        },
        {
          "long_name": "能登町",
          "short_name": "能登町",
          "types": [
            "locality",
            "political"
          ]
        },
        {
          "long_name": "鳳珠郡",
          "short_name": "鳳珠郡",
          "types": [
            "administrative_area_level_2",
            "political"
          ]
        },
        {
          "long_name": "石川県",
          "short_name": "石川県",
          "types": [
            "administrative_area_level_1",
            "political"
          ]
        },
        {
          "long_name": "日本",
          "short_name": "JP",
          "types": [
            "country",
            "political"
          ]
        },
        {
          "long_name": "927-0302",
          "short_name": "927-0302",
          "types": [
            "postal_code"
          ]
        }
      ],
      "formatted_address": "日本、〒927-0302 石川県鳳珠郡能登町鵜川 国道249号",
      "geometry": {
        "bounds": {
          "northeast": {
            "lat": 37.2575684,
            "lng": 137.0812532
          },
          "southwest": {
            "lat": 37.2559835,
            "lng": 137.0767364
          }
        },
        "location": {
          "lat": 37.2566899,
          "lng": 137.0789441
        },
        "location_type": "GEOMETRIC_CENTER",
        "viewport": {
          "northeast": {
            "lat": 37.2581249302915,
            "lng": 137.0812532
          },
          "southwest": {
            "lat": 37.2554269697085,
            "lng": 137.0767364
          }
        }
      },
      "place_id": "ChIJuyJxvtLQ9l8Rykn_hVk7zA8",
      "types": [
        "route"
      ]
    },
    {
      "address_components": [
        {
          "long_name": "鵜川",
          "short_name": "鵜川",
          "types": [
            "political",
            "sublocality",
            "sublocality_level_2"
          ]
        },
        {
          "long_name": "能登町",
          "short_name": "能登町",
          "types": [
            "locality",
            "political"
          ]
        },
        {
          "long_name": "鳳珠郡",
          "short_name": "鳳珠郡",
          "types": [
            "administrative_area_level_2",
            "political"
          ]
        },
        {
          "long_name": "石川県",
          "short_name": "石川県",
          "types": [
            "administrative_area_level_1",
            "political"
          ]
        },
        {
          "long_name": "日本",
          "short_name": "JP",
          "types": [
            "country",
            "political"
          ]
        },
        {
          "long_name": "927-0302",
          "short_name": "927-0302",
          "types": [
            "postal_code"
          ]
        }
      ],
      "formatted_address": "日本、〒927-0302 石川県鳳珠郡能登町鵜川",
      "geometry": {
        "bounds": {
          "northeast": {
            "lat": 37.265183,
            "lng": 137.0952713
          },
          "southwest": {
            "lat": 37.2479357,
            "lng": 137.0324627
          }
        },
        "location": {
          "lat": 37.2566169,
          "lng": 137.0792488
        },
        "location_type": "APPROXIMATE",
        "viewport": {
          "northeast": {
            "lat": 37.265183,
            "lng": 137.0952713
          },
          "southwest": {
            "lat": 37.2479357,
            "lng": 137.0324627
          }
        }
      },
      "place_id": "ChIJ36tIftLQ9l8RRzJ3BzQXikY",
      "types": [
        "political",
        "sublocality",
        "sublocality_level_2"
      ]
    },
    {
      "address_components": [
        {
          "long_name": "927-0302",
          "short_name": "927-0302",
          "types": [
            "postal_code"
          ]
        },
        {
          "long_name": "鵜川",
          "short_name": "鵜川",
          "types": [
            "political",
            "sublocality",
            "sublocality_level_2"
          ]
        },
        {
          "long_name": "能登町",
          "short_name": "能登町",
          "types": [
            "locality",
            "political"
          ]
        },
        {
          "long_name": "鳳珠郡",
          "short_name": "鳳珠郡",
          "types": [
            "administrative_area_level_2",
            "political"
          ]
        },
        {
          "long_name": "石川県",
          "short_name": "石川県",
          "types": [
            "administrative_area_level_1",
            "political"
          ]
        },
        {
          "long_name": "日本",
          "short_name": "JP",
          "types": [
            "country",
            "political"
          ]
        }
      ],
      "formatted_address": "日本 〒927-0302",
      "geometry": {
        "bounds": {
          "northeast": {
            "lat": 37.265183,
            "lng": 137.0952713
          },
          "southwest": {
            "lat": 37.2479357,
            "lng": 137.0324627
          }
        },
        "location": {
          "lat": 37.2566169,
          "lng": 137.0792488
        },
        "location_type": "APPROXIMATE",
        "viewport": {
          "northeast": {
            "lat": 37.265183,
            "lng": 137.0952713
          },
          "southwest": {
            "lat": 37.2479357,
            "lng": 137.0324627
          }
        }
      },
      "place_id": "ChIJ_UrUYsvQ9l8RwyfygH7oJG8",
      "types": [
        "postal_code"
      ]
    },
    {
      "address_components": [
        {
          "long_name": "能登町",
          "short_name": "能登町",
          "types": [
            "locality",
            "political"
          ]
        },
        {
          "long_name": "鳳珠郡",
          "short_name": "鳳珠郡",
          "types": [
            "administrative_area_level_2",
            "political"
          ]
        },
        {
          "long_name": "石川県",
          "short_name": "石川県",
          "types": [
            "administrative_area_level_1",
            "political"
          ]
        },
        {
          "long_name": "日本",
          "short_name": "JP",
          "types": [
            "country",
            "political"
          ]
        }
      ],
      "formatted_address": "日本、石川県鳳珠郡能登町",
      "geometry": {
        "bounds": {
          "northeast": {
            "lat": 37.406005,
            "lng": 137.2689339
          },
          "southwest": {
            "lat": 37.24671420000001,
            "lng": 136.961842
          }
        },
        "location": {
          "lat": 37.3066518,
          "lng": 137.1500418
        },
        "location_type": "APPROXIMATE",
        "viewport": {
          "northeast": {
            "lat": 37.406005,
            "lng": 137.2689339
          },
          "southwest": {
            "lat": 37.24671420000001,
            "lng": 136.961842
          }
        }
      },
      "place_id": "ChIJoy-cieXN9l8R8cpGddQ40yM",
      "types": [
        "locality",
        "political"
      ]
    },
    {
      "address_components": [
        {
          "long_name": "鳳珠郡",
          "short_name": "鳳珠郡",
          "types": [
            "administrative_area_level_2",
            "political"
          ]
        },
        {
          "long_name": "石川県",
          "short_name": "石川県",
          "types": [
            "administrative_area_level_1",
            "political"
          ]
        },
        {
          "long_name": "日本",
          "short_name": "JP",
          "types": [
            "country",
            "political"
          ]
        }
      ],
      "formatted_address": "日本、石川県鳳珠郡",
      "geometry": {
        "bounds": {
          "northeast": {
            "lat": 37.406005,
            "lng": 137.2689339
          },
          "southwest": {
            "lat": 37.1640311,
            "lng": 136.7881235
          }
        },
        "location": {
          "lat": 37.29894110000001,
          "lng": 137.0324186
        },
        "location_type": "APPROXIMATE",
        "viewport": {
          "northeast": {
            "lat": 37.406005,
            "lng": 137.2689339
          },
          "southwest": {
            "lat": 37.1640311,
            "lng": 136.7881235
          }
        }
      },
      "place_id": "ChIJ6VbNHPrT9l8RTUNBUs-clgQ",
      "types": [
        "administrative_area_level_2",
        "political"
      ]
    },
    {
      "address_components": [
        {
          "long_name": "石川県",
          "short_name": "石川県",
          "types": [
            "administrative_area_level_1",
            "political"
          ]
        },
        {
          "long_name": "日本",
          "short_name": "JP",
          "types": [
            "country",
            "political"
          ]
        }
      ],
      "formatted_address": "日本、石川県",
      "geometry": {
        "bounds": {
          "northeast": {
            "lat": 37.8579593,
            "lng": 137.3652437
          },
          "southwest": {
            "lat": 36.0674589,
            "lng": 136.2436536
          }
        },
        "location": {
          "lat": 36.3260317,
          "lng": 136.5289653
        },
        "location_type": "APPROXIMATE",
        "viewport": {
          "northeast": {
            "lat": 37.8579593,
            "lng": 137.3652437
          },
          "southwest": {
            "lat": 36.0674589,
            "lng": 136.2436536
          }
        }
      },
      "place_id": "ChIJ7xq8wV5-8V8RtJoYjRM81Es",
      "types": [
        "administrative_area_level_1",
        "political"
      ]
    },
    {
      "address_components": [
        {
          "long_name": "日本",
          "short_name": "JP",
          "types": [
            "country",
            "political"
          ]
        }
      ],
      "formatted_address": "日本",
      "geometry": {
        "bounds": {
          "northeast": {
            "lat": 45.6412626,
            "lng": 154.0031455
          },
          "southwest": {
            "lat": 20.3585295,
            "lng": 122.8554688
          }
        },
        "location": {
          "lat": 36.204824,
          "lng": 138.252924
        },
        "location_type": "APPROXIMATE",
        "viewport": {
          "northeast": {
            "lat": 45.6412626,
            "lng": 154.0031455
          },
          "southwest": {
            "lat": 20.3585295,
            "lng": 122.8554688
          }
        }
      },
      "place_id": "ChIJLxl_1w9OZzQRRFJmfNR1QvU",
      "types": [
        "country",
        "political"
      ]
    },
    {
      "address_components": [
        {
          "long_name": "735J+29",
          "short_name": "735J+29",
          "types": [
            "plus_code"
          ]
        },
        {
          "long_name": "能登町",
          "short_name": "能登町",
          "types": [
            "locality",
            "political"
          ]
        },
        {
          "long_name": "鳳珠郡",
          "short_name": "鳳珠郡",
          "types": [
            "administrative_area_level_2",
            "political"
          ]
        },
        {
          "long_name": "石川県",
          "short_name": "石川県",
          "types": [
            "administrative_area_level_1",
            "political"
          ]
        },
        {
          "long_name": "日本",
          "short_name": "JP",
          "types": [
            "country",
            "political"
          ]
        }
      ],
      "formatted_address": "735J+29 日本、石川県能登町",
      "geometry": {
        "bounds": {
          "northeast": {
            "lat": 37.257625,
            "lng": 137.081
          },
          "southwest": {
            "lat": 37.2575,
            "lng": 137.080875
          }
        },
        "location": {
          "lat": 37.257528,
          "lng": 137.080889
        },
        "location_type": "ROOFTOP",
        "viewport": {
          "northeast": {
            "lat": 37.25891148029149,
            "lng": 137.0822864802915
          },
          "southwest": {
            "lat": 37.2562135197085,
            "lng": 137.0795885197085
          }
        }
      },
      "place_id": "GhIJ8-ZwrfagQkARZTOHpJYiYUA",
      "plus_code": {
        "compound_code": "735J+29 日本、石川県能登町",
        "global_code": "8Q9V735J+29"
      },
      "types": [
        "plus_code"
      ]
    }
  ]
}