{
  "station": "三善製紙前",
  "lat": 36.604167,
  "lng": 136.598722,
  "plus_code": {
    "compound_code": "JH3X+MF 日本、石川県金沢市",
    "global_code": "8Q8RJH3X+MF"
  },
  "results": [
    {
      "address_components": [
        {
          "long_name": "５３",
          "short_name": "５３",
          "types": [
            "premise"
          ]
        },
        {
          "long_name": "１８",
          "short_name": "１８",
          "types": [
            "political",
            "sublocality",
            "sublocality_level_4"
          ]
        },
        {
          "long_name": "１丁目",
          "short_name": "１丁目",
          "types": [
            "political",
            "sublocality",
            "sublocality_level_3"
          ]
        },
        {
          "long_name": "金石北",
          "short_name": "金石北",
          "types": [
            "political",
            "sublocality",
            "sublocality_level_2"
          ]
        },
        {
          "long_name": "金沢市",
          "short_name": "金沢市",
          "types": [
            "locality",
            "political"
          ]
        },
        {
          "long_name": "石川県",
          "short_name": "石川県",
          "types": [
            "administrative_area_level_1",
            "political"
          ]
        },
        {
          "long_name": "日本",
          "short_name": "JP",
          "types": [
            "country",
            "political"
          ]
        },
        {
          "long_name": "920-0338",
          "short_name": "920-0338",
          "types": [
            "postal_code"
          ]
        }
      ],
      "formatted_address": "日本、〒920-0338 石川県金沢市金石北１丁目１８−５３",
      "geometry": {
        "location": {
          "lat": 36.60424709999999,
          "lng": 136.5987273
        },
        "location_type": "ROOFTOP",
        "viewport": {
          "northeast": {
            "lat": 36.6055960802915,
            "lng": 136.6000762802915
          },
          "southwest": {
            "lat": 36.6028981197085,
            "lng": 136.5973783197085
          }
        }
      },
      "place_id": "ChIJBUVvPozM-V8RtOt54zpsXFk",
      "plus_code": {
        "compound_code": "JH3X+MF 日本、石川県金沢市",
        "global_code": "8Q8RJH3X+MF"
      },
      "types": [
        "street_address"
      ]
    },
    {
      "address_components": [
        {
          "long_name": "グリーン倶楽部",
          "short_name": "グリーン倶楽部",
          "types": [
            "premise"
          ]
        },
        {
          "long_name": "１",
          "short_name": "１",
          "types": [
            "premise"
          ]
        },
        {
          "long_name": "１８",
          "short_name": "１８",
          "types": [
            "political",
            "sublocality",
            "sublocality_level_4"
          ]
        },
        {
          "long_name": "１丁目",
          "short_name": "１丁目",
          "types": [
            "political",
            "sublocality",
            "sublocality_level_3"
          ]
        },
        {
          "long_name": "金石北",
          "short_name": "金石北",
          "types": [
            "political",
            "sublocality",
            "sublocality_level_2"
          ]
        },
        {
          "long_name": "金沢市",
          "short_name": "金沢市",
          "types": [
            "locality",
            "political"
          ]
        },
        {
          "long_name": "石川県",
          "short_name": "石川県",
          "types": [
            "administrative_area_level_1",
            "political"
          ]
        },
        {
          "long_name": "日本",
          "short_name": "JP",
          "types": [
            "country",
            "political"
          ]
        },
        {
          "long_name": "920-0338",
          "short_name": "920-0338",
          "types": [
            "postal_code"
          ]
        }
      ],
      "formatted_address": "日本、〒920-0338 石川県金沢市金石北１丁目１８−１ グリーン倶楽部",
      "geometry": {
        "bounds": {
          "northeast": {
            "lat": 36.6042978,
            "lng": 136.5986452
          },
          "southwest": {
            "lat": 36.60413,
            "lng": 136.5984637
          }
        },
        "location": {
          "lat": 36.6042162,
          "lng": 136.598568
        },
        "location_type": "ROOFTOP",
        "viewport": {
          "northeast": {
            "lat": 36.6055628802915,
            "lng": 136.5999034302915
          },
          "southwest": {
            "lat": 36.6028649197085,
            "lng": 136.5972054697085
          }
        }
      },
      "place_id": "ChIJM5XrPYzM-V8RfwYlJxEuwDw",
      "types": [
        "premise"
      ]
    },
    {
      "address_components": [
        {
          "long_name": "１",
          "short_name": "１",
          "types": [
            "premise"
          ]
        },
        {
          "long_name": "１８",
          "short_name": "１８",
          "types": [
            "political",
            "sublocality",
            "sublocality_level_4"
          ]
        },
        {
          "long_name": "１丁目",
          "short_name": "１丁目",
          "types": [
            "political",
            "sublocality",
            "sublocality_level_3"
          ]
        },
        {
          "long_name": "金石北",
          "short_name": "金石北",
          "types": [
            "political",
            "sublocality",
            "sublocality_level_2"
          ]
        },
        {
          "long_name": "金沢市",
          "short_name": "金沢市",
          "types": [
            "locality",
            "political"
          ]
        },
        {
          "long_name": "石川県",
          "short_name": "石川県",
          "types": [
            "administrative_area_level_1",
            "political"
          ]
        },
        {
          "long_name": "日本",
          "short_name": "JP",
          "types": [
            "country",
            "political"
          ]
        },
        {
          "long_name": "920-0338",
          "short_name": "920-0338",
          "types": [
            "postal_code"
          ]
        }
      ],
      "formatted_address": "日本、〒920-0338 石川県金沢市金石北１丁目１８−１",
      "geometry": {
        "location": {
          "lat": 36.604244,
          "lng": 136.598555
        },
        "location_type": "ROOFTOP",
        "viewport": {
          "northeast": {
            "lat": 36.6055929802915,
            "lng": 136.5999039802915
          },
          "southwest": {
            "lat": 36.60289501970851,
            "lng": 136.5972060197085
          }
        }
      },
      "place_id": "ChIJ1yntPYzM-V8Ra658m28pU3Y",
      "plus_code": {
        "compound_code": "JH3X+MC 日本、石川県金沢市",
        "global_code": "8Q8RJH3X+MC"
      },
      "types": [
        "establishment",
        "health",
        "point_of_interest",
        "school"
      ]
    },
    {
      "address_components": [
        {
          "long_name": "金石北（バス）",
          "short_name": "金石北（バス）",
          "types": [
            "establishment",
            "point_of_interest",
            "transit_station"
          ]
        },
        {
          "long_name": "１８",
          "short_name": "１８",
          "types": [
            "political",
            "sublocality",
            "sublocality_level_4"
          ]
        },
        {
          "long_name": "１丁目",
          "short_name": "１丁目",
          "types": [
            "political",
            "sublocality",
            "sublocality_level_3"
          ]
        },
        {
          "long_name": "金石北",
          "short_name": "金石北",
          "types": [
            "political",
            "sublocality",
            "sublocality_level_2"
          ]
        },
        {
          "long_name": "金沢市",
          "short_name": "金沢市",
          "types": [
            "locality",
            "political"
          ]
        },
        {
          "long_name": "石川県",
          "short_name": "石川県",
          "types": [
            "administrative_area_level_1",
            "political"
          ]
        },
        {
          "long_name": "日本",
          "short_name": "JP",
          "types": [
            "country",
            "political"
          ]
        },
        {
          "long_name": "920-0338",
          "short_name": "920-0338",
          "types": [
            "postal_code"
          ]
        }
      ],
      "formatted_address": "日本、〒920-0338 石川県金沢市金石北１丁目１８ 金石北（バス）",
      "geometry": {
        "location": {
          "lat": 36.6042867,
          "lng": 136.5991361
        },
        "location_type": "GEOMETRIC_CENTER",
        "viewport": {
          "northeast": {
            "lat": 36.6056356802915,
            "lng": 136.6004850802915
          },
          "southwest": {
            "lat": 36.6029377197085,
            "lng": 136.5977871197085
          }
        }
      },
      "place_id": "ChIJ7aFfP4zM-V8RbMJlh6UfA9I",
      "plus_code": {
        "compound_code": "JH3X+PM 日本、石川県金沢市",
        "global_code": "8Q8RJH3X+PM"
      },
      "types": [
        "establishment",
        "point_of_interest",
        "transit_station"
      ]
    },
    {
      "address_components": [
        {
          "long_name": "Unnamed Road",
          "short_name": "Unnamed Road",
          "types": [
            "route"
          ]
        },
        {
          "long_name": "１８",
          "short_name": "１８",
          "types": [
            "political",
            "sublocality",
            "sublocality_level_4"
          ]
        },
        {
          "long_name": "１丁目",
          "short_name": "１丁目",
          "types": [
            "political",
            "sublocality",
            "sublocality_level_3"
          ]
        },
        {
          "long_name": "金石北",
          "short_name": "金石北",
          "types": [
            "political",
            "sublocality",
            "sublocality_level_2"
          ]
        },
        {
          "long_name": "金沢市",
          "short_name": "金沢市",
          "types": [
            "locality",
            "political"
          ]
        },
        {
          "long_name": "石川県",
          "short_name": "石川県",
          "types": [
            "administrative_area_level_1",
            "political"
          ]
        },
        {
          "long_name": "日本",
          "short_name": "JP",
          "types": [
            "country",
            "political"
          ]
        },
        {
          "long_name": "920-0338",
          "short_name": "920-0338",
          "types": [
            "postal_code"
          ]
        }
      ],
      "formatted_address": "Unnamed Road, １丁目-１８ 金石北 金沢市 石川県 920-0338 日本",
      "geometry": {
        "bounds": {
          "northeast": {
            "lat": 36.6042228,
            "lng": 136.599065
          },
          "southwest": {
            "lat": 36.6041051,
            "lng": 136.5986571
          }
        },
        "location": {
          "lat": 36.604164,
          "lng": 136.598861
        },
        "location_type": "GEOMETRIC_CENTER",
        "viewport": {
          "northeast": {
            "lat": 36.6055129302915,
            "lng": 136.6002100302915
          },
          "southwest": {
            "lat": 36.6028149697085,
            "lng": 136.5975120697085
          }
        }
      },
      "place_id": "ChIJ2SG7PozM-V8RSDLd4aJ-UD4",
      "types": [
        "route"
      ]
    },
    {
      "address_components": [
        {
          "long_name": "１８",
          "short_name": "１８",
          "types": [
            "political",
            "sublocality",
            "sublocality_level_4"
          ]
        },
        {
          "long_name": "１丁目",
          "short_name": "１丁目",
          "types": [
            "political",
            "sublocality",
            "sublocality_level_3"
          ]
        },
        {
          "long_name": "金石北",
          "short_name": "金石北",
          "types": [
            "political",
            "sublocality",
            "sublocality_level_2"
          ]
        },
        {
          "long_name": "金沢市",
          "short_name": "金沢市",
          "types": [
            "locality",
            "political"
          ]
        },
        {
          "long_name": "石川県",
          "short_name": "石川県",
          "types": [
            "administrative_area_level_1",
            "political"
          ]
        },
        {
          "long_name": "日本",
          "short_name": "JP",
          "types": [
            "country",
            "political"
          ]
        },
        {
          "long_name": "920-0338",
          "short_name": "920-0338",
          "types": [
            "postal_code"
          ]
        }
      ],
      "formatted_address": "日本、〒920-0338 石川県金沢市金石北１丁目１８",
      "geometry": {
        "bounds": {
          "northeast": {
            "lat": 36.6050952,
            "lng": 136.6006616
          },
          "southwest": {
            "lat": 36.604016,
            "lng": 136.5982422
          }
        },
        "location": {
          "lat": 36.6046906,
          "lng": 136.5991864
        },
        "location_type": "GEOMETRIC_CENTER",
        "viewport": {
          "northeast": {
            "lat": 36.6059045802915,
            "lng": 136.6008008802915
          },
          "southwest": {
            "lat": 36.6032066197085,
            "lng": 136.5981029197085
          }
        }
      },
      "place_id": "ChIJs_b5QozM-V8Ra74LnRqhDag",
      "types": [
        "political",
        "sublocality",
        "sublocality_level_4"
      ]
    },
    {
      "address_components": [
        {
          "long_name": "１丁目",
          "short_name": "１丁目",
          "types": [
            "political",
            "sublocality",
            "sublocality_level_3"
          ]
        },
        {
          "long_name": "金石北",
          "short_name": "金石北",
          "types": [
            "political",
            "sublocality",
            "sublocality_level_2"
          ]
        },
        {
          "long_name": "金沢市",
          "short_name": "金沢市",
          "types": [
            "locality",
            "political"
          ]
        },
        {
          "long_name": "石川県",
          "short_name": "石川県",
          "types": [
            "administrative_area_level_1",
            "political"
          ]
        },
        {
          "long_name": "日本",
          "short_name": "JP",
          "types": [
            "country",
            "political"
          ]
        },
        {
          "long_name": "920-0338",
          "short_name": "920-0338",
          "types": [
            "postal_code"
          ]
        }
      ],
      "formatted_address": "日本、〒920-0338 石川県金沢市金石北１丁目",
      "geometry": {
        "bounds": {
          "northeast": {
            "lat": 36.6064028,
            "lng": 136.6006616
          },
          "southwest": {
            "lat": 36.6027906,
            "lng": 136.5944491
          }
        },
        "location": {
          "lat": 36.6044305,
          "lng": 136.5976743
        },
        "location_type": "APPROXIMATE",
        "viewport": {
          "northeast": {
            "lat": 36.6064028,
            "lng": 136.6006616
          },
          "southwest": {
            "lat": 36.6027906,
            "lng": 136.5944491
          }
        }
      },
      "place_id": "ChIJW0coD4zM-V8RvGQQMSFpoIo",
      "types": [
        "political",
        "sublocality",
        "sublocality_level_3"
      ]
    },
    {
      "address_components": [
        {
          "long_name": "920-0338",
          "short_name": "920-0338",
          "types": [
            "postal_code"
          ]
        },
        {
          "long_name": "金石北",
          "short_name": "金石北",
          "types": [
            "political",
            "sublocality",
            "sublocality_level_2"
          ]
        },
        {
          "long_name": "金沢市",
          "short_name": "金沢市",
          "types": [
            "locality",
            "political"
          ]
        },
        {
          "long_name": "石川県",
          "short_name": "石川県",
          "types": [
            "administrative_area_level_1",
            "political"
          ]
        },
        {
          "long_name": "日本",
          "short_name": "JP",
          "types": [
            "country",
            "political"
          ]
        }
      ],
      "formatted_address": "日本 〒920-0338",
      "geometry": {
        "bounds": {
          "northeast": {
            "lat": 36.617237,
            "lng": 136.6026741
          },
          "southwest": {
            "lat": 36.6027906,
            "lng": 136.5932678
          }
        },
        "location": {
          "lat": 36.6090114,
          "lng": 136.5990445
        },
        "location_type": "APPROXIMATE",
        "viewport": {
          "northeast": {
            "lat": 36.617237,
            "lng": 136.6026741
          },
          "southwest": {
            "lat": 36.6027906,
            "lng": 136.5932678
          }
        }
      },
      "place_id": "ChIJaUKs94rM-V8RwN6nWN-yaGM",
      "types": [
        "postal_code"
      ]
    },
    {
      "address_components": [
        {
          "long_name": "金石北",
          "short_name": "金石北",
          "types": [
            "political",
            "sublocality",
            "sublocality_level_2"
          ]
        },
        {
          "long_name": "金沢市",
          "short_name": "金沢市",
          "types": [
            "locality",
            "political"
          ]
        },
        {
          "long_name": "石川県",
          "short_name": "石川県",
          "types": [
            "administrative_area_level_1",
            "political"
          ]
        },
        {
          "long_name": "日本",
          "short_name": "JP",
          "types": [
            "country",
            "political"
          ]
        },
        {
          "long_name": "920-0338",
          "short_name": "920-0338",
          "types": [
            "postal_code"
          ]
        }
      ],
      "formatted_address": "日本、〒920-0338 石川県金沢市金石北",
      "geometry": {
        "bounds": {
          "northeast": {
            "lat": 36.617237,
            "lng": 136.6026741
          },
          "southwest": {
            "lat": 36.6027906,
            "lng": 136.5932678
          }
        },
        "location": {
          "lat": 36.6090114,
          "lng": 136.5990445
        },
        "location_type": "APPROXIMATE",
        "viewport": {
          "northeast": {
            "lat": 36.617237,
            "lng": 136.6026741
          },
          "southwest": {
            "lat": 36.6027906,
            "lng": 136.5932678
          }
        }
      },
      "place_id": "ChIJAVvMTfXM-V8RjMnltNQoh3s",
      "types": [
        "political",
        "sublocality",
        "sublocality_level_2"
      ]
    },
    {
      "address_components": [
        {
          "long_name": "金沢市",
          "short_name": "金沢市",
          "types": [
            "locality",
            "political"
          ]
        },
        {
          "long_name": "石川県",
          "short_name": "石川県",
          "types": [
            "administrative_area_level_1",
            "political"
          ]
        },
        {
          "long_name": "日本",
          "short_name": "JP",
          "types": [
            "country",
            "political"
          ]
        }
      ],
      "formatted_address": "日本、石川県金沢市",
      "geometry": {
        "bounds": {
          "northeast": {
            "lat": 36.67418320000001,
            "lng": 136.8171869
          },
          "southwest": {
            "lat": 36.338122,
            "lng": 136.5571782
          }
        },
        "location": {
          "lat": 36.5610309,
          "lng": 136.6566474
        },
        "location_type": "APPROXIMATE",
        "viewport": {
          "northeast": {
            "lat": 36.67418320000001,
            "lng": 136.8171869
          },
          "southwest": {
            "lat": 36.338122,
            "lng": 136.5571782
          }
        }
      },
      "place_id": "ChIJw2aFRlU2-F8RFWLeb8RV8Y0",
      "types": [
        "locality",
        "political"
      ]
    },
    {
      "address_components": [
        {
          "long_name": "石川県",
          "short_name": "石川県",
          "types": [
            "administrative_area_level_1",
            "political"
          ]
        },
        {
          "long_name": "日本",
          "short_name": "JP",
          "types": [
            "country",
            "political"
          ]
        }
      ],
      "formatted_address": "日本、石川県",
      "geometry": {
        "bounds": {
          "northeast": {
            "lat": 37.8579593,
            "lng": 137.3652437
          },
          "southwest": {
            "lat": 36.0674589,
            "lng": 136.2436536
          }
        },
        "location": {
          "lat": 36.3260317,
          "lng": 136.5289653
        },
        "location_type": "APPROXIMATE",
        "viewport": {
          "northeast": {
            "lat": 37.8579593,
            "lng": 137.3652437
          },
          "southwest": {
            "lat": 36.0674589,
            "lng": 136.2436536
          }
        }
      },
      "place_id": "ChIJ7xq8wV5-8V8RtJoYjRM81Es",
      "types": [
        "administrative_area_level_1",
        "political"
      ]
    },
    {
      "address_components": [
        {
          "long_name": "日本",
          "short_name": "JP",
          "types": [
            "country",
            "political"
          ]
        }
      ],
      "formatted_address": "日本",
      "geometry": {
        "bounds": {
          "northeast": {
            "lat": 45.6412626,
            "lng": 154.0031455
          },
          "southwest": {
            "lat": 20.3585295,
            "lng": 122.8554688
          }
        },
        "location": {
          "lat": 36.204824,
          "lng": 138.252924
        },
        "location_type": "APPROXIMATE",
        "viewport": {
          "northeast": {
            "lat": 45.6412626,
            "lng": 154.0031455
          },
          "southwest": {
            "lat": 20.3585295,
            "lng": 122.8554688
          }
        }
      },
      "place_id": "ChIJLxl_1w9OZzQRRFJmfNR1QvU",
      "types": [
        "country",
        "political"
      ]
    },
    {
      "address_components": [
        {
          "long_name": "JH3X+MF",
          "short_name": "JH3X+MF",
          "types": [
            "plus_code"
          ]
        },
        {
          "long_name": "金沢市",
          "short_name": "金沢市",
          "types": [
            "locality",
            "political"
          ]
        },
        {
          "long_name": "石川県",
          "short_name": "石川県",
          "types": [
            "administrative_area_level_1",
            "political"
          ]
        },
        {
          "long_name": "日本",
          "short_name": "JP",
          "types": [
            "country",
            "political"
          ]
        }
      ],
      "formatted_address": "JH3X+MF 日本、石川県金沢市",
      "geometry": {
        "bounds": {
          "northeast": {
            "lat": 36.60425,
            "lng": 136.59875
          },
          "southwest": {
            "lat": 36.604125,
            "lng": 136.598625
          }
        },
        "location": {
          "lat": 36.604167,
          "lng": 136.598722
        },
        "location_type": "ROOFTOP",
        "viewport": {
          "northeast": {
            "lat": 36.60553648029149,
            "lng": 136.6000364802915
          },
          "southwest": {
            "lat": 36.60283851970849,
            "lng": 136.5973385197085
          }
        }
      },
      "place_id": "GhIJRSkhWFVNQkARqSwKuygTYUA",
      "plus_code": {
        "compound_code": "JH3X+MF 日本、石川県金沢市",
        "global_code": "8Q8RJH3X+MF"
      },
      "types": [
        "plus_code"
      ]
    }
  ]
}