{
  "station": "寺地",
  "lat": 37.881028,
  "lng": 139.011472,
  "plus_code": {
    "compound_code": "V2J6+CH 日本、新潟県新潟市",
    "global_code": "8Q9XV2J6+CH"
  },
  "results": [
    {
      "address_components": [
        {
          "long_name": "８",
          "short_name": "８",
          "types": [
            "premise"
          ]
        },
        {
          "long_name": "８",
          "short_name": "８",
          "types": [
            "political",
            "sublocality",
            "sublocality_level_4"
          ]
        },
        {
          "long_name": "４丁目",
          "short_name": "４丁目",
          "types": [
            "political",
            "sublocality",
            "sublocality_level_3"
          ]
        },
        {
          "long_name": "ときめき西",
          "short_name": "ときめき西",
          "types": [
            "political",
            "sublocality",
            "sublocality_level_2"
          ]
        },
        {
          "long_name": "西区",
          "short_name": "西区",
          "types": [
            "political",
            "sublocality",
            "sublocality_level_1"
          ]
        },
        {
          "long_name": "新潟市",
          "short_name": "新潟市",
          "types": [
            "locality",
            "political"
          ]
        },
        {
          "long_name": "新潟県",
          "short_name": "新潟県",
          "types": [
            "administrative_area_level_1",
            "political"
          ]
        },
        {
          "long_name": "日本",
          "short_name": "JP",
          "types": [
            "country",
            "political"
          ]
        },
        {
          "long_name": "950-1106",
          "short_name": "950-1106",
          "types": [
            "postal_code"
          ]
        }
      ],
      "formatted_address": "日本、〒950-1106 新潟県新潟市西区ときめき西４丁目８−８",
      "geometry": {
        "bounds": {
          "northeast": {
            "lat": 37.8810657,
            "lng": 139.0114295
          },
          "southwest": {
            "lat": 37.8810243,
            "lng": 139.0113503
          }
        },
        "location": {
          "lat": 37.8810441,
          "lng": 139.0113815
        },
        "location_type": "ROOFTOP",
        "viewport": {
          "northeast": {
            "lat": 37.8823939802915,
            "lng": 139.0127388802915
          },
          "southwest": {
            "lat": 37.8796960197085,
            "lng": 139.0100409197085
          }
        }
      },
      "place_id": "ChIJ7_8G1YfI9F8RolpYlE3-Wjw",
      "types": [
        "premise"
      ]
    },
    {
      "address_components": [
        {
          "long_name": "７",
          "short_name": "７",
          "types": [
            "premise"
          ]
        },
        {
          "long_name": "２２",
          "short_name": "２２",
          "types": [
            "political",
            "sublocality",
            "sublocality_level_4"
          ]
        },
        {
          "long_name": "１丁目",
          "short_name": "１丁目",
          "types": [
            "political",
            "sublocality",
            "sublocality_level_3"
          ]
        },
        {
          "long_name": "ときめき東",
          "short_name": "ときめき東",
          "types": [
            "political",
            "sublocality",
            "sublocality_level_2"
          ]
        },
        {
          "long_name": "西区",
          "short_name": "西区",
          "types": [
            "political",
            "sublocality",
            "sublocality_level_1"
          ]
        },
        {
          "long_name": "新潟市",
          "short_name": "新潟市",
          "types": [
            "locality",
            "political"
          ]
        },
        {
          "long_name": "新潟県",
          "short_name": "新潟県",
          "types": [
            "administrative_area_level_1",
            "political"
          ]
        },
        {
          "long_name": "日本",
          "short_name": "JP",
          "types": [
            "country",
            "political"
          ]
        },
        {
          "long_name": "950-1105",
          "short_name": "950-1105",
          "types": [
            "postal_code"
          ]
        }
      ],
      "formatted_address": "日本、〒950-1105 新潟県新潟市西区ときめき東１丁目２２−７",
      "geometry": {
        "location": {
          "lat": 37.8809643,
          "lng": 139.011828
        },
        "location_type": "ROOFTOP",
        "viewport": {
          "northeast": {
            "lat": 37.8823132802915,
            "lng": 139.0131769802915
          },
          "southwest": {
            "lat": 37.8796153197085,
            "lng": 139.0104790197085
          }
        }
      },
      "place_id": "ChIJRRcTKobI9F8RD7V7Q7EE6Cw",
      "plus_code": {
        "compound_code": "V2J6+9P 日本、新潟県新潟市",
        "global_code": "8Q9XV2J6+9P"
      },
      "types": [
        "street_address"
      ]
    },
    {
      "address_components": [
        {
          "long_name": "Unnamed Road",
          "short_name": "Unnamed Road",
          "types": [
            "route"
          ]
        },
        {
          "long_name": "４丁目",
          "short_name": "４丁目",
          "types": [
            "political",
            "sublocality",
            "sublocality_level_3"
          ]
        },
        {
          "long_name": "ときめき西",
          "short_name": "ときめき西",
          "types": [
            "political",
            "sublocality",
            "sublocality_level_2"
          ]
        },
        {
          "long_name": "西区",
          "short_name": "西区",
          "types": [
            "political",
            "sublocality",
            "sublocality_level_1"
          ]
        },
        {
          "long_name": "新潟市",
          "short_name": "新潟市",
          "types": [
            "locality",
            "political"
          ]
        },
        {
          "long_name": "新潟県",
          "short_name": "新潟県",
          "types": [
            "administrative_area_level_1",
            "political"
          ]
        },
        {
          "long_name": "日本",
          "short_name": "JP",
          "types": [
            "country",
            "political"
          ]
        },
        {
          "long_name": "950-1106",
          "short_name": "950-1106",
          "types": [
            "postal_code"
          ]
        }
      ],
      "formatted_address": "Unnamed Road, ４丁目 ときめき西 西区 新潟市 新潟県 950-1106 日本",
      "geometry": {
        "bounds": {
          "northeast": {
            "lat": 37.8812542,
            "lng": 139.0115013
          },
          "southwest": {
            "lat": 37.8808793,
            "lng": 139.0114698
          }
        },
        "location": {
          "lat": 37.8810645,
          "lng": 139.0114777
        },
        "location_type": "GEOMETRIC_CENTER",
        "viewport": {
          "northeast": {
            "lat": 37.8824157302915,
            "lng": 139.0128345302915
          },
          "southwest": {
            "lat": 37.8797177697085,
            "lng": 139.0101365697085
          }
        }
      },
      "place_id": "ChIJORpv1YfI9F8REDJQ22SYDdc",
      "types": [
        "route"
      ]
    },
    {
      "address_components": [
        {
          "long_name": "４丁目",
          "short_name": "４丁目",
          "types": [
            "political",
            "sublocality",
            "sublocality_level_3"
          ]
        },
        {
          "long_name": "ときめき西",
          "short_name": "ときめき西",
          "types": [
            "political",
            "sublocality",
            "sublocality_level_2"
          ]
        },
        {
          "long_name": "西区",
          "short_name": "西区",
          "types": [
            "political",
            "sublocality",
            "sublocality_level_1"
          ]
        },
        {
          "long_name": "新潟市",
          "short_name": "新潟市",
          "types": [
            "locality",
            "political"
          ]
        },
        {
          "long_name": "新潟県",
          "short_name": "新潟県",
          "types": [
            "administrative_area_level_1",
            "political"
          ]
        },
        {
          "long_name": "日本",
          "short_name": "JP",
          "types": [
            "country",
            "political"
          ]
        },
        {
          "long_name": "950-1106",
          "short_name": "950-1106",
          "types": [
            "postal_code"
          ]
        }
      ],
      "formatted_address": "日本、〒950-1106 新潟県新潟市西区ときめき西４丁目",
      "geometry": {
        "bounds": {
          "northeast": {
            "lat": 37.8842409,
            "lng": 139.0115862
          },
          "southwest": {
            "lat": 37.8802326,
            "lng": 139.0091665
          }
        },
        "location": {
          "lat": 37.8807903,
          "lng": 139.0103731
        },
        "location_type": "APPROXIMATE",
        "viewport": {
          "northeast": {
            "lat": 37.8842409,
            "lng": 139.0117253302915
          },
          "southwest": {
            "lat": 37.8802326,
            "lng": 139.0090273697085
          }
        }
      },
      "place_id": "ChIJ8RBjBYjI9F8RObTrr22O6Zw",
      "types": [
        "political",
        "sublocality",
        "sublocality_level_3"
      ]
    },
    {
      "address_components": [
        {
          "long_name": "ときめき西",
          "short_name": "ときめき西",
          "types": [
            "political",
            "sublocality",
            "sublocality_level_2"
          ]
        },
        {
          "long_name": "西区",
          "short_name": "西区",
          "types": [
            "political",
            "sublocality",
            "sublocality_level_1"
          ]
        },
        {
          "long_name": "新潟市",
          "short_name": "新潟市",
          "types": [
            "locality",
            "political"
          ]
        },
        {
          "long_name": "新潟県",
          "short_name": "新潟県",
          "types": [
            "administrative_area_level_1",
            "political"
          ]
        },
        {
          "long_name": "日本",
          "short_name": "JP",
          "types": [
            "country",
            "political"
          ]
        },
        {
          "long_name": "950-1106",
          "short_name": "950-1106",
          "types": [
            "postal_code"
          ]
        }
      ],
      "formatted_address": "日本、〒950-1106 新潟県新潟市西区ときめき西",
      "geometry": {
        "bounds": {
          "northeast": {
            "lat": 37.8842409,
            "lng": 139.0115862
          },
          "southwest": {
            "lat": 37.87208589999999,
            "lng": 139.0074532
          }
        },
        "location": {
          "lat": 37.8775256,
          "lng": 139.009456
        },
        "location_type": "APPROXIMATE",
        "viewport": {
          "northeast": {
            "lat": 37.8842409,
            "lng": 139.0115862
          },
          "southwest": {
            "lat": 37.87208589999999,
            "lng": 139.0074532
          }
        }
      },
      "place_id": "ChIJkZbvo4bI9F8RNTLTVXpbciY",
      "types": [
        "political",
        "sublocality",
        "sublocality_level_2"
      ]
    },
    {
      "address_components": [
        {
          "long_name": "950-1106",
          "short_name": "950-1106",
          "types": [
            "postal_code"
          ]
        },
        {
          "long_name": "ときめき西",
          "short_name": "ときめき西",
          "types": [
            "political",
            "sublocality",
            "sublocality_level_2"
          ]
        },
        {
          "long_name": "西区",
          "short_name": "西区",
          "types": [
            "political",
            "sublocality",
            "sublocality_level_1"
          ]
        },
        {
          "long_name": "新潟市",
          "short_name": "新潟市",
          "types": [
            "locality",
            "political"
          ]
        },
        {
          "long_name": "新潟県",
          "short_name": "新潟県",
          "types": [
            "administrative_area_level_1",
            "political"
          ]
        },
        {
          "long_name": "日本",
          "short_name": "JP",
          "types": [
            "country",
            "political"
          ]
        }
      ],
      "formatted_address": "日本 〒950-1106",
      "geometry": {
        "bounds": {
          "northeast": {
            "lat": 37.8842409,
            "lng": 139.0115862
          },
          "southwest": {
            "lat": 37.87208589999999,
            "lng": 139.0074532
          }
        },
        "location": {
          "lat": 37.8775256,
          "lng": 139.009456
        },
        "location_type": "APPROXIMATE",
        "viewport": {
          "northeast": {
            "lat": 37.8842409,
            "lng": 139.0115862
          },
          "southwest": {
            "lat": 37.87208589999999,
            "lng": 139.0074532
          }
        }
      },
      "place_id": "ChIJQ2uQ6oLI9F8RlkbbKg9s9zQ",
      "types": [
        "postal_code"
      ]
    },
    {
      "address_components": [
        {
          "long_name": "西区",
          "short_name": "西区",
          "types": [
            "political",
            "sublocality",
            "sublocality_level_1"
          ]
        },
        {
          "long_name": "新潟市",
          "short_name": "新潟市",
          "types": [
            "locality",
            "political"
          ]
        },
        {
          "long_name": "新潟県",
          "short_name": "新潟県",
          "types": [
            "administrative_area_level_1",
            "political"
          ]
        },
        {
          "long_name": "日本",
          "short_name": "JP",
          "types": [
            "country",
            "political"
          ]
        }
      ],
      "formatted_address": "日本、新潟県新潟市西区",
      "geometry": {
        "bounds": {
          "northeast": {
            "lat": 37.9100291,
            "lng": 139.0248083
          },
          "southwest": {
            "lat": 37.8033323,
            "lng": 138.8561764
          }
        },
        "location": {
          "lat": 37.8510986,
          "lng": 138.9569972
        },
        "location_type": "APPROXIMATE",
        "viewport": {
          "northeast": {
            "lat": 37.9100291,
            "lng": 139.0248083
          },
          "southwest": {
            "lat": 37.8033323,
            "lng": 138.8561764
          }
        }
      },
      "place_id": "ChIJqQQAORzH9F8RbkZvKNYXKTM",
      "types": [
        "political",
        "sublocality",
        "sublocality_level_1"
      ]
    },
    {
      "address_components": [
        {
          "long_name": "新潟市",
          "short_name": "新潟市",
          "types": [
            "locality",
            "political"
          ]
        },
        {
          "long_name": "新潟県",
          "short_name": "新潟県",
          "types": [
            "administrative_area_level_1",
            "political"
          ]
        },
        {
          "long_name": "日本",
          "short_name": "JP",
          "types": [
            "country",
            "political"
          ]
        }
      ],
      "formatted_address": "日本、新潟県新潟市",
      "geometry": {
        "bounds": {
          "northeast": {
            "lat": 38.0019173,
            "lng": 139.2669056
          },
          "southwest": {
            "lat": 37.678816,
            "lng": 138.7843233
          }
        },
        "location": {
          "lat": 37.9161244,
          "lng": 139.0363708
        },
        "location_type": "APPROXIMATE",
        "viewport": {
          "northeast": {
            "lat": 38.0019173,
            "lng": 139.2669056
          },
          "southwest": {
            "lat": 37.678816,
            "lng": 138.7843233
          }
        }
      },
      "place_id": "ChIJ98DHVcLF9F8RDSOQycubUPE",
      "types": [
        "locality",
        "political"
      ]
    },
    {
      "address_components": [
        {
          "long_name": "新潟県",
          "short_name": "新潟県",
          "types": [
            "administrative_area_level_1",
            "political"
          ]
        },
        {
          "long_name": "日本",
          "short_name": "JP",
          "types": [
            "country",
            "political"
          ]
        }
      ],
      "formatted_address": "日本、新潟県",
      "geometry": {
        "bounds": {
          "northeast": {
            "lat": 38.5535962,
            "lng": 139.8998675
          },
          "southwest": {
            "lat": 36.73657,
            "lng": 137.6350483
          }
        },
        "location": {
          "lat": 37.5178386,
          "lng": 138.9269794
        },
        "location_type": "APPROXIMATE",
        "viewport": {
          "northeast": {
            "lat": 38.5535962,
            "lng": 139.8998675
          },
          "southwest": {
            "lat": 36.73657,
            "lng": 137.6350483
          }
        }
      },
      "place_id": "ChIJATtK2PaFjF8RSPPdfITZi7Q",
      "types": [
        "administrative_area_level_1",
        "political"
      ]
    },
    {
      "address_components": [
        {
          "long_name": "日本",
          "short_name": "JP",
          "types": [
            "country",
            "political"
          ]
        }
      ],
      "formatted_address": "日本",
      "geometry": {
        "bounds": {
          "northeast": {
            "lat": 45.6412626,
            "lng": 154.0031455
          },
          "southwest": {
            "lat": 20.3585295,
            "lng": 122.8554688
          }
        },
        "location": {
          "lat": 36.204824,
          "lng": 138.252924
        },
        "location_type": "APPROXIMATE",
        "viewport": {
          "northeast": {
            "lat": 45.6412626,
            "lng": 154.0031455
          },
          "southwest": {
            "lat": 20.3585295,
            "lng": 122.8554688
          }
        }
      },
      "place_id": "ChIJLxl_1w9OZzQRRFJmfNR1QvU",
      "types": [
        "country",
        "political"
      ]
    },
    {
      "address_components": [
        {
          "long_name": "V2J6+CH",
          "short_name": "V2J6+CH",
          "types": [
            "plus_code"
          ]
        },
        {
          "long_name": "新潟市",
          "short_name": "新潟市",
          "types": [
            "locality",
            "political"
          ]
        },
        {
          "long_name": "新潟県",
          "short_name": "新潟県",
          "types": [
            "administrative_area_level_1",
            "political"
          ]
        },
        {
          "long_name": "日本",
          "short_name": "JP",
          "types": [
            "country",
            "political"
          ]
        }
      ],
      "formatted_address": "V2J6+CH 日本、新潟県新潟市",
      "geometry": {
        "bounds": {
          "northeast": {
            "lat": 37.881125,
            "lng": 139.0115
          },
          "southwest": {
            "lat": 37.881,
            "lng": 139.011375
          }
        },
        "location": {
          "lat": 37.881028,
          "lng": 139.011472
        },
        "location_type": "ROOFTOP",
        "viewport": {
          "northeast": {
            "lat": 37.8824114802915,
            "lng": 139.0127864802915
          },
          "southwest": {
            "lat": 37.8797135197085,
            "lng": 139.0100885197085
          }
        }
      },
      "place_id": "GhIJHm6HhsXwQkAROxqH-l1gYUA",
      "plus_code": {
        "compound_code": "V2J6+CH 日本、新潟県新潟市",
        "global_code": "8Q9XV2J6+CH"
      },
      "types": [
        "plus_code"
      ]
    }
  ]
}