{
  "station": "南石動",
  "lat": 36.667472,
  "lng": 136.859833,
  "plus_code": {
    "compound_code": "MV85+XW 日本、富山県小矢部市",
    "global_code": "8Q8RMV85+XW"
  },
  "results": [
    {
      "address_components": [
        {
          "long_name": "１３７６−４",
          "short_name": "１３７６−４",
          "types": [
            "premise"
          ]
        },
        {
          "long_name": "埴生",
          "short_name": "埴生",
          "types": [
            "political",
            "sublocality",
            "sublocality_level_2"
          ]
        },
        {
          "long_name": "小矢部市",
          "short_name": "小矢部市",
          "types": [
            "locality",
            "political"
          ]
        },
        {
          "long_name": "富山県",
          "short_name": "富山県",
          "types": [
            "administrative_area_level_1",
            "political"
          ]
        },
        {
          "long_name": "日本",
          "short_name": "JP",
          "types": [
            "country",
            "political"
          ]
        },
        {
          "long_name": "932-0836",
          "short_name": "932-0836",
          "types": [
            "postal_code"
          ]
        }
      ],
      "formatted_address": "日本、〒932-0836 富山県小矢部市埴生１３７６−４",
      "geometry": {
        "location": {
          "lat": 36.6674169,
          "lng": 136.8598166
        },
        "location_type": "ROOFTOP",
        "viewport": {
          "northeast": {
            "lat": 36.6687658802915,
            "lng": 136.8611655802915
          },
          "southwest": {
            "lat": 36.6660679197085,
            "lng": 136.8584676197085
          }
        }
      },
      "place_id": "ChIJVaqH4rcr-F8RCVgW3iWlLto",
      "plus_code": {
        "compound_code": "MV85+XW 日本、富山県小矢部市",
        "global_code": "8Q8RMV85+XW"
      },
      "types": [
        "establishment",
        "point_of_interest"
      ]
    },
    {
      "address_components": [
        {
          "long_name": "１３７８−４",
          "short_name": "１３７８−４",
          "types": [
            "premise"
          ]
        },
        {
          "long_name": "埴生",
          "short_name": "埴生",
          "types": [
            "political",
            "sublocality",
            "sublocality_level_2"
          ]
        },
        {
          "long_name": "小矢部市",
          "short_name": "小矢部市",
          "types": [
            "locality",
            "political"
          ]
        },
        {
          "long_name": "富山県",
          "short_name": "富山県",
          "types": [
            "administrative_area_level_1",
            "political"
          ]
        },
        {
          "long_name": "日本",
          "short_name": "JP",
          "types": [
            "country",
            "political"
          ]
        },
        {
          "long_name": "932-0836",
          "short_name": "932-0836",
          "types": [
            "postal_code"
          ]
        }
      ],
      "formatted_address": "日本、〒932-0836 富山県小矢部市埴生１３７８−４",
      "geometry": {
        "bounds": {
          "northeast": {
            "lat": 36.6675238,
            "lng": 136.8597894
          },
          "southwest": {
            "lat": 36.66734659999999,
            "lng": 136.8596313
          }
        },
        "location": {
          "lat": 36.6674482,
          "lng": 136.8596849
        },
        "location_type": "ROOFTOP",
        "viewport": {
          "northeast": {
            "lat": 36.6687841802915,
            "lng": 136.8610593302915
          },
          "southwest": {
            "lat": 36.6660862197085,
            "lng": 136.8583613697085
          }
        }
      },
      "place_id": "ChIJrWKj3JMq-F8RHRY7i2Ugq2g",
      "types": [
        "premise"
      ]
    },
    {
      "address_components": [
        {
          "long_name": "１３７６−４",
          "short_name": "１３７６−４",
          "types": [
            "premise"
          ]
        },
        {
          "long_name": "埴生",
          "short_name": "埴生",
          "types": [
            "political",
            "sublocality",
            "sublocality_level_2"
          ]
        },
        {
          "long_name": "小矢部市",
          "short_name": "小矢部市",
          "types": [
            "locality",
            "political"
          ]
        },
        {
          "long_name": "富山県",
          "short_name": "富山県",
          "types": [
            "administrative_area_level_1",
            "political"
          ]
        },
        {
          "long_name": "日本",
          "short_name": "JP",
          "types": [
            "country",
            "political"
          ]
        },
        {
          "long_name": "932-0836",
          "short_name": "932-0836",
          "types": [
            "postal_code"
          ]
        }
      ],
      "formatted_address": "日本、〒932-0836 富山県小矢部市埴生１３７６−４",
      "geometry": {
        "location": {
          "lat": 36.667432,
          "lng": 136.8596986
        },
        "location_type": "ROOFTOP",
        "viewport": {
          "northeast": {
            "lat": 36.6687809802915,
            "lng": 136.8610475802915
          },
          "southwest": {
            "lat": 36.6660830197085,
            "lng": 136.8583496197085
          }
        }
      },
      "place_id": "ChIJp_Cj3JMq-F8R4OV8v8QqIYM",
      "plus_code": {
        "compound_code": "MV85+XV 日本、富山県小矢部市",
        "global_code": "8Q8RMV85+XV"
      },
      "types": [
        "street_address"
      ]
    },
    {
      "address_components": [
        {
          "long_name": "Unnamed Road",
          "short_name": "Unnamed Road",
          "types": [
            "route"
          ]
        },
        {
          "long_name": "埴生",
          "short_name": "埴生",
          "types": [
            "political",
            "sublocality",
            "sublocality_level_2"
          ]
        },
        {
          "long_name": "小矢部市",
          "short_name": "小矢部市",
          "types": [
            "locality",
            "political"
          ]
        },
        {
          "long_name": "富山県",
          "short_name": "富山県",
          "types": [
            "administrative_area_level_1",
            "political"
          ]
        },
        {
          "long_name": "日本",
          "short_name": "JP",
          "types": [
            "country",
            "political"
          ]
        },
        {
          "long_name": "932-0836",
          "short_name": "932-0836",
          "types": [
            "postal_code"
          ]
        }
      ],
      "formatted_address": "Unnamed Road, 埴生 小矢部市 富山県 932-0836 日本",
      "geometry": {
        "bounds": {
          "northeast": {
            "lat": 36.6675956,
            "lng": 136.8598494
          },
          "southwest": {
            "lat": 36.6675254,
            "lng": 136.8574151
          }
        },
        "location": {
          "lat": 36.6675295,
          "lng": 136.8586332
        },
        "location_type": "GEOMETRIC_CENTER",
        "viewport": {
          "northeast": {
            "lat": 36.6689094802915,
            "lng": 136.8599812302915
          },
          "southwest": {
            "lat": 36.6662115197085,
            "lng": 136.8572832697085
          }
        }
      },
      "place_id": "ChIJr4ZA7JMq-F8RqOHwZ86er4k",
      "types": [
        "route"
      ]
    },
    {
      "address_components": [
        {
          "long_name": "932-0836",
          "short_name": "932-0836",
          "types": [
            "postal_code"
          ]
        },
        {
          "long_name": "埴生",
          "short_name": "埴生",
          "types": [
            "political",
            "sublocality",
            "sublocality_level_2"
          ]
        },
        {
          "long_name": "小矢部市",
          "short_name": "小矢部市",
          "types": [
            "locality",
            "political"
          ]
        },
        {
          "long_name": "富山県",
          "short_name": "富山県",
          "types": [
            "administrative_area_level_1",
            "political"
          ]
        },
        {
          "long_name": "日本",
          "short_name": "JP",
          "types": [
            "country",
            "political"
          ]
        }
      ],
      "formatted_address": "日本 〒932-0836",
      "geometry": {
        "bounds": {
          "northeast": {
            "lat": 36.6747257,
            "lng": 136.8605159
          },
          "southwest": {
            "lat": 36.6589441,
            "lng": 136.8155645
          }
        },
        "location": {
          "lat": 36.6641168,
          "lng": 136.8441972
        },
        "location_type": "APPROXIMATE",
        "viewport": {
          "northeast": {
            "lat": 36.6747257,
            "lng": 136.8605159
          },
          "southwest": {
            "lat": 36.6589441,
            "lng": 136.8155645
          }
        }
      },
      "place_id": "ChIJEWSzYOsq-F8R8GnSbvUxuIM",
      "types": [
        "postal_code"
      ]
    },
    {
      "address_components": [
        {
          "long_name": "埴生",
          "short_name": "埴生",
          "types": [
            "political",
            "sublocality",
            "sublocality_level_2"
          ]
        },
        {
          "long_name": "小矢部市",
          "short_name": "小矢部市",
          "types": [
            "locality",
            "political"
          ]
        },
        {
          "long_name": "富山県",
          "short_name": "富山県",
          "types": [
            "administrative_area_level_1",
            "political"
          ]
        },
        {
          "long_name": "日本",
          "short_name": "JP",
          "types": [
            "country",
            "political"
          ]
        },
        {
          "long_name": "932-0836",
          "short_name": "932-0836",
          "types": [
            "postal_code"
          ]
        }
      ],
      "formatted_address": "日本、〒932-0836 富山県小矢部市埴生",
      "geometry": {
        "bounds": {
          "northeast": {
            "lat": 36.6747257,
            "lng": 136.8605159
          },
          "southwest": {
            "lat": 36.6589441,
            "lng": 136.8155645
          }
        },
        "location": {
          "lat": 36.6641168,
          "lng": 136.8441972
        },
        "location_type": "APPROXIMATE",
        "viewport": {
          "northeast": {
            "lat": 36.6747257,
            "lng": 136.8605159
          },
          "southwest": {
            "lat": 36.6589441,
            "lng": 136.8155645
          }
        }
      },
      "place_id": "ChIJ1zcrEMMq-F8RNaKALSuBUP8",
      "types": [
        "political",
        "sublocality",
        "sublocality_level_2"
      ]
    },
    {
      "address_components": [
        {
          "long_name": "小矢部市",
          "short_name": "小矢部市",
          "types": [
            "locality",
            "political"
          ]
        },
        {
          "long_name": "富山県",
          "short_name": "富山県",
          "types": [
            "administrative_area_level_1",
            "political"
          ]
        },
        {
          "long_name": "日本",
          "short_name": "JP",
          "types": [
            "country",
            "political"
          ]
        }
      ],
      "formatted_address": "日本、富山県小矢部市",
      "geometry": {
        "bounds": {
          "northeast": {
            "lat": 36.7430935,
            "lng": 136.9377103
          },
          "southwest": {
            "lat": 36.585583,
            "lng": 136.7831142
          }
        },
        "location": {
          "lat": 36.6750885,
          "lng": 136.8686403
        },
        "location_type": "APPROXIMATE",
        "viewport": {
          "northeast": {
            "lat": 36.7430935,
            "lng": 136.9377103
          },
          "southwest": {
            "lat": 36.585583,
            "lng": 136.7831142
          }
        }
      },
      "place_id": "ChIJnSK4Zo0q-F8RlKFZajBTLTs",
      "types": [
        "locality",
        "political"
      ]
    },
    {
      "address_components": [
        {
          "long_name": "富山県",
          "short_name": "富山県",
          "types": [
            "administrative_area_level_1",
            "political"
          ]
        },
        {
          "long_name": "日本",
          "short_name": "JP",
          "types": [
            "country",
            "political"
          ]
        }
      ],
      "formatted_address": "日本、富山県",
      "geometry": {
        "bounds": {
          "northeast": {
            "lat": 36.9826438,
            "lng": 137.7633442
          },
          "southwest": {
            "lat": 36.2745068,
            "lng": 136.7683708
          }
        },
        "location": {
          "lat": 36.6958266,
          "lng": 137.2137071
        },
        "location_type": "APPROXIMATE",
        "viewport": {
          "northeast": {
            "lat": 36.9826438,
            "lng": 137.7633442
          },
          "southwest": {
            "lat": 36.2745068,
            "lng": 136.7683708
          }
        }
      },
      "place_id": "ChIJSca2CRSS918Rc1GBWMBBk3w",
      "types": [
        "administrative_area_level_1",
        "political"
      ]
    },
    {
      "address_components": [
        {
          "long_name": "日本",
          "short_name": "JP",
          "types": [
            "country",
            "political"
          ]
        }
      ],
      "formatted_address": "日本",
      "geometry": {
        "bounds": {
          "northeast": {
            "lat": 45.6412626,
            "lng": 154.0031455
          },
          "southwest": {
            "lat": 20.3585295,
            "lng": 122.8554688
          }
        },
        "location": {
          "lat": 36.204824,
          "lng": 138.252924
        },
        "location_type": "APPROXIMATE",
        "viewport": {
          "northeast": {
            "lat": 45.6412626,
            "lng": 154.0031455
          },
          "southwest": {
            "lat": 20.3585295,
            "lng": 122.8554688
          }
        }
      },
      "place_id": "ChIJLxl_1w9OZzQRRFJmfNR1QvU",
      "types": [
        "country",
        "political"
      ]
    },
    {
      "address_components": [
        {
          "long_name": "MV85+XW",
          "short_name": "MV85+XW",
          "types": [
            "plus_code"
          ]
        },
        {
          "long_name": "小矢部市",
          "short_name": "小矢部市",
          "types": [
            "locality",
            "political"
          ]
        },
        {
          "long_name": "富山県",
          "short_name": "富山県",
          "types": [
            "administrative_area_level_1",
            "political"
          ]
        },
        {
          "long_name": "日本",
          "short_name": "JP",
          "types": [
            "country",
            "political"
          ]
        }
      ],
      "formatted_address": "MV85+XW 日本、富山県小矢部市",
      "geometry": {
        "bounds": {
          "northeast": {
            "lat": 36.6675,
            "lng": 136.859875
          },
          "southwest": {
            "lat": 36.667375,
            "lng": 136.85975
          }
        },
        "location": {
          "lat": 36.667472,
          "lng": 136.859833
        },
        "location_type": "ROOFTOP",
        "viewport": {
          "northeast": {
            "lat": 36.66878648029149,
            "lng": 136.8611614802915
          },
          "southwest": {
            "lat": 36.6660885197085,
            "lng": 136.8584635197085
          }
        }
      },
      "place_id": "GhIJdH_1uG9VQkARsOB-wIMbYUA",
      "plus_code": {
        "compound_code": "MV85+XW 日本、富山県小矢部市",
        "global_code": "8Q8RMV85+XW"
      },
      "types": [
        "plus_code"
      ]
    }
  ]
}