{
  "station": "大野港",
  "lat": 36.612056,
  "lng": 136.606917,
  "plus_code": {
    "compound_code": "JJ64+RQ 日本、石川県金沢市",
    "global_code": "8Q8RJJ64+RQ"
  },
  "results": [
    {
      "address_components": [
        {
          "long_name": "５６−９",
          "short_name": "５６−９",
          "types": [
            "premise"
          ]
        },
        {
          "long_name": "２丁目",
          "short_name": "２丁目",
          "types": [
            "political",
            "sublocality",
            "sublocality_level_3"
          ]
        },
        {
          "long_name": "大野町",
          "short_name": "大野町",
          "types": [
            "political",
            "sublocality",
            "sublocality_level_2"
          ]
        },
        {
          "long_name": "金沢市",
          "short_name": "金沢市",
          "types": [
            "locality",
            "political"
          ]
        },
        {
          "long_name": "石川県",
          "short_name": "石川県",
          "types": [
            "administrative_area_level_1",
            "political"
          ]
        },
        {
          "long_name": "日本",
          "short_name": "JP",
          "types": [
            "country",
            "political"
          ]
        },
        {
          "long_name": "920-0331",
          "short_name": "920-0331",
          "types": [
            "postal_code"
          ]
        }
      ],
      "formatted_address": "日本、〒920-0331 石川県金沢市大野町２丁目５６−９",
      "geometry": {
        "location": {
          "lat": 36.6120797,
          "lng": 136.6068403
        },
        "location_type": "ROOFTOP",
        "viewport": {
          "northeast": {
            "lat": 36.61342868029149,
            "lng": 136.6081892802915
          },
          "southwest": {
            "lat": 36.61073071970849,
            "lng": 136.6054913197085
          }
        }
      },
      "place_id": "ChIJT6pkvffM-V8RvMgHECMvK-M",
      "plus_code": {
        "compound_code": "JJ64+RP 日本、石川県金沢市",
        "global_code": "8Q8RJJ64+RP"
      },
      "types": [
        "establishment",
        "point_of_interest"
      ]
    },
    {
      "address_components": [
        {
          "long_name": "５６−１３",
          "short_name": "５６−１３",
          "types": [
            "premise"
          ]
        },
        {
          "long_name": "２丁目",
          "short_name": "２丁目",
          "types": [
            "political",
            "sublocality",
            "sublocality_level_3"
          ]
        },
        {
          "long_name": "大野町",
          "short_name": "大野町",
          "types": [
            "political",
            "sublocality",
            "sublocality_level_2"
          ]
        },
        {
          "long_name": "金沢市",
          "short_name": "金沢市",
          "types": [
            "locality",
            "political"
          ]
        },
        {
          "long_name": "石川県",
          "short_name": "石川県",
          "types": [
            "administrative_area_level_1",
            "political"
          ]
        },
        {
          "long_name": "日本",
          "short_name": "JP",
          "types": [
            "country",
            "political"
          ]
        },
        {
          "long_name": "920-0331",
          "short_name": "920-0331",
          "types": [
            "postal_code"
          ]
        }
      ],
      "formatted_address": "日本、〒920-0331 石川県金沢市大野町２丁目５６−１３",
      "geometry": {
        "bounds": {
          "northeast": {
            "lat": 36.612098,
            "lng": 136.6068498
          },
          "southwest": {
            "lat": 36.6120382,
            "lng": 136.6067718
          }
        },
        "location": {
          "lat": 36.612072,
          "lng": 136.6068021
        },
        "location_type": "ROOFTOP",
        "viewport": {
          "northeast": {
            "lat": 36.61341708029149,
            "lng": 136.6081597802915
          },
          "southwest": {
            "lat": 36.6107191197085,
            "lng": 136.6054618197085
          }
        }
      },
      "place_id": "ChIJwSxsvffM-V8R_VUPqFzaCiA",
      "types": [
        "premise"
      ]
    },
    {
      "address_components": [
        {
          "long_name": "６０",
          "short_name": "６０",
          "types": [
            "premise"
          ]
        },
        {
          "long_name": "２丁目",
          "short_name": "２丁目",
          "types": [
            "political",
            "sublocality",
            "sublocality_level_3"
          ]
        },
        {
          "long_name": "大野町",
          "short_name": "大野町",
          "types": [
            "political",
            "sublocality",
            "sublocality_level_2"
          ]
        },
        {
          "long_name": "金沢市",
          "short_name": "金沢市",
          "types": [
            "locality",
            "political"
          ]
        },
        {
          "long_name": "石川県",
          "short_name": "石川県",
          "types": [
            "administrative_area_level_1",
            "political"
          ]
        },
        {
          "long_name": "日本",
          "short_name": "JP",
          "types": [
            "country",
            "political"
          ]
        },
        {
          "long_name": "920-0331",
          "short_name": "920-0331",
          "types": [
            "postal_code"
          ]
        }
      ],
      "formatted_address": "日本、〒920-0331 石川県金沢市大野町２丁目６０",
      "geometry": {
        "location": {
          "lat": 36.6119455,
          "lng": 136.6066065
        },
        "location_type": "ROOFTOP",
        "viewport": {
          "northeast": {
            "lat": 36.61329448029149,
            "lng": 136.6079554802915
          },
          "southwest": {
            "lat": 36.61059651970849,
            "lng": 136.6052575197085
          }
        }
      },
      "place_id": "ChIJY8OYvPfM-V8RKmdnxGXvgAo",
      "plus_code": {
        "compound_code": "JJ64+QJ 日本、石川県金沢市",
        "global_code": "8Q8RJJ64+QJ"
      },
      "types": [
        "street_address"
      ]
    },
    {
      "address_components": [
        {
          "long_name": "Unnamed Road",
          "short_name": "Unnamed Road",
          "types": [
            "route"
          ]
        },
        {
          "long_name": "２丁目",
          "short_name": "２丁目",
          "types": [
            "political",
            "sublocality",
            "sublocality_level_3"
          ]
        },
        {
          "long_name": "大野町",
          "short_name": "大野町",
          "types": [
            "political",
            "sublocality",
            "sublocality_level_2"
          ]
        },
        {
          "long_name": "金沢市",
          "short_name": "金沢市",
          "types": [
            "locality",
            "political"
          ]
        },
        {
          "long_name": "石川県",
          "short_name": "石川県",
          "types": [
            "administrative_area_level_1",
            "political"
          ]
        },
        {
          "long_name": "日本",
          "short_name": "JP",
          "types": [
            "country",
            "political"
          ]
        },
        {
          "long_name": "920-0331",
          "short_name": "920-0331",
          "types": [
            "postal_code"
          ]
        }
      ],
      "formatted_address": "Unnamed Road, ２丁目 大野町 金沢市 石川県 920-0331 日本",
      "geometry": {
        "bounds": {
          "northeast": {
            "lat": 36.6121712,
            "lng": 136.6069584
          },
          "southwest": {
            "lat": 36.6120288,
            "lng": 136.6068492
          }
        },
        "location": {
          "lat": 36.6121,
          "lng": 136.6069038
        },
        "location_type": "GEOMETRIC_CENTER",
        "viewport": {
          "northeast": {
            "lat": 36.61344898029149,
            "lng": 136.6082527802915
          },
          "southwest": {
            "lat": 36.61075101970849,
            "lng": 136.6055548197085
          }
        }
      },
      "place_id": "ChIJxeDPl_fM-V8RHLk1zlivnoo",
      "types": [
        "route"
      ]
    },
    {
      "address_components": [
        {
          "long_name": "２丁目",
          "short_name": "２丁目",
          "types": [
            "political",
            "sublocality",
            "sublocality_level_3"
          ]
        },
        {
          "long_name": "大野町",
          "short_name": "大野町",
          "types": [
            "political",
            "sublocality",
            "sublocality_level_2"
          ]
        },
        {
          "long_name": "金沢市",
          "short_name": "金沢市",
          "types": [
            "locality",
            "political"
          ]
        },
        {
          "long_name": "石川県",
          "short_name": "石川県",
          "types": [
            "administrative_area_level_1",
            "political"
          ]
        },
        {
          "long_name": "日本",
          "short_name": "JP",
          "types": [
            "country",
            "political"
          ]
        },
        {
          "long_name": "920-0331",
          "short_name": "920-0331",
          "types": [
            "postal_code"
          ]
        }
      ],
      "formatted_address": "日本、〒920-0331 石川県金沢市大野町２丁目",
      "geometry": {
        "bounds": {
          "northeast": {
            "lat": 36.6132133,
            "lng": 136.6076472
          },
          "southwest": {
            "lat": 36.61099710000001,
            "lng": 136.6050133
          }
        },
        "location": {
          "lat": 36.6114685,
          "lng": 136.6063478
        },
        "location_type": "APPROXIMATE",
        "viewport": {
          "northeast": {
            "lat": 36.61345418029151,
            "lng": 136.6076792302915
          },
          "southwest": {
            "lat": 36.61075621970851,
            "lng": 136.6049812697085
          }
        }
      },
      "place_id": "ChIJOUNYuffM-V8RsOwsMkl7otU",
      "types": [
        "political",
        "sublocality",
        "sublocality_level_3"
      ]
    },
    {
      "address_components": [
        {
          "long_name": "大野町",
          "short_name": "大野町",
          "types": [
            "political",
            "sublocality",
            "sublocality_level_2"
          ]
        },
        {
          "long_name": "金沢市",
          "short_name": "金沢市",
          "types": [
            "locality",
            "political"
          ]
        },
        {
          "long_name": "石川県",
          "short_name": "石川県",
          "types": [
            "administrative_area_level_1",
            "political"
          ]
        },
        {
          "long_name": "日本",
          "short_name": "JP",
          "types": [
            "country",
            "political"
          ]
        },
        {
          "long_name": "920-0331",
          "short_name": "920-0331",
          "types": [
            "postal_code"
          ]
        }
      ],
      "formatted_address": "日本、〒920-0331 石川県金沢市大野町",
      "geometry": {
        "bounds": {
          "northeast": {
            "lat": 36.638696,
            "lng": 136.6162636
          },
          "southwest": {
            "lat": 36.6083696,
            "lng": 136.5956754
          }
        },
        "location": {
          "lat": 36.6115155,
          "lng": 136.6040533
        },
        "location_type": "APPROXIMATE",
        "viewport": {
          "northeast": {
            "lat": 36.638696,
            "lng": 136.6162636
          },
          "southwest": {
            "lat": 36.6083696,
            "lng": 136.5956754
          }
        }
      },
      "place_id": "ChIJWdh28LLN-V8RyzznPVrkuLg",
      "types": [
        "political",
        "sublocality",
        "sublocality_level_2"
      ]
    },
    {
      "address_components": [
        {
          "long_name": "920-0331",
          "short_name": "920-0331",
          "types": [
            "postal_code"
          ]
        },
        {
          "long_name": "大野町",
          "short_name": "大野町",
          "types": [
            "political",
            "sublocality",
            "sublocality_level_2"
          ]
        },
        {
          "long_name": "金沢市",
          "short_name": "金沢市",
          "types": [
            "locality",
            "political"
          ]
        },
        {
          "long_name": "石川県",
          "short_name": "石川県",
          "types": [
            "administrative_area_level_1",
            "political"
          ]
        },
        {
          "long_name": "日本",
          "short_name": "JP",
          "types": [
            "country",
            "political"
          ]
        }
      ],
      "formatted_address": "日本 〒920-0331",
      "geometry": {
        "bounds": {
          "northeast": {
            "lat": 36.638696,
            "lng": 136.6162636
          },
          "southwest": {
            "lat": 36.6083696,
            "lng": 136.5956754
          }
        },
        "location": {
          "lat": 36.6158289,
          "lng": 136.604104
        },
        "location_type": "APPROXIMATE",
        "viewport": {
          "northeast": {
            "lat": 36.638696,
            "lng": 136.6162636
          },
          "southwest": {
            "lat": 36.6083696,
            "lng": 136.5956754
          }
        }
      },
      "place_id": "ChIJr0GVF1jM-V8R1Hm3J-AX19w",
      "types": [
        "postal_code"
      ]
    },
    {
      "address_components": [
        {
          "long_name": "金沢市",
          "short_name": "金沢市",
          "types": [
            "locality",
            "political"
          ]
        },
        {
          "long_name": "石川県",
          "short_name": "石川県",
          "types": [
            "administrative_area_level_1",
            "political"
          ]
        },
        {
          "long_name": "日本",
          "short_name": "JP",
          "types": [
            "country",
            "political"
          ]
        }
      ],
      "formatted_address": "日本、石川県金沢市",
      "geometry": {
        "bounds": {
          "northeast": {
            "lat": 36.67418320000001,
            "lng": 136.8171869
          },
          "southwest": {
            "lat": 36.338122,
            "lng": 136.5571782
          }
        },
        "location": {
          "lat": 36.5610309,
          "lng": 136.6566474
        },
        "location_type": "APPROXIMATE",
        "viewport": {
          "northeast": {
            "lat": 36.67418320000001,
            "lng": 136.8171869
          },
          "southwest": {
            "lat": 36.338122,
            "lng": 136.5571782
          }
        }
      },
      "place_id": "ChIJw2aFRlU2-F8RFWLeb8RV8Y0",
      "types": [
        "locality",
        "political"
      ]
    },
    {
      "address_components": [
        {
          "long_name": "石川県",
          "short_name": "石川県",
          "types": [
            "administrative_area_level_1",
            "political"
          ]
        },
        {
          "long_name": "日本",
          "short_name": "JP",
          "types": [
            "country",
            "political"
          ]
        }
      ],
      "formatted_address": "日本、石川県",
      "geometry": {
        "bounds": {
          "northeast": {
            "lat": 37.8579593,
            "lng": 137.3652437
          },
          "southwest": {
            "lat": 36.0674589,
            "lng": 136.2436536
          }
        },
        "location": {
          "lat": 36.3260317,
          "lng": 136.5289653
        },
        "location_type": "APPROXIMATE",
        "viewport": {
          "northeast": {
            "lat": 37.8579593,
            "lng": 137.3652437
          },
          "southwest": {
            "lat": 36.0674589,
            "lng": 136.2436536
          }
        }
      },
      "place_id": "ChIJ7xq8wV5-8V8RtJoYjRM81Es",
      "types": [
        "administrative_area_level_1",
        "political"
      ]
    },
    {
      "address_components": [
        {
          "long_name": "日本",
          "short_name": "JP",
          "types": [
            "country",
            "political"
          ]
        }
      ],
      "formatted_address": "日本",
      "geometry": {
        "bounds": {
          "northeast": {
            "lat": 45.6412626,
            "lng": 154.0031455
          },
          "southwest": {
            "lat": 20.3585295,
            "lng": 122.8554688
          }
        },
        "location": {
          "lat": 36.204824,
          "lng": 138.252924
        },
        "location_type": "APPROXIMATE",
        "viewport": {
          "northeast": {
            "lat": 45.6412626,
            "lng": 154.0031455
          },
          "southwest": {
            "lat": 20.3585295,
            "lng": 122.8554688
          }
        }
      },
      "place_id": "ChIJLxl_1w9OZzQRRFJmfNR1QvU",
      "types": [
        "country",
        "political"
      ]
    },
    {
      "address_components": [
        {
          "long_name": "JJ64+RQ",
          "short_name": "JJ64+RQ",
          "types": [
            "plus_code"
          ]
        },
        {
          "long_name": "金沢市",
          "short_name": "金沢市",
          "types": [
            "locality",
            "political"
          ]
        },
        {
          "long_name": "石川県",
          "short_name": "石川県",
          "types": [
            "administrative_area_level_1",
            "political"
          ]
        },
        {
          "long_name": "日本",
          "short_name": "JP",
          "types": [
            "country",
            "political"
          ]
        }
      ],
      "formatted_address": "JJ64+RQ 日本、石川県金沢市",
      "geometry": {
        "bounds": {
          "northeast": {
            "lat": 36.612125,
            "lng": 136.607
          },
          "southwest": {
            "lat": 36.612,
            "lng": 136.606875
          }
        },
        "location": {
          "lat": 36.612056,
          "lng": 136.606917
        },
        "location_type": "ROOFTOP",
        "viewport": {
          "northeast": {
            "lat": 36.6134114802915,
            "lng": 136.6082864802915
          },
          "southwest": {
            "lat": 36.6107135197085,
            "lng": 136.6055885197085
          }
        }
      },
      "place_id": "GhIJCKnb2VdOQkARXUwz3WsTYUA",
      "plus_code": {
        "compound_code": "JJ64+RQ 日本、石川県金沢市",
        "global_code": "8Q8RJJ64+RQ"
      },
      "types": [
        "plus_code"
      ]
    }
  ]
}