{
  "station": "飛騨中山",
  "lat": 36.454047,
  "lng": 137.253314,
  "plus_code": {
    "compound_code": "F733+J8 日本、岐阜県飛騨市",
    "global_code": "8Q8VF733+J8"
  },
  "results": [
    {
      "address_components": [
        {
          "long_name": "２３５",
          "short_name": "２３５",
          "types": [
            "premise"
          ]
        },
        {
          "long_name": "神岡町中山",
          "short_name": "神岡町中山",
          "types": [
            "political",
            "sublocality",
            "sublocality_level_2"
          ]
        },
        {
          "long_name": "飛騨市",
          "short_name": "飛騨市",
          "types": [
            "locality",
            "political"
          ]
        },
        {
          "long_name": "岐阜県",
          "short_name": "岐阜県",
          "types": [
            "administrative_area_level_1",
            "political"
          ]
        },
        {
          "long_name": "日本",
          "short_name": "JP",
          "types": [
            "country",
            "political"
          ]
        },
        {
          "long_name": "506-1202",
          "short_name": "506-1202",
          "types": [
            "postal_code"
          ]
        }
      ],
      "formatted_address": "日本、〒506-1202 岐阜県飛騨市神岡町中山２３５",
      "geometry": {
        "location": {
          "lat": 36.4546619,
          "lng": 137.252107
        },
        "location_type": "ROOFTOP",
        "viewport": {
          "northeast": {
            "lat": 36.4560108802915,
            "lng": 137.2534559802915
          },
          "southwest": {
            "lat": 36.4533129197085,
            "lng": 137.2507580197085
          }
        }
      },
      "place_id": "ChIJm_W9_hYd-F8Rvs9xB3k5EVY",
      "plus_code": {
        "compound_code": "F732+VR 日本、岐阜県飛騨市",
        "global_code": "8Q8VF732+VR"
      },
      "types": [
        "street_address"
      ]
    },
    {
      "address_components": [
        {
          "long_name": "２３０",
          "short_name": "２３０",
          "types": [
            "premise"
          ]
        },
        {
          "long_name": "神岡町中山",
          "short_name": "神岡町中山",
          "types": [
            "political",
            "sublocality",
            "sublocality_level_2"
          ]
        },
        {
          "long_name": "飛騨市",
          "short_name": "飛騨市",
          "types": [
            "locality",
            "political"
          ]
        },
        {
          "long_name": "岐阜県",
          "short_name": "岐阜県",
          "types": [
            "administrative_area_level_1",
            "political"
          ]
        },
        {
          "long_name": "日本",
          "short_name": "JP",
          "types": [
            "country",
            "political"
          ]
        },
        {
          "long_name": "506-1202",
          "short_name": "506-1202",
          "types": [
            "postal_code"
          ]
        }
      ],
      "formatted_address": "日本、〒506-1202 岐阜県飛騨市神岡町中山２３０",
      "geometry": {
        "location": {
          "lat": 36.4549355,
          "lng": 137.251918
        },
        "location_type": "ROOFTOP",
        "viewport": {
          "northeast": {
            "lat": 36.45628448029149,
            "lng": 137.2532669802915
          },
          "southwest": {
            "lat": 36.45358651970849,
            "lng": 137.2505690197085
          }
        }
      },
      "place_id": "ChIJ-x1qosgd-F8RRtNJTIWPPog",
      "plus_code": {
        "compound_code": "F732+XQ 日本、岐阜県飛騨市",
        "global_code": "8Q8VF732+XQ"
      },
      "types": [
        "establishment",
        "place_of_worship",
        "point_of_interest"
      ]
    },
    {
      "address_components": [
        {
          "long_name": "国道41号",
          "short_name": "国道41号",
          "types": [
            "route"
          ]
        },
        {
          "long_name": "神岡町中山",
          "short_name": "神岡町中山",
          "types": [
            "political",
            "sublocality",
            "sublocality_level_2"
          ]
        },
        {
          "long_name": "飛騨市",
          "short_name": "飛騨市",
          "types": [
            "locality",
            "political"
          ]
        },
        {
          "long_name": "岐阜県",
          "short_name": "岐阜県",
          "types": [
            "administrative_area_level_1",
            "political"
          ]
        },
        {
          "long_name": "日本",
          "short_name": "JP",
          "types": [
            "country",
            "political"
          ]
        },
        {
          "long_name": "506-1202",
          "short_name": "506-1202",
          "types": [
            "postal_code"
          ]
        }
      ],
      "formatted_address": "日本、〒506-1202 岐阜県飛騨市神岡町中山 国道41号",
      "geometry": {
        "bounds": {
          "northeast": {
            "lat": 36.4549597,
            "lng": 137.2542383
          },
          "southwest": {
            "lat": 36.4533668,
            "lng": 137.2527307
          }
        },
        "location": {
          "lat": 36.4541867,
          "lng": 137.2535203
        },
        "location_type": "GEOMETRIC_CENTER",
        "viewport": {
          "northeast": {
            "lat": 36.4555122302915,
            "lng": 137.2548334802915
          },
          "southwest": {
            "lat": 36.4528142697085,
            "lng": 137.2521355197085
          }
        }
      },
      "place_id": "ChIJLSw7SRYd-F8RVCwL5Jl2QG4",
      "types": [
        "route"
      ]
    },
    {
      "address_components": [
        {
          "long_name": "506-1202",
          "short_name": "506-1202",
          "types": [
            "postal_code"
          ]
        },
        {
          "long_name": "神岡町中山",
          "short_name": "神岡町中山",
          "types": [
            "political",
            "sublocality",
            "sublocality_level_2"
          ]
        },
        {
          "long_name": "飛騨市",
          "short_name": "飛騨市",
          "types": [
            "locality",
            "political"
          ]
        },
        {
          "long_name": "岐阜県",
          "short_name": "岐阜県",
          "types": [
            "administrative_area_level_1",
            "political"
          ]
        },
        {
          "long_name": "日本",
          "short_name": "JP",
          "types": [
            "country",
            "political"
          ]
        }
      ],
      "formatted_address": "日本 〒506-1202",
      "geometry": {
        "bounds": {
          "northeast": {
            "lat": 36.4593853,
            "lng": 137.2716656
          },
          "southwest": {
            "lat": 36.440828,
            "lng": 137.2412328
          }
        },
        "location": {
          "lat": 36.447588,
          "lng": 137.2517869
        },
        "location_type": "APPROXIMATE",
        "viewport": {
          "northeast": {
            "lat": 36.4593853,
            "lng": 137.2716656
          },
          "southwest": {
            "lat": 36.440828,
            "lng": 137.2412328
          }
        }
      },
      "place_id": "ChIJq7FQRREd-F8RerYmVBWYDBo",
      "types": [
        "postal_code"
      ]
    },
    {
      "address_components": [
        {
          "long_name": "神岡町中山",
          "short_name": "神岡町中山",
          "types": [
            "political",
            "sublocality",
            "sublocality_level_2"
          ]
        },
        {
          "long_name": "飛騨市",
          "short_name": "飛騨市",
          "types": [
            "locality",
            "political"
          ]
        },
        {
          "long_name": "岐阜県",
          "short_name": "岐阜県",
          "types": [
            "administrative_area_level_1",
            "political"
          ]
        },
        {
          "long_name": "日本",
          "short_name": "JP",
          "types": [
            "country",
            "political"
          ]
        },
        {
          "long_name": "506-1202",
          "short_name": "506-1202",
          "types": [
            "postal_code"
          ]
        }
      ],
      "formatted_address": "日本、〒506-1202 岐阜県飛騨市神岡町中山",
      "geometry": {
        "bounds": {
          "northeast": {
            "lat": 36.4593853,
            "lng": 137.2716656
          },
          "southwest": {
            "lat": 36.440828,
            "lng": 137.2412328
          }
        },
        "location": {
          "lat": 36.447588,
          "lng": 137.2517869
        },
        "location_type": "APPROXIMATE",
        "viewport": {
          "northeast": {
            "lat": 36.4593853,
            "lng": 137.2716656
          },
          "southwest": {
            "lat": 36.440828,
            "lng": 137.2412328
          }
        }
      },
      "place_id": "ChIJZTpBAiUd-F8RkZZb-SjvvZA",
      "types": [
        "political",
        "sublocality",
        "sublocality_level_2"
      ]
    },
    {
      "address_components": [
        {
          "long_name": "飛騨市",
          "short_name": "飛騨市",
          "types": [
            "locality",
            "political"
          ]
        },
        {
          "long_name": "岐阜県",
          "short_name": "岐阜県",
          "types": [
            "administrative_area_level_1",
            "political"
          ]
        },
        {
          "long_name": "日本",
          "short_name": "JP",
          "types": [
            "country",
            "political"
          ]
        }
      ],
      "formatted_address": "日本、岐阜県飛騨市",
      "geometry": {
        "bounds": {
          "northeast": {
            "lat": 36.465098,
            "lng": 137.5398508
          },
          "southwest": {
            "lat": 36.1830794,
            "lng": 136.9510281
          }
        },
        "location": {
          "lat": 36.2381492,
          "lng": 137.1862369
        },
        "location_type": "APPROXIMATE",
        "viewport": {
          "northeast": {
            "lat": 36.465098,
            "lng": 137.5398508
          },
          "southwest": {
            "lat": 36.1830794,
            "lng": 136.9510281
          }
        }
      },
      "place_id": "ChIJpRQVq2II-F8RM2elUfFrfHY",
      "types": [
        "locality",
        "political"
      ]
    },
    {
      "address_components": [
        {
          "long_name": "岐阜県",
          "short_name": "岐阜県",
          "types": [
            "administrative_area_level_1",
            "political"
          ]
        },
        {
          "long_name": "日本",
          "short_name": "JP",
          "types": [
            "country",
            "political"
          ]
        }
      ],
      "formatted_address": "日本、岐阜県",
      "geometry": {
        "bounds": {
          "northeast": {
            "lat": 36.465098,
            "lng": 137.6532657
          },
          "southwest": {
            "lat": 35.1337282,
            "lng": 136.2762022
          }
        },
        "location": {
          "lat": 35.7437491,
          "lng": 136.9805103
        },
        "location_type": "APPROXIMATE",
        "viewport": {
          "northeast": {
            "lat": 36.465098,
            "lng": 137.6532657
          },
          "southwest": {
            "lat": 35.1337282,
            "lng": 136.2762022
          }
        }
      },
      "place_id": "ChIJi8OICvLxAmARZ9bM7q0UJ68",
      "types": [
        "administrative_area_level_1",
        "political"
      ]
    },
    {
      "address_components": [
        {
          "long_name": "日本",
          "short_name": "JP",
          "types": [
            "country",
            "political"
          ]
        }
      ],
      "formatted_address": "日本",
      "geometry": {
        "bounds": {
          "northeast": {
            "lat": 45.6412626,
            "lng": 154.0031455
          },
          "southwest": {
            "lat": 20.3585295,
            "lng": 122.8554688
          }
        },
        "location": {
          "lat": 36.204824,
          "lng": 138.252924
        },
        "location_type": "APPROXIMATE",
        "viewport": {
          "northeast": {
            "lat": 45.6412626,
            "lng": 154.0031455
          },
          "southwest": {
            "lat": 20.3585295,
            "lng": 122.8554688
          }
        }
      },
      "place_id": "ChIJLxl_1w9OZzQRRFJmfNR1QvU",
      "types": [
        "country",
        "political"
      ]
    },
    {
      "address_components": [
        {
          "long_name": "F733+J8",
          "short_name": "F733+J8",
          "types": [
            "plus_code"
          ]
        },
        {
          "long_name": "飛騨市",
          "short_name": "飛騨市",
          "types": [
            "locality",
            "political"
          ]
        },
        {
          "long_name": "岐阜県",
          "short_name": "岐阜県",
          "types": [
            "administrative_area_level_1",
            "political"
          ]
        },
        {
          "long_name": "日本",
          "short_name": "JP",
          "types": [
            "country",
            "political"
          ]
        }
      ],
      "formatted_address": "F733+J8 日本、岐阜県飛騨市",
      "geometry": {
        "bounds": {
          "northeast": {
            "lat": 36.454125,
            "lng": 137.253375
          },
          "southwest": {
            "lat": 36.454,
            "lng": 137.25325
          }
        },
        "location": {
          "lat": 36.454047,
          "lng": 137.253314
        },
        "location_type": "ROOFTOP",
        "viewport": {
          "northeast": {
            "lat": 36.4554114802915,
            "lng": 137.2546614802915
          },
          "southwest": {
            "lat": 36.4527135197085,
            "lng": 137.2519635197085
          }
        }
      },
      "place_id": "GhIJZ-xLNh46QkARzjP2JRsoYUA",
      "plus_code": {
        "compound_code": "F733+J8 日本、岐阜県飛騨市",
        "global_code": "8Q8VF733+J8"
      },
      "types": [
        "plus_code"
      ]
    }
  ]
}