{
  "station": "白山下",
  "lat": 36.309139,
  "lng": 136.641861,
  "plus_code": {
    "compound_code": "8J5R+MP 日本、石川県白山市",
    "global_code": "8Q8R8J5R+MP"
  },
  "results": [
    {
      "address_components": [
        {
          "long_name": "河原山町",
          "short_name": "河原山町",
          "types": [
            "political",
            "sublocality",
            "sublocality_level_2"
          ]
        },
        {
          "long_name": "ニ",
          "short_name": "ニ",
          "types": [
            "political",
            "sublocality",
            "sublocality_level_3"
          ]
        },
        {
          "long_name": "白山市",
          "short_name": "白山市",
          "types": [
            "locality",
            "political"
          ]
        },
        {
          "long_name": "石川県",
          "short_name": "石川県",
          "types": [
            "administrative_area_level_1",
            "political"
          ]
        },
        {
          "long_name": "日本",
          "short_name": "JP",
          "types": [
            "country",
            "political"
          ]
        },
        {
          "long_name": "920-2346",
          "short_name": "920-2346",
          "types": [
            "postal_code"
          ]
        }
      ],
      "formatted_address": "日本、〒920-2346 石川県白山市河原山町ニ ニ−２０−３",
      "geometry": {
        "location": {
          "lat": 36.309144,
          "lng": 136.6418644
        },
        "location_type": "GEOMETRIC_CENTER",
        "viewport": {
          "northeast": {
            "lat": 36.3104929802915,
            "lng": 136.6432133802915
          },
          "southwest": {
            "lat": 36.3077950197085,
            "lng": 136.6405154197085
          }
        }
      },
      "place_id": "ChIJ__9LxX5d-F8RoJJCDw3aFvI",
      "plus_code": {
        "compound_code": "8J5R+MP 日本、石川県白山市",
        "global_code": "8Q8R8J5R+MP"
      },
      "types": [
        "establishment",
        "point_of_interest"
      ]
    },
    {
      "address_components": [
        {
          "long_name": "２１−１",
          "short_name": "２１−１",
          "types": [
            "premise"
          ]
        },
        {
          "long_name": "ニ",
          "short_name": "ニ",
          "types": [
            "political",
            "sublocality",
            "sublocality_level_3"
          ]
        },
        {
          "long_name": "河原山町",
          "short_name": "河原山町",
          "types": [
            "political",
            "sublocality",
            "sublocality_level_2"
          ]
        },
        {
          "long_name": "白山市",
          "short_name": "白山市",
          "types": [
            "locality",
            "political"
          ]
        },
        {
          "long_name": "石川県",
          "short_name": "石川県",
          "types": [
            "administrative_area_level_1",
            "political"
          ]
        },
        {
          "long_name": "日本",
          "short_name": "JP",
          "types": [
            "country",
            "political"
          ]
        },
        {
          "long_name": "920-2346",
          "short_name": "920-2346",
          "types": [
            "postal_code"
          ]
        }
      ],
      "formatted_address": "日本、〒920-2346 石川県白山市河原山町ニ−２１−１",
      "geometry": {
        "location": {
          "lat": 36.3094137,
          "lng": 136.6417236
        },
        "location_type": "ROOFTOP",
        "viewport": {
          "northeast": {
            "lat": 36.3107626802915,
            "lng": 136.6430725802915
          },
          "southwest": {
            "lat": 36.3080647197085,
            "lng": 136.6403746197085
          }
        }
      },
      "place_id": "ChIJLwEgzH5d-F8RKSk9OxuCC-M",
      "plus_code": {
        "compound_code": "8J5R+QM 日本、石川県白山市",
        "global_code": "8Q8R8J5R+QM"
      },
      "types": [
        "street_address"
      ]
    },
    {
      "address_components": [
        {
          "long_name": "白山下",
          "short_name": "白山下",
          "types": [
            "bus_station",
            "establishment",
            "point_of_interest",
            "transit_station"
          ]
        },
        {
          "long_name": "ニ",
          "short_name": "ニ",
          "types": [
            "political",
            "sublocality",
            "sublocality_level_3"
          ]
        },
        {
          "long_name": "河原山町",
          "short_name": "河原山町",
          "types": [
            "political",
            "sublocality",
            "sublocality_level_2"
          ]
        },
        {
          "long_name": "白山市",
          "short_name": "白山市",
          "types": [
            "locality",
            "political"
          ]
        },
        {
          "long_name": "石川県",
          "short_name": "石川県",
          "types": [
            "administrative_area_level_1",
            "political"
          ]
        },
        {
          "long_name": "日本",
          "short_name": "JP",
          "types": [
            "country",
            "political"
          ]
        },
        {
          "long_name": "920-2346",
          "short_name": "920-2346",
          "types": [
            "postal_code"
          ]
        }
      ],
      "formatted_address": "日本、〒920-2346 石川県白山市河原山町ニ 白山下",
      "geometry": {
        "location": {
          "lat": 36.30939,
          "lng": 136.64081
        },
        "location_type": "GEOMETRIC_CENTER",
        "viewport": {
          "northeast": {
            "lat": 36.3107389802915,
            "lng": 136.6421589802915
          },
          "southwest": {
            "lat": 36.3080410197085,
            "lng": 136.6394610197085
          }
        }
      },
      "place_id": "ChIJJ7yELHld-F8RxMDFgzEbX-U",
      "plus_code": {
        "compound_code": "8J5R+Q8 日本、石川県白山市",
        "global_code": "8Q8R8J5R+Q8"
      },
      "types": [
        "bus_station",
        "establishment",
        "point_of_interest",
        "transit_station"
      ]
    },
    {
      "address_components": [
        {
          "long_name": "木滑釜清水線",
          "short_name": "県道178号",
          "types": [
            "route"
          ]
        },
        {
          "long_name": "ニ",
          "short_name": "ニ",
          "types": [
            "political",
            "sublocality",
            "sublocality_level_3"
          ]
        },
        {
          "long_name": "河原山町",
          "short_name": "河原山町",
          "types": [
            "political",
            "sublocality",
            "sublocality_level_2"
          ]
        },
        {
          "long_name": "白山市",
          "short_name": "白山市",
          "types": [
            "locality",
            "political"
          ]
        },
        {
          "long_name": "石川県",
          "short_name": "石川県",
          "types": [
            "administrative_area_level_1",
            "political"
          ]
        },
        {
          "long_name": "日本",
          "short_name": "JP",
          "types": [
            "country",
            "political"
          ]
        },
        {
          "long_name": "920-2346",
          "short_name": "920-2346",
          "types": [
            "postal_code"
          ]
        }
      ],
      "formatted_address": "日本、〒920-2346 石川県白山市河原山町ニ 県道178号",
      "geometry": {
        "bounds": {
          "northeast": {
            "lat": 36.3087066,
            "lng": 136.6413116
          },
          "southwest": {
            "lat": 36.3086385,
            "lng": 136.641228
          }
        },
        "location": {
          "lat": 36.3086726,
          "lng": 136.6412698
        },
        "location_type": "GEOMETRIC_CENTER",
        "viewport": {
          "northeast": {
            "lat": 36.3100215302915,
            "lng": 136.6426187802915
          },
          "southwest": {
            "lat": 36.30732356970851,
            "lng": 136.6399208197085
          }
        }
      },
      "place_id": "ChIJDY3pJn9d-F8R9hRvu5oYFzU",
      "types": [
        "route"
      ]
    },
    {
      "address_components": [
        {
          "long_name": "ニ",
          "short_name": "ニ",
          "types": [
            "political",
            "sublocality",
            "sublocality_level_3"
          ]
        },
        {
          "long_name": "河原山町",
          "short_name": "河原山町",
          "types": [
            "political",
            "sublocality",
            "sublocality_level_2"
          ]
        },
        {
          "long_name": "白山市",
          "short_name": "白山市",
          "types": [
            "locality",
            "political"
          ]
        },
        {
          "long_name": "石川県",
          "short_name": "石川県",
          "types": [
            "administrative_area_level_1",
            "political"
          ]
        },
        {
          "long_name": "日本",
          "short_name": "JP",
          "types": [
            "country",
            "political"
          ]
        },
        {
          "long_name": "920-2346",
          "short_name": "920-2346",
          "types": [
            "postal_code"
          ]
        }
      ],
      "formatted_address": "日本、〒920-2346 石川県白山市河原山町ニ",
      "geometry": {
        "bounds": {
          "northeast": {
            "lat": 36.3099316,
            "lng": 136.6428805
          },
          "southwest": {
            "lat": 36.3053032,
            "lng": 136.6382288
          }
        },
        "location": {
          "lat": 36.3074768,
          "lng": 136.640533
        },
        "location_type": "APPROXIMATE",
        "viewport": {
          "northeast": {
            "lat": 36.3099316,
            "lng": 136.6428805
          },
          "southwest": {
            "lat": 36.3053032,
            "lng": 136.6382288
          }
        }
      },
      "place_id": "ChIJkeJUbn9d-F8RdxEAY05CaVQ",
      "types": [
        "political",
        "sublocality",
        "sublocality_level_3"
      ]
    },
    {
      "address_components": [
        {
          "long_name": "920-2346",
          "short_name": "920-2346",
          "types": [
            "postal_code"
          ]
        },
        {
          "long_name": "河原山町",
          "short_name": "河原山町",
          "types": [
            "political",
            "sublocality",
            "sublocality_level_2"
          ]
        },
        {
          "long_name": "白山市",
          "short_name": "白山市",
          "types": [
            "locality",
            "political"
          ]
        },
        {
          "long_name": "石川県",
          "short_name": "石川県",
          "types": [
            "administrative_area_level_1",
            "political"
          ]
        },
        {
          "long_name": "日本",
          "short_name": "JP",
          "types": [
            "country",
            "political"
          ]
        }
      ],
      "formatted_address": "日本 〒920-2346",
      "geometry": {
        "bounds": {
          "northeast": {
            "lat": 36.317198,
            "lng": 136.6478488
          },
          "southwest": {
            "lat": 36.2912918,
            "lng": 136.6242818
          }
        },
        "location": {
          "lat": 36.3036239,
          "lng": 136.6332255
        },
        "location_type": "APPROXIMATE",
        "viewport": {
          "northeast": {
            "lat": 36.317198,
            "lng": 136.6478488
          },
          "southwest": {
            "lat": 36.2912918,
            "lng": 136.6242818
          }
        }
      },
      "place_id": "ChIJQ_kCSXld-F8Rr-5sdenTuVo",
      "types": [
        "postal_code"
      ]
    },
    {
      "address_components": [
        {
          "long_name": "河原山町",
          "short_name": "河原山町",
          "types": [
            "political",
            "sublocality",
            "sublocality_level_2"
          ]
        },
        {
          "long_name": "白山市",
          "short_name": "白山市",
          "types": [
            "locality",
            "political"
          ]
        },
        {
          "long_name": "石川県",
          "short_name": "石川県",
          "types": [
            "administrative_area_level_1",
            "political"
          ]
        },
        {
          "long_name": "日本",
          "short_name": "JP",
          "types": [
            "country",
            "political"
          ]
        },
        {
          "long_name": "920-2346",
          "short_name": "920-2346",
          "types": [
            "postal_code"
          ]
        }
      ],
      "formatted_address": "日本、〒920-2346 石川県白山市河原山町",
      "geometry": {
        "bounds": {
          "northeast": {
            "lat": 36.317198,
            "lng": 136.6478488
          },
          "southwest": {
            "lat": 36.2912918,
            "lng": 136.6242818
          }
        },
        "location": {
          "lat": 36.3036239,
          "lng": 136.6332255
        },
        "location_type": "APPROXIMATE",
        "viewport": {
          "northeast": {
            "lat": 36.317198,
            "lng": 136.6478488
          },
          "southwest": {
            "lat": 36.2912918,
            "lng": 136.6242818
          }
        }
      },
      "place_id": "ChIJtzK7gYFd-F8RnO5Me1p4vX0",
      "types": [
        "political",
        "sublocality",
        "sublocality_level_2"
      ]
    },
    {
      "address_components": [
        {
          "long_name": "白山市",
          "short_name": "白山市",
          "types": [
            "locality",
            "political"
          ]
        },
        {
          "long_name": "石川県",
          "short_name": "石川県",
          "types": [
            "administrative_area_level_1",
            "political"
          ]
        },
        {
          "long_name": "日本",
          "short_name": "JP",
          "types": [
            "country",
            "political"
          ]
        }
      ],
      "formatted_address": "日本、石川県白山市",
      "geometry": {
        "bounds": {
          "northeast": {
            "lat": 36.5678655,
            "lng": 136.8515657
          },
          "southwest": {
            "lat": 36.0674589,
            "lng": 136.4650784
          }
        },
        "location": {
          "lat": 36.5144209,
          "lng": 136.5655581
        },
        "location_type": "APPROXIMATE",
        "viewport": {
          "northeast": {
            "lat": 36.5678655,
            "lng": 136.8515657
          },
          "southwest": {
            "lat": 36.0674589,
            "lng": 136.4650784
          }
        }
      },
      "place_id": "ChIJyTG34F1d-F8RhjvmgNa0N1Y",
      "types": [
        "locality",
        "political"
      ]
    },
    {
      "address_components": [
        {
          "long_name": "石川県",
          "short_name": "石川県",
          "types": [
            "administrative_area_level_1",
            "political"
          ]
        },
        {
          "long_name": "日本",
          "short_name": "JP",
          "types": [
            "country",
            "political"
          ]
        }
      ],
      "formatted_address": "日本、石川県",
      "geometry": {
        "bounds": {
          "northeast": {
            "lat": 37.8579593,
            "lng": 137.3652437
          },
          "southwest": {
            "lat": 36.0674589,
            "lng": 136.2436536
          }
        },
        "location": {
          "lat": 36.3260317,
          "lng": 136.5289653
        },
        "location_type": "APPROXIMATE",
        "viewport": {
          "northeast": {
            "lat": 37.8579593,
            "lng": 137.3652437
          },
          "southwest": {
            "lat": 36.0674589,
            "lng": 136.2436536
          }
        }
      },
      "place_id": "ChIJ7xq8wV5-8V8RtJoYjRM81Es",
      "types": [
        "administrative_area_level_1",
        "political"
      ]
    },
    {
      "address_components": [
        {
          "long_name": "日本",
          "short_name": "JP",
          "types": [
            "country",
            "political"
          ]
        }
      ],
      "formatted_address": "日本",
      "geometry": {
        "bounds": {
          "northeast": {
            "lat": 45.6412626,
            "lng": 154.0031455
          },
          "southwest": {
            "lat": 20.3585295,
            "lng": 122.8554688
          }
        },
        "location": {
          "lat": 36.204824,
          "lng": 138.252924
        },
        "location_type": "APPROXIMATE",
        "viewport": {
          "northeast": {
            "lat": 45.6412626,
            "lng": 154.0031455
          },
          "southwest": {
            "lat": 20.3585295,
            "lng": 122.8554688
          }
        }
      },
      "place_id": "ChIJLxl_1w9OZzQRRFJmfNR1QvU",
      "types": [
        "country",
        "political"
      ]
    },
    {
      "address_components": [
        {
          "long_name": "8J5R+MP",
          "short_name": "8J5R+MP",
          "types": [
            "plus_code"
          ]
        },
        {
          "long_name": "白山市",
          "short_name": "白山市",
          "types": [
            "locality",
            "political"
          ]
        },
        {
          "long_name": "石川県",
          "short_name": "石川県",
          "types": [
            "administrative_area_level_1",
            "political"
          ]
        },
        {
          "long_name": "日本",
          "short_name": "JP",
          "types": [
            "country",
            "political"
          ]
        }
      ],
      "formatted_address": "8J5R+MP 日本、石川県白山市",
      "geometry": {
        "bounds": {
          "northeast": {
            "lat": 36.30925,
            "lng": 136.641875
          },
          "southwest": {
            "lat": 36.309125,
            "lng": 136.64175
          }
        },
        "location": {
          "lat": 36.309139,
          "lng": 136.641861
        },
        "location_type": "ROOFTOP",
        "viewport": {
          "northeast": {
            "lat": 36.3105364802915,
            "lng": 136.6431614802915
          },
          "southwest": {
            "lat": 36.3078385197085,
            "lng": 136.6404635197085
          }
        }
      },
      "place_id": "GhIJhnXj3ZEnQkARfnIUIIoUYUA",
      "plus_code": {
        "compound_code": "8J5R+MP 日本、石川県白山市",
        "global_code": "8Q8R8J5R+MP"
      },
      "types": [
        "plus_code"
      ]
    }
  ]
}