{
  "station": "市野々",
  "lat": 36.067778,
  "lng": 136.334028,
  "plus_code": {
    "compound_code": "389M+4J 日本、福井県永平寺町",
    "global_code": "8Q8R389M+4J"
  },
  "results": [
    {
      "address_components": [
        {
          "long_name": "６−７",
          "short_name": "６−７",
          "types": [
            "premise"
          ]
        },
        {
          "long_name": "荒谷",
          "short_name": "荒谷",
          "types": [
            "political",
            "sublocality",
            "sublocality_level_2"
          ]
        },
        {
          "long_name": "永平寺町",
          "short_name": "永平寺町",
          "types": [
            "locality",
            "political"
          ]
        },
        {
          "long_name": "吉田郡",
          "short_name": "吉田郡",
          "types": [
            "administrative_area_level_2",
            "political"
          ]
        },
        {
          "long_name": "福井県",
          "short_name": "福井県",
          "types": [
            "administrative_area_level_1",
            "political"
          ]
        },
        {
          "long_name": "日本",
          "short_name": "JP",
          "types": [
            "country",
            "political"
          ]
        },
        {
          "long_name": "910-1227",
          "short_name": "910-1227",
          "types": [
            "postal_code"
          ]
        }
      ],
      "formatted_address": "日本、〒910-1227 福井県吉田郡永平寺町荒谷６−７",
      "geometry": {
        "location": {
          "lat": 36.0679025,
          "lng": 136.3337877
        },
        "location_type": "ROOFTOP",
        "viewport": {
          "northeast": {
            "lat": 36.0692514802915,
            "lng": 136.3351366802915
          },
          "southwest": {
            "lat": 36.0665535197085,
            "lng": 136.3324387197085
          }
        }
      },
      "place_id": "ChIJO03uBTqW-F8RV90WinBPUTI",
      "plus_code": {
        "compound_code": "389M+5G 日本、福井県永平寺町",
        "global_code": "8Q8R389M+5G"
      },
      "types": [
        "street_address"
      ]
    },
    {
      "address_components": [
        {
          "long_name": "４３",
          "short_name": "４３",
          "types": [
            "premise"
          ]
        },
        {
          "long_name": "市野々",
          "short_name": "市野々",
          "types": [
            "political",
            "sublocality",
            "sublocality_level_2"
          ]
        },
        {
          "long_name": "永平寺町",
          "short_name": "永平寺町",
          "types": [
            "locality",
            "political"
          ]
        },
        {
          "long_name": "吉田郡",
          "short_name": "吉田郡",
          "types": [
            "administrative_area_level_2",
            "political"
          ]
        },
        {
          "long_name": "福井県",
          "short_name": "福井県",
          "types": [
            "administrative_area_level_1",
            "political"
          ]
        },
        {
          "long_name": "日本",
          "short_name": "JP",
          "types": [
            "country",
            "political"
          ]
        },
        {
          "long_name": "910-1226",
          "short_name": "910-1226",
          "types": [
            "postal_code"
          ]
        }
      ],
      "formatted_address": "日本、〒910-1226 福井県吉田郡永平寺町市野々４３",
      "geometry": {
        "location": {
          "lat": 36.0688934,
          "lng": 136.3347411
        },
        "location_type": "ROOFTOP",
        "viewport": {
          "northeast": {
            "lat": 36.0702423802915,
            "lng": 136.3360900802915
          },
          "southwest": {
            "lat": 36.0675444197085,
            "lng": 136.3333921197085
          }
        }
      },
      "place_id": "ChIJxbv86zmW-F8RKaZDSH44byQ",
      "plus_code": {
        "compound_code": "389M+HV 日本、福井県永平寺町",
        "global_code": "8Q8R389M+HV"
      },
      "types": [
        "establishment",
        "place_of_worship",
        "point_of_interest"
      ]
    },
    {
      "address_components": [
        {
          "long_name": "市野々",
          "short_name": "市野々",
          "types": [
            "bus_station",
            "establishment",
            "point_of_interest",
            "transit_station"
          ]
        },
        {
          "long_name": "市野々",
          "short_name": "市野々",
          "types": [
            "political",
            "sublocality",
            "sublocality_level_2"
          ]
        },
        {
          "long_name": "永平寺町",
          "short_name": "永平寺町",
          "types": [
            "locality",
            "political"
          ]
        },
        {
          "long_name": "吉田郡",
          "short_name": "吉田郡",
          "types": [
            "administrative_area_level_2",
            "political"
          ]
        },
        {
          "long_name": "福井県",
          "short_name": "福井県",
          "types": [
            "administrative_area_level_1",
            "political"
          ]
        },
        {
          "long_name": "日本",
          "short_name": "JP",
          "types": [
            "country",
            "political"
          ]
        },
        {
          "long_name": "910-1226",
          "short_name": "910-1226",
          "types": [
            "postal_code"
          ]
        }
      ],
      "formatted_address": "日本、〒910-1226 福井県吉田郡永平寺町市野々 市野々",
      "geometry": {
        "location": {
          "lat": 36.066448,
          "lng": 136.333557
        },
        "location_type": "GEOMETRIC_CENTER",
        "viewport": {
          "northeast": {
            "lat": 36.0677969802915,
            "lng": 136.3349059802915
          },
          "southwest": {
            "lat": 36.06509901970851,
            "lng": 136.3322080197085
          }
        }
      },
      "place_id": "ChIJD-AgizCW-F8R2V24n9viLIc",
      "plus_code": {
        "compound_code": "388M+HC 日本、福井県永平寺町",
        "global_code": "8Q8R388M+HC"
      },
      "types": [
        "bus_station",
        "establishment",
        "point_of_interest",
        "transit_station"
      ]
    },
    {
      "address_components": [
        {
          "long_name": "国道364号",
          "short_name": "国道364号",
          "types": [
            "route"
          ]
        },
        {
          "long_name": "市野々",
          "short_name": "市野々",
          "types": [
            "political",
            "sublocality",
            "sublocality_level_2"
          ]
        },
        {
          "long_name": "永平寺町",
          "short_name": "永平寺町",
          "types": [
            "locality",
            "political"
          ]
        },
        {
          "long_name": "吉田郡",
          "short_name": "吉田郡",
          "types": [
            "administrative_area_level_2",
            "political"
          ]
        },
        {
          "long_name": "福井県",
          "short_name": "福井県",
          "types": [
            "administrative_area_level_1",
            "political"
          ]
        },
        {
          "long_name": "日本",
          "short_name": "JP",
          "types": [
            "country",
            "political"
          ]
        },
        {
          "long_name": "910-1226",
          "short_name": "910-1226",
          "types": [
            "postal_code"
          ]
        }
      ],
      "formatted_address": "日本、〒910-1226 福井県吉田郡永平寺町市野々 国道364号",
      "geometry": {
        "bounds": {
          "northeast": {
            "lat": 36.0665377,
            "lng": 136.3334012
          },
          "southwest": {
            "lat": 36.0664905,
            "lng": 136.3333036
          }
        },
        "location": {
          "lat": 36.0665141,
          "lng": 136.3333524
        },
        "location_type": "GEOMETRIC_CENTER",
        "viewport": {
          "northeast": {
            "lat": 36.0678630802915,
            "lng": 136.3347013802915
          },
          "southwest": {
            "lat": 36.0651651197085,
            "lng": 136.3320034197085
          }
        }
      },
      "place_id": "ChIJ27o3ijCW-F8R7rHL3aZe1MY",
      "types": [
        "route"
      ]
    },
    {
      "address_components": [
        {
          "long_name": "910-1227",
          "short_name": "910-1227",
          "types": [
            "postal_code"
          ]
        },
        {
          "long_name": "荒谷",
          "short_name": "荒谷",
          "types": [
            "political",
            "sublocality",
            "sublocality_level_2"
          ]
        },
        {
          "long_name": "永平寺町",
          "short_name": "永平寺町",
          "types": [
            "locality",
            "political"
          ]
        },
        {
          "long_name": "吉田郡",
          "short_name": "吉田郡",
          "types": [
            "administrative_area_level_2",
            "political"
          ]
        },
        {
          "long_name": "福井県",
          "short_name": "福井県",
          "types": [
            "administrative_area_level_1",
            "political"
          ]
        },
        {
          "long_name": "日本",
          "short_name": "JP",
          "types": [
            "country",
            "political"
          ]
        }
      ],
      "formatted_address": "日本 〒910-1227",
      "geometry": {
        "bounds": {
          "northeast": {
            "lat": 36.076864,
            "lng": 136.3536246
          },
          "southwest": {
            "lat": 36.0525466,
            "lng": 136.3332794
          }
        },
        "location": {
          "lat": 36.0679503,
          "lng": 136.3394427
        },
        "location_type": "APPROXIMATE",
        "viewport": {
          "northeast": {
            "lat": 36.076864,
            "lng": 136.3536246
          },
          "southwest": {
            "lat": 36.0525466,
            "lng": 136.3332794
          }
        }
      },
      "place_id": "ChIJUwGw8TOW-F8RedSOBioWoSw",
      "types": [
        "postal_code"
      ]
    },
    {
      "address_components": [
        {
          "long_name": "荒谷",
          "short_name": "荒谷",
          "types": [
            "political",
            "sublocality",
            "sublocality_level_2"
          ]
        },
        {
          "long_name": "永平寺町",
          "short_name": "永平寺町",
          "types": [
            "locality",
            "political"
          ]
        },
        {
          "long_name": "吉田郡",
          "short_name": "吉田郡",
          "types": [
            "administrative_area_level_2",
            "political"
          ]
        },
        {
          "long_name": "福井県",
          "short_name": "福井県",
          "types": [
            "administrative_area_level_1",
            "political"
          ]
        },
        {
          "long_name": "日本",
          "short_name": "JP",
          "types": [
            "country",
            "political"
          ]
        },
        {
          "long_name": "910-1227",
          "short_name": "910-1227",
          "types": [
            "postal_code"
          ]
        }
      ],
      "formatted_address": "日本、〒910-1227 福井県吉田郡永平寺町荒谷",
      "geometry": {
        "bounds": {
          "northeast": {
            "lat": 36.076864,
            "lng": 136.3536246
          },
          "southwest": {
            "lat": 36.0525466,
            "lng": 136.3332794
          }
        },
        "location": {
          "lat": 36.0679503,
          "lng": 136.3394427
        },
        "location_type": "APPROXIMATE",
        "viewport": {
          "northeast": {
            "lat": 36.076864,
            "lng": 136.3536246
          },
          "southwest": {
            "lat": 36.0525466,
            "lng": 136.3332794
          }
        }
      },
      "place_id": "ChIJy0OxnTaW-F8Rkjeskj_ipYk",
      "types": [
        "political",
        "sublocality",
        "sublocality_level_2"
      ]
    },
    {
      "address_components": [
        {
          "long_name": "永平寺町",
          "short_name": "永平寺町",
          "types": [
            "locality",
            "political"
          ]
        },
        {
          "long_name": "吉田郡",
          "short_name": "吉田郡",
          "types": [
            "administrative_area_level_2",
            "political"
          ]
        },
        {
          "long_name": "福井県",
          "short_name": "福井県",
          "types": [
            "administrative_area_level_1",
            "political"
          ]
        },
        {
          "long_name": "日本",
          "short_name": "JP",
          "types": [
            "country",
            "political"
          ]
        }
      ],
      "formatted_address": "日本、福井県吉田郡永平寺町",
      "geometry": {
        "bounds": {
          "northeast": {
            "lat": 36.1300838,
            "lng": 136.4393508
          },
          "southwest": {
            "lat": 36.0335563,
            "lng": 136.2699947
          }
        },
        "location": {
          "lat": 36.0923343,
          "lng": 136.2990788
        },
        "location_type": "APPROXIMATE",
        "viewport": {
          "northeast": {
            "lat": 36.1300838,
            "lng": 136.4393508
          },
          "southwest": {
            "lat": 36.0335563,
            "lng": 136.2699947
          }
        }
      },
      "place_id": "ChIJ7Zpo4vWW-F8R0ijWxR-jYNc",
      "types": [
        "locality",
        "political"
      ]
    },
    {
      "address_components": [
        {
          "long_name": "吉田郡",
          "short_name": "吉田郡",
          "types": [
            "administrative_area_level_2",
            "political"
          ]
        },
        {
          "long_name": "永平寺町",
          "short_name": "永平寺町",
          "types": [
            "locality",
            "political"
          ]
        },
        {
          "long_name": "福井県",
          "short_name": "福井県",
          "types": [
            "administrative_area_level_1",
            "political"
          ]
        },
        {
          "long_name": "日本",
          "short_name": "JP",
          "types": [
            "country",
            "political"
          ]
        }
      ],
      "formatted_address": "日本、福井県吉田郡永平寺町",
      "geometry": {
        "bounds": {
          "northeast": {
            "lat": 36.1300838,
            "lng": 136.4393508
          },
          "southwest": {
            "lat": 36.0335563,
            "lng": 136.2699947
          }
        },
        "location": {
          "lat": 36.0748758,
          "lng": 136.330156
        },
        "location_type": "APPROXIMATE",
        "viewport": {
          "northeast": {
            "lat": 36.1300838,
            "lng": 136.4393508
          },
          "southwest": {
            "lat": 36.0335563,
            "lng": 136.2699947
          }
        }
      },
      "place_id": "ChIJ7Zpo4vWW-F8RWbkUY63GSeg",
      "types": [
        "administrative_area_level_2",
        "political"
      ]
    },
    {
      "address_components": [
        {
          "long_name": "福井県",
          "short_name": "福井県",
          "types": [
            "administrative_area_level_1",
            "political"
          ]
        },
        {
          "long_name": "日本",
          "short_name": "JP",
          "types": [
            "country",
            "political"
          ]
        }
      ],
      "formatted_address": "日本、福井県",
      "geometry": {
        "bounds": {
          "northeast": {
            "lat": 36.2956473,
            "lng": 136.8323338
          },
          "southwest": {
            "lat": 35.3436705,
            "lng": 135.4493414
          }
        },
        "location": {
          "lat": 35.896227,
          "lng": 136.2111579
        },
        "location_type": "APPROXIMATE",
        "viewport": {
          "northeast": {
            "lat": 36.2956473,
            "lng": 136.8323338
          },
          "southwest": {
            "lat": 35.3436705,
            "lng": 135.4493414
          }
        }
      },
      "place_id": "ChIJEb6scKhV_18RYA7nHjFfIQo",
      "types": [
        "administrative_area_level_1",
        "political"
      ]
    },
    {
      "address_components": [
        {
          "long_name": "日本",
          "short_name": "JP",
          "types": [
            "country",
            "political"
          ]
        }
      ],
      "formatted_address": "日本",
      "geometry": {
        "bounds": {
          "northeast": {
            "lat": 45.6412626,
            "lng": 154.0031455
          },
          "southwest": {
            "lat": 20.3585295,
            "lng": 122.8554688
          }
        },
        "location": {
          "lat": 36.204824,
          "lng": 138.252924
        },
        "location_type": "APPROXIMATE",
        "viewport": {
          "northeast": {
            "lat": 45.6412626,
            "lng": 154.0031455
          },
          "southwest": {
            "lat": 20.3585295,
            "lng": 122.8554688
          }
        }
      },
      "place_id": "ChIJLxl_1w9OZzQRRFJmfNR1QvU",
      "types": [
        "country",
        "political"
      ]
    },
    {
      "address_components": [
        {
          "long_name": "389M+4J",
          "short_name": "389M+4J",
          "types": [
            "plus_code"
          ]
        },
        {
          "long_name": "永平寺町",
          "short_name": "永平寺町",
          "types": [
            "locality",
            "political"
          ]
        },
        {
          "long_name": "吉田郡",
          "short_name": "吉田郡",
          "types": [
            "administrative_area_level_2",
            "political"
          ]
        },
        {
          "long_name": "福井県",
          "short_name": "福井県",
          "types": [
            "administrative_area_level_1",
            "political"
          ]
        },
        {
          "long_name": "日本",
          "short_name": "JP",
          "types": [
            "country",
            "political"
          ]
        }
      ],
      "formatted_address": "389M+4J 日本、福井県永平寺町",
      "geometry": {
        "bounds": {
          "northeast": {
            "lat": 36.067875,
            "lng": 136.334125
          },
          "southwest": {
            "lat": 36.06775,
            "lng": 136.334
          }
        },
        "location": {
          "lat": 36.067778,
          "lng": 136.334028
        },
        "location_type": "ROOFTOP",
        "viewport": {
          "northeast": {
            "lat": 36.0691614802915,
            "lng": 136.3354114802915
          },
          "southwest": {
            "lat": 36.0664635197085,
            "lng": 136.3327135197085
          }
        }
      },
      "place_id": "GhIJtLES86wIQkARWP58W7AKYUA",
      "plus_code": {
        "compound_code": "389M+4J 日本、福井県永平寺町",
        "global_code": "8Q8R389M+4J"
      },
      "types": [
        "plus_code"
      ]
    }
  ]
}