{
  "station": "神川",
  "lat": 36.376944,
  "lng": 138.27625,
  "plus_code": {
    "compound_code": "97GG+QG 日本、長野県上田市",
    "global_code": "8Q8W97GG+QG"
  },
  "results": [
    {
      "address_components": [
        {
          "long_name": "１２９９",
          "short_name": "１２９９",
          "types": [
            "premise"
          ]
        },
        {
          "long_name": "国分",
          "short_name": "国分",
          "types": [
            "political",
            "sublocality",
            "sublocality_level_2"
          ]
        },
        {
          "long_name": "上田市",
          "short_name": "上田市",
          "types": [
            "locality",
            "political"
          ]
        },
        {
          "long_name": "長野県",
          "short_name": "長野県",
          "types": [
            "administrative_area_level_1",
            "political"
          ]
        },
        {
          "long_name": "日本",
          "short_name": "JP",
          "types": [
            "country",
            "political"
          ]
        },
        {
          "long_name": "386-0016",
          "short_name": "386-0016",
          "types": [
            "postal_code"
          ]
        }
      ],
      "formatted_address": "日本、〒386-0016 長野県上田市国分１２９９",
      "geometry": {
        "location": {
          "lat": 36.3769561,
          "lng": 138.2762232
        },
        "location_type": "ROOFTOP",
        "viewport": {
          "northeast": {
            "lat": 36.3783050802915,
            "lng": 138.2775721802915
          },
          "southwest": {
            "lat": 36.3756071197085,
            "lng": 138.2748742197085
          }
        }
      },
      "place_id": "ChIJ0fmf4ny7HWARr0qqBb_BtL4",
      "plus_code": {
        "compound_code": "97GG+QF 日本、長野県上田市",
        "global_code": "8Q8W97GG+QF"
      },
      "types": [
        "establishment",
        "point_of_interest"
      ]
    },
    {
      "address_components": [
        {
          "long_name": "１２９９",
          "short_name": "１２９９",
          "types": [
            "premise"
          ]
        },
        {
          "long_name": "国分",
          "short_name": "国分",
          "types": [
            "political",
            "sublocality",
            "sublocality_level_2"
          ]
        },
        {
          "long_name": "上田市",
          "short_name": "上田市",
          "types": [
            "locality",
            "political"
          ]
        },
        {
          "long_name": "長野県",
          "short_name": "長野県",
          "types": [
            "administrative_area_level_1",
            "political"
          ]
        },
        {
          "long_name": "日本",
          "short_name": "JP",
          "types": [
            "country",
            "political"
          ]
        },
        {
          "long_name": "386-0016",
          "short_name": "386-0016",
          "types": [
            "postal_code"
          ]
        }
      ],
      "formatted_address": "日本、〒386-0016 長野県上田市国分１２９９",
      "geometry": {
        "location": {
          "lat": 36.376824,
          "lng": 138.2762527
        },
        "location_type": "ROOFTOP",
        "viewport": {
          "northeast": {
            "lat": 36.3781729802915,
            "lng": 138.2776016802915
          },
          "southwest": {
            "lat": 36.3754750197085,
            "lng": 138.2749037197085
          }
        }
      },
      "place_id": "ChIJEUe1N367HWARev9GKBKxAIM",
      "plus_code": {
        "compound_code": "97GG+PG 日本、長野県上田市",
        "global_code": "8Q8W97GG+PG"
      },
      "types": [
        "street_address"
      ]
    },
    {
      "address_components": [
        {
          "long_name": "１２９８−１",
          "short_name": "１２９８−１",
          "types": [
            "premise"
          ]
        },
        {
          "long_name": "国分",
          "short_name": "国分",
          "types": [
            "political",
            "sublocality",
            "sublocality_level_2"
          ]
        },
        {
          "long_name": "上田市",
          "short_name": "上田市",
          "types": [
            "locality",
            "political"
          ]
        },
        {
          "long_name": "長野県",
          "short_name": "長野県",
          "types": [
            "administrative_area_level_1",
            "political"
          ]
        },
        {
          "long_name": "日本",
          "short_name": "JP",
          "types": [
            "country",
            "political"
          ]
        },
        {
          "long_name": "386-0016",
          "short_name": "386-0016",
          "types": [
            "postal_code"
          ]
        }
      ],
      "formatted_address": "日本、〒386-0016 長野県上田市国分１２９８−１",
      "geometry": {
        "bounds": {
          "northeast": {
            "lat": 36.3772274,
            "lng": 138.276937
          },
          "southwest": {
            "lat": 36.3767536,
            "lng": 138.2761796
          }
        },
        "location": {
          "lat": 36.3769986,
          "lng": 138.2765692
        },
        "location_type": "ROOFTOP",
        "viewport": {
          "northeast": {
            "lat": 36.37833948029149,
            "lng": 138.2779072802915
          },
          "southwest": {
            "lat": 36.37564151970849,
            "lng": 138.2752093197085
          }
        }
      },
      "place_id": "ChIJZ6ioNX67HWAReSXGJkF9rd4",
      "types": [
        "premise"
      ]
    },
    {
      "address_components": [
        {
          "long_name": "北国街道",
          "short_name": "国道18号",
          "types": [
            "route"
          ]
        },
        {
          "long_name": "国分",
          "short_name": "国分",
          "types": [
            "political",
            "sublocality",
            "sublocality_level_2"
          ]
        },
        {
          "long_name": "上田市",
          "short_name": "上田市",
          "types": [
            "locality",
            "political"
          ]
        },
        {
          "long_name": "長野県",
          "short_name": "長野県",
          "types": [
            "administrative_area_level_1",
            "political"
          ]
        },
        {
          "long_name": "日本",
          "short_name": "JP",
          "types": [
            "country",
            "political"
          ]
        },
        {
          "long_name": "386-0016",
          "short_name": "386-0016",
          "types": [
            "postal_code"
          ]
        }
      ],
      "formatted_address": "日本、〒386-0016 長野県上田市国分 国道18号",
      "geometry": {
        "bounds": {
          "northeast": {
            "lat": 36.3775476,
            "lng": 138.2769096
          },
          "southwest": {
            "lat": 36.3769548,
            "lng": 138.2758118
          }
        },
        "location": {
          "lat": 36.3772525,
          "lng": 138.2763618
        },
        "location_type": "GEOMETRIC_CENTER",
        "viewport": {
          "northeast": {
            "lat": 36.37860018029151,
            "lng": 138.2777096802915
          },
          "southwest": {
            "lat": 36.37590221970851,
            "lng": 138.2750117197085
          }
        }
      },
      "place_id": "ChIJUXiAMX67HWARsO3y2D0zSe8",
      "types": [
        "route"
      ]
    },
    {
      "address_components": [
        {
          "long_name": "386-0016",
          "short_name": "386-0016",
          "types": [
            "postal_code"
          ]
        },
        {
          "long_name": "国分",
          "short_name": "国分",
          "types": [
            "political",
            "sublocality",
            "sublocality_level_2"
          ]
        },
        {
          "long_name": "上田市",
          "short_name": "上田市",
          "types": [
            "locality",
            "political"
          ]
        },
        {
          "long_name": "長野県",
          "short_name": "長野県",
          "types": [
            "administrative_area_level_1",
            "political"
          ]
        },
        {
          "long_name": "日本",
          "short_name": "JP",
          "types": [
            "country",
            "political"
          ]
        }
      ],
      "formatted_address": "日本 〒386-0016",
      "geometry": {
        "bounds": {
          "northeast": {
            "lat": 36.3893676,
            "lng": 138.282272
          },
          "southwest": {
            "lat": 36.3740578,
            "lng": 138.2607177
          }
        },
        "location": {
          "lat": 36.38267930000001,
          "lng": 138.2717067
        },
        "location_type": "APPROXIMATE",
        "viewport": {
          "northeast": {
            "lat": 36.3893676,
            "lng": 138.282272
          },
          "southwest": {
            "lat": 36.3740578,
            "lng": 138.2607177
          }
        }
      },
      "place_id": "ChIJP25YDZS8HWARtjInulzpNjE",
      "types": [
        "postal_code"
      ]
    },
    {
      "address_components": [
        {
          "long_name": "国分",
          "short_name": "国分",
          "types": [
            "political",
            "sublocality",
            "sublocality_level_2"
          ]
        },
        {
          "long_name": "上田市",
          "short_name": "上田市",
          "types": [
            "locality",
            "political"
          ]
        },
        {
          "long_name": "長野県",
          "short_name": "長野県",
          "types": [
            "administrative_area_level_1",
            "political"
          ]
        },
        {
          "long_name": "日本",
          "short_name": "JP",
          "types": [
            "country",
            "political"
          ]
        },
        {
          "long_name": "386-0016",
          "short_name": "386-0016",
          "types": [
            "postal_code"
          ]
        }
      ],
      "formatted_address": "日本、〒386-0016 長野県上田市国分",
      "geometry": {
        "bounds": {
          "northeast": {
            "lat": 36.3893676,
            "lng": 138.282272
          },
          "southwest": {
            "lat": 36.3740578,
            "lng": 138.2607177
          }
        },
        "location": {
          "lat": 36.38267930000001,
          "lng": 138.2717067
        },
        "location_type": "APPROXIMATE",
        "viewport": {
          "northeast": {
            "lat": 36.3893676,
            "lng": 138.282272
          },
          "southwest": {
            "lat": 36.3740578,
            "lng": 138.2607177
          }
        }
      },
      "place_id": "ChIJ8TgZ9IS8HWARmTSUtG_kSUE",
      "types": [
        "political",
        "sublocality",
        "sublocality_level_2"
      ]
    },
    {
      "address_components": [
        {
          "long_name": "上田市",
          "short_name": "上田市",
          "types": [
            "locality",
            "political"
          ]
        },
        {
          "long_name": "長野県",
          "short_name": "長野県",
          "types": [
            "administrative_area_level_1",
            "political"
          ]
        },
        {
          "long_name": "日本",
          "short_name": "JP",
          "types": [
            "country",
            "political"
          ]
        }
      ],
      "formatted_address": "日本、長野県上田市",
      "geometry": {
        "bounds": {
          "northeast": {
            "lat": 36.554678,
            "lng": 138.4140233
          },
          "southwest": {
            "lat": 36.2172284,
            "lng": 138.0691375
          }
        },
        "location": {
          "lat": 36.4019126,
          "lng": 138.249075
        },
        "location_type": "APPROXIMATE",
        "viewport": {
          "northeast": {
            "lat": 36.554678,
            "lng": 138.4140233
          },
          "southwest": {
            "lat": 36.2172284,
            "lng": 138.0691375
          }
        }
      },
      "place_id": "ChIJsaSJhsy8HWARTFv1slYL1uE",
      "types": [
        "locality",
        "political"
      ]
    },
    {
      "address_components": [
        {
          "long_name": "長野県",
          "short_name": "長野県",
          "types": [
            "administrative_area_level_1",
            "political"
          ]
        },
        {
          "long_name": "日本",
          "short_name": "JP",
          "types": [
            "country",
            "political"
          ]
        }
      ],
      "formatted_address": "日本、長野県",
      "geometry": {
        "bounds": {
          "northeast": {
            "lat": 37.0303686,
            "lng": 138.739206
          },
          "southwest": {
            "lat": 35.1984262,
            "lng": 137.3244842
          }
        },
        "location": {
          "lat": 36.1543941,
          "lng": 137.9218204
        },
        "location_type": "APPROXIMATE",
        "viewport": {
          "northeast": {
            "lat": 37.0303686,
            "lng": 138.739206
          },
          "southwest": {
            "lat": 35.1984262,
            "lng": 137.3244842
          }
        }
      },
      "place_id": "ChIJa4zJGCMBHWARlAu_BE8rXAI",
      "types": [
        "administrative_area_level_1",
        "political"
      ]
    },
    {
      "address_components": [
        {
          "long_name": "日本",
          "short_name": "JP",
          "types": [
            "country",
            "political"
          ]
        }
      ],
      "formatted_address": "日本",
      "geometry": {
        "bounds": {
          "northeast": {
            "lat": 45.6412626,
            "lng": 154.0031455
          },
          "southwest": {
            "lat": 20.3585295,
            "lng": 122.8554688
          }
        },
        "location": {
          "lat": 36.204824,
          "lng": 138.252924
        },
        "location_type": "APPROXIMATE",
        "viewport": {
          "northeast": {
            "lat": 45.6412626,
            "lng": 154.0031455
          },
          "southwest": {
            "lat": 20.3585295,
            "lng": 122.8554688
          }
        }
      },
      "place_id": "ChIJLxl_1w9OZzQRRFJmfNR1QvU",
      "types": [
        "country",
        "political"
      ]
    },
    {
      "address_components": [
        {
          "long_name": "97GG+QG",
          "short_name": "97GG+QG",
          "types": [
            "plus_code"
          ]
        },
        {
          "long_name": "上田市",
          "short_name": "上田市",
          "types": [
            "locality",
            "political"
          ]
        },
        {
          "long_name": "長野県",
          "short_name": "長野県",
          "types": [
            "administrative_area_level_1",
            "political"
          ]
        },
        {
          "long_name": "日本",
          "short_name": "JP",
          "types": [
            "country",
            "political"
          ]
        }
      ],
      "formatted_address": "97GG+QG 日本、長野県上田市",
      "geometry": {
        "bounds": {
          "northeast": {
            "lat": 36.377,
            "lng": 138.276375
          },
          "southwest": {
            "lat": 36.376875,
            "lng": 138.27625
          }
        },
        "location": {
          "lat": 36.376944,
          "lng": 138.27625
        },
        "location_type": "ROOFTOP",
        "viewport": {
          "northeast": {
            "lat": 36.3782864802915,
            "lng": 138.2776614802915
          },
          "southwest": {
            "lat": 36.3755885197085,
            "lng": 138.2749635197085
          }
        }
      },
      "place_id": "GhIJMzZ0sz8wQkARpHA9CtdIYUA",
      "plus_code": {
        "compound_code": "97GG+QG 日本、長野県上田市",
        "global_code": "8Q8W97GG+QG"
      },
      "types": [
        "plus_code"
      ]
    }
  ]
}