{
  "station": "沖",
  "lat": 36.401417,
  "lng": 136.463778,
  "plus_code": {
    "compound_code": "CF27+HG 日本、石川県小松市",
    "global_code": "8Q8RCF27+HG"
  },
  "results": [
    {
      "address_components": [
        {
          "long_name": "１２５−１",
          "short_name": "１２５−１",
          "types": [
            "premise"
          ]
        },
        {
          "long_name": "沖町",
          "short_name": "沖町",
          "types": [
            "political",
            "sublocality",
            "sublocality_level_2"
          ]
        },
        {
          "long_name": "小松市",
          "short_name": "小松市",
          "types": [
            "locality",
            "political"
          ]
        },
        {
          "long_name": "石川県",
          "short_name": "石川県",
          "types": [
            "administrative_area_level_1",
            "political"
          ]
        },
        {
          "long_name": "日本",
          "short_name": "JP",
          "types": [
            "country",
            "political"
          ]
        },
        {
          "long_name": "923-0861",
          "short_name": "923-0861",
          "types": [
            "postal_code"
          ]
        }
      ],
      "formatted_address": "日本、〒923-0861 石川県小松市沖町１２５−１",
      "geometry": {
        "location": {
          "lat": 36.4013922,
          "lng": 136.4637403
        },
        "location_type": "ROOFTOP",
        "viewport": {
          "northeast": {
            "lat": 36.4027411802915,
            "lng": 136.4650892802915
          },
          "southwest": {
            "lat": 36.4000432197085,
            "lng": 136.4623913197085
          }
        }
      },
      "place_id": "ChIJ1bpPShpR-F8RUoESlF7QzsA",
      "plus_code": {
        "compound_code": "CF27+HF 日本、石川県小松市",
        "global_code": "8Q8RCF27+HF"
      },
      "types": [
        "establishment",
        "point_of_interest"
      ]
    },
    {
      "address_components": [
        {
          "long_name": "１２５−１",
          "short_name": "１２５−１",
          "types": [
            "premise"
          ]
        },
        {
          "long_name": "沖町",
          "short_name": "沖町",
          "types": [
            "political",
            "sublocality",
            "sublocality_level_2"
          ]
        },
        {
          "long_name": "小松市",
          "short_name": "小松市",
          "types": [
            "locality",
            "political"
          ]
        },
        {
          "long_name": "石川県",
          "short_name": "石川県",
          "types": [
            "administrative_area_level_1",
            "political"
          ]
        },
        {
          "long_name": "日本",
          "short_name": "JP",
          "types": [
            "country",
            "political"
          ]
        },
        {
          "long_name": "923-0861",
          "short_name": "923-0861",
          "types": [
            "postal_code"
          ]
        }
      ],
      "formatted_address": "日本、〒923-0861 石川県小松市沖町１２５−１",
      "geometry": {
        "bounds": {
          "northeast": {
            "lat": 36.4013707,
            "lng": 136.4638528
          },
          "southwest": {
            "lat": 36.4009345,
            "lng": 136.4636994
          }
        },
        "location": {
          "lat": 36.4011488,
          "lng": 136.4637851
        },
        "location_type": "ROOFTOP",
        "viewport": {
          "northeast": {
            "lat": 36.4025015802915,
            "lng": 136.4651250802915
          },
          "southwest": {
            "lat": 36.3998036197085,
            "lng": 136.4624271197085
          }
        }
      },
      "place_id": "ChIJc3CZjVNQ-F8RUrOrBVenocU",
      "types": [
        "premise"
      ]
    },
    {
      "address_components": [
        {
          "long_name": "１２５",
          "short_name": "１２５",
          "types": [
            "premise"
          ]
        },
        {
          "long_name": "沖町",
          "short_name": "沖町",
          "types": [
            "political",
            "sublocality",
            "sublocality_level_2"
          ]
        },
        {
          "long_name": "小松市",
          "short_name": "小松市",
          "types": [
            "locality",
            "political"
          ]
        },
        {
          "long_name": "石川県",
          "short_name": "石川県",
          "types": [
            "administrative_area_level_1",
            "political"
          ]
        },
        {
          "long_name": "日本",
          "short_name": "JP",
          "types": [
            "country",
            "political"
          ]
        },
        {
          "long_name": "923-0861",
          "short_name": "923-0861",
          "types": [
            "postal_code"
          ]
        }
      ],
      "formatted_address": "日本、〒923-0861 石川県小松市沖町１２５",
      "geometry": {
        "location": {
          "lat": 36.4011527,
          "lng": 136.4637761
        },
        "location_type": "ROOFTOP",
        "viewport": {
          "northeast": {
            "lat": 36.4025016802915,
            "lng": 136.4651250802915
          },
          "southwest": {
            "lat": 36.3998037197085,
            "lng": 136.4624271197085
          }
        }
      },
      "place_id": "ChIJc3CZjVNQ-F8RAp-7m5ZletY",
      "plus_code": {
        "compound_code": "CF27+FG 日本、石川県小松市",
        "global_code": "8Q8RCF27+FG"
      },
      "types": [
        "street_address"
      ]
    },
    {
      "address_components": [
        {
          "long_name": "Unnamed Road",
          "short_name": "Unnamed Road",
          "types": [
            "route"
          ]
        },
        {
          "long_name": "沖町",
          "short_name": "沖町",
          "types": [
            "political",
            "sublocality",
            "sublocality_level_2"
          ]
        },
        {
          "long_name": "小松市",
          "short_name": "小松市",
          "types": [
            "locality",
            "political"
          ]
        },
        {
          "long_name": "石川県",
          "short_name": "石川県",
          "types": [
            "administrative_area_level_1",
            "political"
          ]
        },
        {
          "long_name": "日本",
          "short_name": "JP",
          "types": [
            "country",
            "political"
          ]
        },
        {
          "long_name": "923-0861",
          "short_name": "923-0861",
          "types": [
            "postal_code"
          ]
        }
      ],
      "formatted_address": "Unnamed Road, 沖町 小松市 石川県 923-0861 日本",
      "geometry": {
        "bounds": {
          "northeast": {
            "lat": 36.4014579,
            "lng": 136.4636916
          },
          "southwest": {
            "lat": 36.4009333,
            "lng": 136.4636483
          }
        },
        "location": {
          "lat": 36.4011956,
          "lng": 136.4636699
        },
        "location_type": "GEOMETRIC_CENTER",
        "viewport": {
          "northeast": {
            "lat": 36.4025445802915,
            "lng": 136.4650189302915
          },
          "southwest": {
            "lat": 36.3998466197085,
            "lng": 136.4623209697085
          }
        }
      },
      "place_id": "ChIJI0mXjFNQ-F8RwLv5sW_WPBg",
      "types": [
        "route"
      ]
    },
    {
      "address_components": [
        {
          "long_name": "923-0861",
          "short_name": "923-0861",
          "types": [
            "postal_code"
          ]
        },
        {
          "long_name": "沖町",
          "short_name": "沖町",
          "types": [
            "political",
            "sublocality",
            "sublocality_level_2"
          ]
        },
        {
          "long_name": "小松市",
          "short_name": "小松市",
          "types": [
            "locality",
            "political"
          ]
        },
        {
          "long_name": "石川県",
          "short_name": "石川県",
          "types": [
            "administrative_area_level_1",
            "political"
          ]
        },
        {
          "long_name": "日本",
          "short_name": "JP",
          "types": [
            "country",
            "political"
          ]
        }
      ],
      "formatted_address": "日本 〒923-0861",
      "geometry": {
        "bounds": {
          "northeast": {
            "lat": 36.4036629,
            "lng": 136.471057
          },
          "southwest": {
            "lat": 36.3959468,
            "lng": 136.4565173
          }
        },
        "location": {
          "lat": 36.3990815,
          "lng": 136.4645381
        },
        "location_type": "APPROXIMATE",
        "viewport": {
          "northeast": {
            "lat": 36.4036629,
            "lng": 136.471057
          },
          "southwest": {
            "lat": 36.3959468,
            "lng": 136.4565173
          }
        }
      },
      "place_id": "ChIJrw5n71ZQ-F8RUaHwjO8MHQ8",
      "types": [
        "postal_code"
      ]
    },
    {
      "address_components": [
        {
          "long_name": "沖町",
          "short_name": "沖町",
          "types": [
            "political",
            "sublocality",
            "sublocality_level_2"
          ]
        },
        {
          "long_name": "小松市",
          "short_name": "小松市",
          "types": [
            "locality",
            "political"
          ]
        },
        {
          "long_name": "石川県",
          "short_name": "石川県",
          "types": [
            "administrative_area_level_1",
            "political"
          ]
        },
        {
          "long_name": "日本",
          "short_name": "JP",
          "types": [
            "country",
            "political"
          ]
        },
        {
          "long_name": "923-0861",
          "short_name": "923-0861",
          "types": [
            "postal_code"
          ]
        }
      ],
      "formatted_address": "日本、〒923-0861 石川県小松市沖町",
      "geometry": {
        "bounds": {
          "northeast": {
            "lat": 36.4036629,
            "lng": 136.471057
          },
          "southwest": {
            "lat": 36.3959468,
            "lng": 136.4565173
          }
        },
        "location": {
          "lat": 36.3990815,
          "lng": 136.4645381
        },
        "location_type": "APPROXIMATE",
        "viewport": {
          "northeast": {
            "lat": 36.4036629,
            "lng": 136.471057
          },
          "southwest": {
            "lat": 36.3959468,
            "lng": 136.4565173
          }
        }
      },
      "place_id": "ChIJIeHuHVRQ-F8RNdl_KFJSAtw",
      "types": [
        "political",
        "sublocality",
        "sublocality_level_2"
      ]
    },
    {
      "address_components": [
        {
          "long_name": "小松市",
          "short_name": "小松市",
          "types": [
            "locality",
            "political"
          ]
        },
        {
          "long_name": "石川県",
          "short_name": "石川県",
          "types": [
            "administrative_area_level_1",
            "political"
          ]
        },
        {
          "long_name": "日本",
          "short_name": "JP",
          "types": [
            "country",
            "political"
          ]
        }
      ],
      "formatted_address": "日本、石川県小松市",
      "geometry": {
        "bounds": {
          "northeast": {
            "lat": 36.443436,
            "lng": 136.612477
          },
          "southwest": {
            "lat": 36.1462187,
            "lng": 136.3725625
          }
        },
        "location": {
          "lat": 36.4084209,
          "lng": 136.4458532
        },
        "location_type": "APPROXIMATE",
        "viewport": {
          "northeast": {
            "lat": 36.443436,
            "lng": 136.612477
          },
          "southwest": {
            "lat": 36.1462187,
            "lng": 136.3725625
          }
        }
      },
      "place_id": "ChIJa88uQDxf-F8REwYxn2EnUFQ",
      "types": [
        "locality",
        "political"
      ]
    },
    {
      "address_components": [
        {
          "long_name": "石川県",
          "short_name": "石川県",
          "types": [
            "administrative_area_level_1",
            "political"
          ]
        },
        {
          "long_name": "日本",
          "short_name": "JP",
          "types": [
            "country",
            "political"
          ]
        }
      ],
      "formatted_address": "日本、石川県",
      "geometry": {
        "bounds": {
          "northeast": {
            "lat": 37.8579593,
            "lng": 137.3652437
          },
          "southwest": {
            "lat": 36.0674589,
            "lng": 136.2436536
          }
        },
        "location": {
          "lat": 36.3260317,
          "lng": 136.5289653
        },
        "location_type": "APPROXIMATE",
        "viewport": {
          "northeast": {
            "lat": 37.8579593,
            "lng": 137.3652437
          },
          "southwest": {
            "lat": 36.0674589,
            "lng": 136.2436536
          }
        }
      },
      "place_id": "ChIJ7xq8wV5-8V8RtJoYjRM81Es",
      "types": [
        "administrative_area_level_1",
        "political"
      ]
    },
    {
      "address_components": [
        {
          "long_name": "日本",
          "short_name": "JP",
          "types": [
            "country",
            "political"
          ]
        }
      ],
      "formatted_address": "日本",
      "geometry": {
        "bounds": {
          "northeast": {
            "lat": 45.6412626,
            "lng": 154.0031455
          },
          "southwest": {
            "lat": 20.3585295,
            "lng": 122.8554688
          }
        },
        "location": {
          "lat": 36.204824,
          "lng": 138.252924
        },
        "location_type": "APPROXIMATE",
        "viewport": {
          "northeast": {
            "lat": 45.6412626,
            "lng": 154.0031455
          },
          "southwest": {
            "lat": 20.3585295,
            "lng": 122.8554688
          }
        }
      },
      "place_id": "ChIJLxl_1w9OZzQRRFJmfNR1QvU",
      "types": [
        "country",
        "political"
      ]
    },
    {
      "address_components": [
        {
          "long_name": "CF27+HG",
          "short_name": "CF27+HG",
          "types": [
            "plus_code"
          ]
        },
        {
          "long_name": "小松市",
          "short_name": "小松市",
          "types": [
            "locality",
            "political"
          ]
        },
        {
          "long_name": "石川県",
          "short_name": "石川県",
          "types": [
            "administrative_area_level_1",
            "political"
          ]
        },
        {
          "long_name": "日本",
          "short_name": "JP",
          "types": [
            "country",
            "political"
          ]
        }
      ],
      "formatted_address": "CF27+HG 日本、石川県小松市",
      "geometry": {
        "bounds": {
          "northeast": {
            "lat": 36.4015,
            "lng": 136.463875
          },
          "southwest": {
            "lat": 36.401375,
            "lng": 136.46375
          }
        },
        "location": {
          "lat": 36.401417,
          "lng": 136.463778
        },
        "location_type": "ROOFTOP",
        "viewport": {
          "northeast": {
            "lat": 36.4027864802915,
            "lng": 136.4651614802915
          },
          "southwest": {
            "lat": 36.4000885197085,
            "lng": 136.4624635197085
          }
        }
      },
      "place_id": "GhIJeofboWEzQkARVtP1RNcOYUA",
      "plus_code": {
        "compound_code": "CF27+HG 日本、石川県小松市",
        "global_code": "8Q8RCF27+HG"
      },
      "types": [
        "plus_code"
      ]
    }
  ]
}