{
  "station": "染屋",
  "lat": 36.394889,
  "lng": 138.26525,
  "plus_code": {
    "compound_code": "97V8+X3 日本、長野県上田市",
    "global_code": "8Q8W97V8+X3"
  },
  "results": [
    {
      "address_components": [
        {
          "long_name": "５６",
          "short_name": "５６",
          "types": [
            "premise"
          ]
        },
        {
          "long_name": "５",
          "short_name": "５",
          "types": [
            "political",
            "sublocality",
            "sublocality_level_4"
          ]
        },
        {
          "long_name": "３丁目",
          "short_name": "３丁目",
          "types": [
            "political",
            "sublocality",
            "sublocality_level_3"
          ]
        },
        {
          "long_name": "常田",
          "short_name": "常田",
          "types": [
            "political",
            "sublocality",
            "sublocality_level_2"
          ]
        },
        {
          "long_name": "上田市",
          "short_name": "上田市",
          "types": [
            "locality",
            "political"
          ]
        },
        {
          "long_name": "長野県",
          "short_name": "長野県",
          "types": [
            "administrative_area_level_1",
            "political"
          ]
        },
        {
          "long_name": "日本",
          "short_name": "JP",
          "types": [
            "country",
            "political"
          ]
        },
        {
          "long_name": "386-0018",
          "short_name": "386-0018",
          "types": [
            "postal_code"
          ]
        }
      ],
      "formatted_address": "日本、〒386-0018 長野県上田市常田３丁目５−５６",
      "geometry": {
        "location": {
          "lat": 36.3950405,
          "lng": 138.2655338
        },
        "location_type": "ROOFTOP",
        "viewport": {
          "northeast": {
            "lat": 36.3963894802915,
            "lng": 138.2668827802915
          },
          "southwest": {
            "lat": 36.3936915197085,
            "lng": 138.2641848197085
          }
        }
      },
      "place_id": "ChIJAWwaE-y8HWARhLQ1jtJH6m8",
      "plus_code": {
        "compound_code": "97W8+26 日本、長野県上田市",
        "global_code": "8Q8W97W8+26"
      },
      "types": [
        "street_address"
      ]
    },
    {
      "address_components": [
        {
          "long_name": "Plextor",
          "short_name": "Plextor",
          "types": [
            "premise"
          ]
        },
        {
          "long_name": "５６",
          "short_name": "５６",
          "types": [
            "premise"
          ]
        },
        {
          "long_name": "５",
          "short_name": "５",
          "types": [
            "political",
            "sublocality",
            "sublocality_level_4"
          ]
        },
        {
          "long_name": "３丁目",
          "short_name": "３丁目",
          "types": [
            "political",
            "sublocality",
            "sublocality_level_3"
          ]
        },
        {
          "long_name": "常田",
          "short_name": "常田",
          "types": [
            "political",
            "sublocality",
            "sublocality_level_2"
          ]
        },
        {
          "long_name": "上田市",
          "short_name": "上田市",
          "types": [
            "locality",
            "political"
          ]
        },
        {
          "long_name": "長野県",
          "short_name": "長野県",
          "types": [
            "administrative_area_level_1",
            "political"
          ]
        },
        {
          "long_name": "日本",
          "short_name": "JP",
          "types": [
            "country",
            "political"
          ]
        },
        {
          "long_name": "386-0018",
          "short_name": "386-0018",
          "types": [
            "postal_code"
          ]
        }
      ],
      "formatted_address": "Plextor, ３丁目-５-56 常田 上田市 長野県 386-0018 日本",
      "geometry": {
        "bounds": {
          "northeast": {
            "lat": 36.3951505,
            "lng": 138.2657486
          },
          "southwest": {
            "lat": 36.3949198,
            "lng": 138.265394
          }
        },
        "location": {
          "lat": 36.395045,
          "lng": 138.2655416
        },
        "location_type": "ROOFTOP",
        "viewport": {
          "northeast": {
            "lat": 36.3963841302915,
            "lng": 138.2669202802915
          },
          "southwest": {
            "lat": 36.3936861697085,
            "lng": 138.2642223197085
          }
        }
      },
      "place_id": "ChIJH9eVPey8HWARuUGQMlHS-2g",
      "types": [
        "premise"
      ]
    },
    {
      "address_components": [
        {
          "long_name": "小諸上田線",
          "short_name": "県道79号",
          "types": [
            "route"
          ]
        },
        {
          "long_name": "５",
          "short_name": "５",
          "types": [
            "political",
            "sublocality",
            "sublocality_level_4"
          ]
        },
        {
          "long_name": "３丁目",
          "short_name": "３丁目",
          "types": [
            "political",
            "sublocality",
            "sublocality_level_3"
          ]
        },
        {
          "long_name": "常田",
          "short_name": "常田",
          "types": [
            "political",
            "sublocality",
            "sublocality_level_2"
          ]
        },
        {
          "long_name": "上田市",
          "short_name": "上田市",
          "types": [
            "locality",
            "political"
          ]
        },
        {
          "long_name": "長野県",
          "short_name": "長野県",
          "types": [
            "administrative_area_level_1",
            "political"
          ]
        },
        {
          "long_name": "日本",
          "short_name": "JP",
          "types": [
            "country",
            "political"
          ]
        },
        {
          "long_name": "386-0018",
          "short_name": "386-0018",
          "types": [
            "postal_code"
          ]
        }
      ],
      "formatted_address": "日本、〒386-0018 長野県上田市常田３丁目５ 県道79号",
      "geometry": {
        "bounds": {
          "northeast": {
            "lat": 36.3942473,
            "lng": 138.2654649
          },
          "southwest": {
            "lat": 36.3942302,
            "lng": 138.265091
          }
        },
        "location": {
          "lat": 36.3942388,
          "lng": 138.265278
        },
        "location_type": "GEOMETRIC_CENTER",
        "viewport": {
          "northeast": {
            "lat": 36.3955877302915,
            "lng": 138.2666269302915
          },
          "southwest": {
            "lat": 36.3928897697085,
            "lng": 138.2639289697085
          }
        }
      },
      "place_id": "ChIJXe1iaey8HWAR5MmEsHauo4Q",
      "types": [
        "route"
      ]
    },
    {
      "address_components": [
        {
          "long_name": "５",
          "short_name": "５",
          "types": [
            "political",
            "sublocality",
            "sublocality_level_4"
          ]
        },
        {
          "long_name": "３丁目",
          "short_name": "３丁目",
          "types": [
            "political",
            "sublocality",
            "sublocality_level_3"
          ]
        },
        {
          "long_name": "常田",
          "short_name": "常田",
          "types": [
            "political",
            "sublocality",
            "sublocality_level_2"
          ]
        },
        {
          "long_name": "上田市",
          "short_name": "上田市",
          "types": [
            "locality",
            "political"
          ]
        },
        {
          "long_name": "長野県",
          "short_name": "長野県",
          "types": [
            "administrative_area_level_1",
            "political"
          ]
        },
        {
          "long_name": "日本",
          "short_name": "JP",
          "types": [
            "country",
            "political"
          ]
        },
        {
          "long_name": "386-0018",
          "short_name": "386-0018",
          "types": [
            "postal_code"
          ]
        }
      ],
      "formatted_address": "日本、〒386-0018 長野県上田市常田３丁目５",
      "geometry": {
        "bounds": {
          "northeast": {
            "lat": 36.3962762,
            "lng": 138.2660604
          },
          "southwest": {
            "lat": 36.39421,
            "lng": 138.2620143
          }
        },
        "location": {
          "lat": 36.3953567,
          "lng": 138.2639275
        },
        "location_type": "GEOMETRIC_CENTER",
        "viewport": {
          "northeast": {
            "lat": 36.3965920802915,
            "lng": 138.2660604
          },
          "southwest": {
            "lat": 36.3938941197085,
            "lng": 138.2620143
          }
        }
      },
      "place_id": "ChIJX2etVem8HWARUgmeZ12bEuc",
      "types": [
        "political",
        "sublocality",
        "sublocality_level_4"
      ]
    },
    {
      "address_components": [
        {
          "long_name": "３丁目",
          "short_name": "３丁目",
          "types": [
            "political",
            "sublocality",
            "sublocality_level_3"
          ]
        },
        {
          "long_name": "常田",
          "short_name": "常田",
          "types": [
            "political",
            "sublocality",
            "sublocality_level_2"
          ]
        },
        {
          "long_name": "上田市",
          "short_name": "上田市",
          "types": [
            "locality",
            "political"
          ]
        },
        {
          "long_name": "長野県",
          "short_name": "長野県",
          "types": [
            "administrative_area_level_1",
            "political"
          ]
        },
        {
          "long_name": "日本",
          "short_name": "JP",
          "types": [
            "country",
            "political"
          ]
        },
        {
          "long_name": "386-0018",
          "short_name": "386-0018",
          "types": [
            "postal_code"
          ]
        }
      ],
      "formatted_address": "日本、〒386-0018 長野県上田市常田３丁目",
      "geometry": {
        "bounds": {
          "northeast": {
            "lat": 36.3984356,
            "lng": 138.266164
          },
          "southwest": {
            "lat": 36.3898192,
            "lng": 138.2595068
          }
        },
        "location": {
          "lat": 36.3935564,
          "lng": 138.2629941
        },
        "location_type": "APPROXIMATE",
        "viewport": {
          "northeast": {
            "lat": 36.3984356,
            "lng": 138.266164
          },
          "southwest": {
            "lat": 36.3898192,
            "lng": 138.2595068
          }
        }
      },
      "place_id": "ChIJORDg3Ou8HWARzUv6UIPXxX0",
      "types": [
        "political",
        "sublocality",
        "sublocality_level_3"
      ]
    },
    {
      "address_components": [
        {
          "long_name": "常田",
          "short_name": "常田",
          "types": [
            "political",
            "sublocality",
            "sublocality_level_2"
          ]
        },
        {
          "long_name": "上田市",
          "short_name": "上田市",
          "types": [
            "locality",
            "political"
          ]
        },
        {
          "long_name": "長野県",
          "short_name": "長野県",
          "types": [
            "administrative_area_level_1",
            "political"
          ]
        },
        {
          "long_name": "日本",
          "short_name": "JP",
          "types": [
            "country",
            "political"
          ]
        },
        {
          "long_name": "386-0018",
          "short_name": "386-0018",
          "types": [
            "postal_code"
          ]
        }
      ],
      "formatted_address": "日本、〒386-0018 長野県上田市常田",
      "geometry": {
        "bounds": {
          "northeast": {
            "lat": 36.39866550000001,
            "lng": 138.266164
          },
          "southwest": {
            "lat": 36.3892016,
            "lng": 138.2496198
          }
        },
        "location": {
          "lat": 36.3942709,
          "lng": 138.2567717
        },
        "location_type": "APPROXIMATE",
        "viewport": {
          "northeast": {
            "lat": 36.39866550000001,
            "lng": 138.266164
          },
          "southwest": {
            "lat": 36.3892016,
            "lng": 138.2496198
          }
        }
      },
      "place_id": "ChIJxVpCbsK8HWARv2sQMdbZclE",
      "types": [
        "political",
        "sublocality",
        "sublocality_level_2"
      ]
    },
    {
      "address_components": [
        {
          "long_name": "386-0018",
          "short_name": "386-0018",
          "types": [
            "postal_code"
          ]
        },
        {
          "long_name": "常田",
          "short_name": "常田",
          "types": [
            "political",
            "sublocality",
            "sublocality_level_2"
          ]
        },
        {
          "long_name": "上田市",
          "short_name": "上田市",
          "types": [
            "locality",
            "political"
          ]
        },
        {
          "long_name": "長野県",
          "short_name": "長野県",
          "types": [
            "administrative_area_level_1",
            "political"
          ]
        },
        {
          "long_name": "日本",
          "short_name": "JP",
          "types": [
            "country",
            "political"
          ]
        }
      ],
      "formatted_address": "日本 〒386-0018",
      "geometry": {
        "bounds": {
          "northeast": {
            "lat": 36.39866550000001,
            "lng": 138.266164
          },
          "southwest": {
            "lat": 36.3892016,
            "lng": 138.2496198
          }
        },
        "location": {
          "lat": 36.3942709,
          "lng": 138.2567717
        },
        "location_type": "APPROXIMATE",
        "viewport": {
          "northeast": {
            "lat": 36.39866550000001,
            "lng": 138.266164
          },
          "southwest": {
            "lat": 36.3892016,
            "lng": 138.2496198
          }
        }
      },
      "place_id": "ChIJY3f3RsO8HWARow1BvAEqQ_Y",
      "types": [
        "postal_code"
      ]
    },
    {
      "address_components": [
        {
          "long_name": "上田市",
          "short_name": "上田市",
          "types": [
            "locality",
            "political"
          ]
        },
        {
          "long_name": "長野県",
          "short_name": "長野県",
          "types": [
            "administrative_area_level_1",
            "political"
          ]
        },
        {
          "long_name": "日本",
          "short_name": "JP",
          "types": [
            "country",
            "political"
          ]
        }
      ],
      "formatted_address": "日本、長野県上田市",
      "geometry": {
        "bounds": {
          "northeast": {
            "lat": 36.554678,
            "lng": 138.4140233
          },
          "southwest": {
            "lat": 36.2172284,
            "lng": 138.0691375
          }
        },
        "location": {
          "lat": 36.4019126,
          "lng": 138.249075
        },
        "location_type": "APPROXIMATE",
        "viewport": {
          "northeast": {
            "lat": 36.554678,
            "lng": 138.4140233
          },
          "southwest": {
            "lat": 36.2172284,
            "lng": 138.0691375
          }
        }
      },
      "place_id": "ChIJsaSJhsy8HWARTFv1slYL1uE",
      "types": [
        "locality",
        "political"
      ]
    },
    {
      "address_components": [
        {
          "long_name": "長野県",
          "short_name": "長野県",
          "types": [
            "administrative_area_level_1",
            "political"
          ]
        },
        {
          "long_name": "日本",
          "short_name": "JP",
          "types": [
            "country",
            "political"
          ]
        }
      ],
      "formatted_address": "日本、長野県",
      "geometry": {
        "bounds": {
          "northeast": {
            "lat": 37.0303686,
            "lng": 138.739206
          },
          "southwest": {
            "lat": 35.1984262,
            "lng": 137.3244842
          }
        },
        "location": {
          "lat": 36.1543941,
          "lng": 137.9218204
        },
        "location_type": "APPROXIMATE",
        "viewport": {
          "northeast": {
            "lat": 37.0303686,
            "lng": 138.739206
          },
          "southwest": {
            "lat": 35.1984262,
            "lng": 137.3244842
          }
        }
      },
      "place_id": "ChIJa4zJGCMBHWARlAu_BE8rXAI",
      "types": [
        "administrative_area_level_1",
        "political"
      ]
    },
    {
      "address_components": [
        {
          "long_name": "日本",
          "short_name": "JP",
          "types": [
            "country",
            "political"
          ]
        }
      ],
      "formatted_address": "日本",
      "geometry": {
        "bounds": {
          "northeast": {
            "lat": 45.6412626,
            "lng": 154.0031455
          },
          "southwest": {
            "lat": 20.3585295,
            "lng": 122.8554688
          }
        },
        "location": {
          "lat": 36.204824,
          "lng": 138.252924
        },
        "location_type": "APPROXIMATE",
        "viewport": {
          "northeast": {
            "lat": 45.6412626,
            "lng": 154.0031455
          },
          "southwest": {
            "lat": 20.3585295,
            "lng": 122.8554688
          }
        }
      },
      "place_id": "ChIJLxl_1w9OZzQRRFJmfNR1QvU",
      "types": [
        "country",
        "political"
      ]
    },
    {
      "address_components": [
        {
          "long_name": "97V8+X3",
          "short_name": "97V8+X3",
          "types": [
            "plus_code"
          ]
        },
        {
          "long_name": "上田市",
          "short_name": "上田市",
          "types": [
            "locality",
            "political"
          ]
        },
        {
          "long_name": "長野県",
          "short_name": "長野県",
          "types": [
            "administrative_area_level_1",
            "political"
          ]
        },
        {
          "long_name": "日本",
          "short_name": "JP",
          "types": [
            "country",
            "political"
          ]
        }
      ],
      "formatted_address": "97V8+X3 日本、長野県上田市",
      "geometry": {
        "bounds": {
          "northeast": {
            "lat": 36.395,
            "lng": 138.26525
          },
          "southwest": {
            "lat": 36.39487500000001,
            "lng": 138.265125
          }
        },
        "location": {
          "lat": 36.394889,
          "lng": 138.26525
        },
        "location_type": "ROOFTOP",
        "viewport": {
          "northeast": {
            "lat": 36.3962864802915,
            "lng": 138.2665364802914
          },
          "southwest": {
            "lat": 36.3935885197085,
            "lng": 138.2638385197085
          }
        }
      },
      "place_id": "GhIJa0YGuYsyQkARcmiR7XxIYUA",
      "plus_code": {
        "compound_code": "97V8+X3 日本、長野県上田市",
        "global_code": "8Q8W97V8+X3"
      },
      "types": [
        "plus_code"
      ]
    }
  ]
}