{
  "station": "八日堂",
  "lat": 36.379639,
  "lng": 138.2715,
  "plus_code": {
    "compound_code": "97HC+VJ 日本、長野県上田市",
    "global_code": "8Q8W97HC+VJ"
  },
  "results": [
    {
      "address_components": [
        {
          "long_name": "１２０１−７",
          "short_name": "１２０１−７",
          "types": [
            "premise"
          ]
        },
        {
          "long_name": "国分",
          "short_name": "国分",
          "types": [
            "political",
            "sublocality",
            "sublocality_level_2"
          ]
        },
        {
          "long_name": "上田市",
          "short_name": "上田市",
          "types": [
            "locality",
            "political"
          ]
        },
        {
          "long_name": "長野県",
          "short_name": "長野県",
          "types": [
            "administrative_area_level_1",
            "political"
          ]
        },
        {
          "long_name": "日本",
          "short_name": "JP",
          "types": [
            "country",
            "political"
          ]
        },
        {
          "long_name": "386-0016",
          "short_name": "386-0016",
          "types": [
            "postal_code"
          ]
        }
      ],
      "formatted_address": "日本、〒386-0016 長野県上田市国分１２０１−７",
      "geometry": {
        "location": {
          "lat": 36.3796822,
          "lng": 138.2714571
        },
        "location_type": "ROOFTOP",
        "viewport": {
          "northeast": {
            "lat": 36.3810311802915,
            "lng": 138.2728060802915
          },
          "southwest": {
            "lat": 36.3783332197085,
            "lng": 138.2701081197085
          }
        }
      },
      "place_id": "ChIJYcEk8T29HWAR1TDzIDaiy3I",
      "plus_code": {
        "compound_code": "97HC+VH 日本、長野県上田市",
        "global_code": "8Q8W97HC+VH"
      },
      "types": [
        "establishment",
        "point_of_interest"
      ]
    },
    {
      "address_components": [
        {
          "long_name": "１２０１−７",
          "short_name": "１２０１−７",
          "types": [
            "premise"
          ]
        },
        {
          "long_name": "国分",
          "short_name": "国分",
          "types": [
            "political",
            "sublocality",
            "sublocality_level_2"
          ]
        },
        {
          "long_name": "上田市",
          "short_name": "上田市",
          "types": [
            "locality",
            "political"
          ]
        },
        {
          "long_name": "長野県",
          "short_name": "長野県",
          "types": [
            "administrative_area_level_1",
            "political"
          ]
        },
        {
          "long_name": "日本",
          "short_name": "JP",
          "types": [
            "country",
            "political"
          ]
        },
        {
          "long_name": "386-0016",
          "short_name": "386-0016",
          "types": [
            "postal_code"
          ]
        }
      ],
      "formatted_address": "日本、〒386-0016 長野県上田市国分１２０１−７",
      "geometry": {
        "bounds": {
          "northeast": {
            "lat": 36.37951750000001,
            "lng": 138.2713928
          },
          "southwest": {
            "lat": 36.3794163,
            "lng": 138.2712009
          }
        },
        "location": {
          "lat": 36.3794745,
          "lng": 138.2712897
        },
        "location_type": "ROOFTOP",
        "viewport": {
          "northeast": {
            "lat": 36.3808158802915,
            "lng": 138.2726458302915
          },
          "southwest": {
            "lat": 36.3781179197085,
            "lng": 138.2699478697085
          }
        }
      },
      "place_id": "ChIJf8JhcYO8HWAR-yiq7Pgdx1M",
      "types": [
        "premise"
      ]
    },
    {
      "address_components": [
        {
          "long_name": "１２０１",
          "short_name": "１２０１",
          "types": [
            "premise"
          ]
        },
        {
          "long_name": "国分",
          "short_name": "国分",
          "types": [
            "political",
            "sublocality",
            "sublocality_level_2"
          ]
        },
        {
          "long_name": "上田市",
          "short_name": "上田市",
          "types": [
            "locality",
            "political"
          ]
        },
        {
          "long_name": "長野県",
          "short_name": "長野県",
          "types": [
            "administrative_area_level_1",
            "political"
          ]
        },
        {
          "long_name": "日本",
          "short_name": "JP",
          "types": [
            "country",
            "political"
          ]
        },
        {
          "long_name": "386-0016",
          "short_name": "386-0016",
          "types": [
            "postal_code"
          ]
        }
      ],
      "formatted_address": "日本、〒386-0016 長野県上田市国分１２０１",
      "geometry": {
        "location": {
          "lat": 36.3794343,
          "lng": 138.2712625
        },
        "location_type": "ROOFTOP",
        "viewport": {
          "northeast": {
            "lat": 36.3807832802915,
            "lng": 138.2726114802915
          },
          "southwest": {
            "lat": 36.3780853197085,
            "lng": 138.2699135197085
          }
        }
      },
      "place_id": "ChIJicllcYO8HWAR9ZKmSTDoc6Y",
      "plus_code": {
        "compound_code": "97HC+QG 日本、長野県上田市",
        "global_code": "8Q8W97HC+QG"
      },
      "types": [
        "street_address"
      ]
    },
    {
      "address_components": [
        {
          "long_name": "北国街道",
          "short_name": "国道18号",
          "types": [
            "route"
          ]
        },
        {
          "long_name": "国分",
          "short_name": "国分",
          "types": [
            "political",
            "sublocality",
            "sublocality_level_2"
          ]
        },
        {
          "long_name": "上田市",
          "short_name": "上田市",
          "types": [
            "locality",
            "political"
          ]
        },
        {
          "long_name": "長野県",
          "short_name": "長野県",
          "types": [
            "administrative_area_level_1",
            "political"
          ]
        },
        {
          "long_name": "日本",
          "short_name": "JP",
          "types": [
            "country",
            "political"
          ]
        },
        {
          "long_name": "386-0016",
          "short_name": "386-0016",
          "types": [
            "postal_code"
          ]
        }
      ],
      "formatted_address": "日本、〒386-0016 長野県上田市国分 国道18号",
      "geometry": {
        "bounds": {
          "northeast": {
            "lat": 36.3804558,
            "lng": 138.2725489
          },
          "southwest": {
            "lat": 36.379776,
            "lng": 138.2717038
          }
        },
        "location": {
          "lat": 36.3801159,
          "lng": 138.2721264
        },
        "location_type": "GEOMETRIC_CENTER",
        "viewport": {
          "northeast": {
            "lat": 36.3814648802915,
            "lng": 138.2734753302915
          },
          "southwest": {
            "lat": 36.3787669197085,
            "lng": 138.2707773697085
          }
        }
      },
      "place_id": "ChIJd1HChIO8HWARWoM78n_i1Cc",
      "types": [
        "route"
      ]
    },
    {
      "address_components": [
        {
          "long_name": "386-0016",
          "short_name": "386-0016",
          "types": [
            "postal_code"
          ]
        },
        {
          "long_name": "国分",
          "short_name": "国分",
          "types": [
            "political",
            "sublocality",
            "sublocality_level_2"
          ]
        },
        {
          "long_name": "上田市",
          "short_name": "上田市",
          "types": [
            "locality",
            "political"
          ]
        },
        {
          "long_name": "長野県",
          "short_name": "長野県",
          "types": [
            "administrative_area_level_1",
            "political"
          ]
        },
        {
          "long_name": "日本",
          "short_name": "JP",
          "types": [
            "country",
            "political"
          ]
        }
      ],
      "formatted_address": "日本 〒386-0016",
      "geometry": {
        "bounds": {
          "northeast": {
            "lat": 36.3893676,
            "lng": 138.282272
          },
          "southwest": {
            "lat": 36.3740578,
            "lng": 138.2607177
          }
        },
        "location": {
          "lat": 36.38267930000001,
          "lng": 138.2717067
        },
        "location_type": "APPROXIMATE",
        "viewport": {
          "northeast": {
            "lat": 36.3893676,
            "lng": 138.282272
          },
          "southwest": {
            "lat": 36.3740578,
            "lng": 138.2607177
          }
        }
      },
      "place_id": "ChIJP25YDZS8HWARtjInulzpNjE",
      "types": [
        "postal_code"
      ]
    },
    {
      "address_components": [
        {
          "long_name": "国分",
          "short_name": "国分",
          "types": [
            "political",
            "sublocality",
            "sublocality_level_2"
          ]
        },
        {
          "long_name": "上田市",
          "short_name": "上田市",
          "types": [
            "locality",
            "political"
          ]
        },
        {
          "long_name": "長野県",
          "short_name": "長野県",
          "types": [
            "administrative_area_level_1",
            "political"
          ]
        },
        {
          "long_name": "日本",
          "short_name": "JP",
          "types": [
            "country",
            "political"
          ]
        },
        {
          "long_name": "386-0016",
          "short_name": "386-0016",
          "types": [
            "postal_code"
          ]
        }
      ],
      "formatted_address": "日本、〒386-0016 長野県上田市国分",
      "geometry": {
        "bounds": {
          "northeast": {
            "lat": 36.3893676,
            "lng": 138.282272
          },
          "southwest": {
            "lat": 36.3740578,
            "lng": 138.2607177
          }
        },
        "location": {
          "lat": 36.38267930000001,
          "lng": 138.2717067
        },
        "location_type": "APPROXIMATE",
        "viewport": {
          "northeast": {
            "lat": 36.3893676,
            "lng": 138.282272
          },
          "southwest": {
            "lat": 36.3740578,
            "lng": 138.2607177
          }
        }
      },
      "place_id": "ChIJ8TgZ9IS8HWARmTSUtG_kSUE",
      "types": [
        "political",
        "sublocality",
        "sublocality_level_2"
      ]
    },
    {
      "address_components": [
        {
          "long_name": "上田市",
          "short_name": "上田市",
          "types": [
            "locality",
            "political"
          ]
        },
        {
          "long_name": "長野県",
          "short_name": "長野県",
          "types": [
            "administrative_area_level_1",
            "political"
          ]
        },
        {
          "long_name": "日本",
          "short_name": "JP",
          "types": [
            "country",
            "political"
          ]
        }
      ],
      "formatted_address": "日本、長野県上田市",
      "geometry": {
        "bounds": {
          "northeast": {
            "lat": 36.554678,
            "lng": 138.4140233
          },
          "southwest": {
            "lat": 36.2172284,
            "lng": 138.0691375
          }
        },
        "location": {
          "lat": 36.4019126,
          "lng": 138.249075
        },
        "location_type": "APPROXIMATE",
        "viewport": {
          "northeast": {
            "lat": 36.554678,
            "lng": 138.4140233
          },
          "southwest": {
            "lat": 36.2172284,
            "lng": 138.0691375
          }
        }
      },
      "place_id": "ChIJsaSJhsy8HWARTFv1slYL1uE",
      "types": [
        "locality",
        "political"
      ]
    },
    {
      "address_components": [
        {
          "long_name": "長野県",
          "short_name": "長野県",
          "types": [
            "administrative_area_level_1",
            "political"
          ]
        },
        {
          "long_name": "日本",
          "short_name": "JP",
          "types": [
            "country",
            "political"
          ]
        }
      ],
      "formatted_address": "日本、長野県",
      "geometry": {
        "bounds": {
          "northeast": {
            "lat": 37.0303686,
            "lng": 138.739206
          },
          "southwest": {
            "lat": 35.1984262,
            "lng": 137.3244842
          }
        },
        "location": {
          "lat": 36.1543941,
          "lng": 137.9218204
        },
        "location_type": "APPROXIMATE",
        "viewport": {
          "northeast": {
            "lat": 37.0303686,
            "lng": 138.739206
          },
          "southwest": {
            "lat": 35.1984262,
            "lng": 137.3244842
          }
        }
      },
      "place_id": "ChIJa4zJGCMBHWARlAu_BE8rXAI",
      "types": [
        "administrative_area_level_1",
        "political"
      ]
    },
    {
      "address_components": [
        {
          "long_name": "日本",
          "short_name": "JP",
          "types": [
            "country",
            "political"
          ]
        }
      ],
      "formatted_address": "日本",
      "geometry": {
        "bounds": {
          "northeast": {
            "lat": 45.6412626,
            "lng": 154.0031455
          },
          "southwest": {
            "lat": 20.3585295,
            "lng": 122.8554688
          }
        },
        "location": {
          "lat": 36.204824,
          "lng": 138.252924
        },
        "location_type": "APPROXIMATE",
        "viewport": {
          "northeast": {
            "lat": 45.6412626,
            "lng": 154.0031455
          },
          "southwest": {
            "lat": 20.3585295,
            "lng": 122.8554688
          }
        }
      },
      "place_id": "ChIJLxl_1w9OZzQRRFJmfNR1QvU",
      "types": [
        "country",
        "political"
      ]
    },
    {
      "address_components": [
        {
          "long_name": "97HC+VJ",
          "short_name": "97HC+VJ",
          "types": [
            "plus_code"
          ]
        },
        {
          "long_name": "上田市",
          "short_name": "上田市",
          "types": [
            "locality",
            "political"
          ]
        },
        {
          "long_name": "長野県",
          "short_name": "長野県",
          "types": [
            "administrative_area_level_1",
            "political"
          ]
        },
        {
          "long_name": "日本",
          "short_name": "JP",
          "types": [
            "country",
            "political"
          ]
        }
      ],
      "formatted_address": "97HC+VJ 日本、長野県上田市",
      "geometry": {
        "bounds": {
          "northeast": {
            "lat": 36.37975,
            "lng": 138.271625
          },
          "southwest": {
            "lat": 36.379625,
            "lng": 138.2715
          }
        },
        "location": {
          "lat": 36.379639,
          "lng": 138.2715
        },
        "location_type": "ROOFTOP",
        "viewport": {
          "northeast": {
            "lat": 36.3810364802915,
            "lng": 138.2729114802915
          },
          "southwest": {
            "lat": 36.3783385197085,
            "lng": 138.2702135197085
          }
        }
      },
      "place_id": "GhIJoKTAApgwQkARppvEILBIYUA",
      "plus_code": {
        "compound_code": "97HC+VJ 日本、長野県上田市",
        "global_code": "8Q8W97HC+VJ"
      },
      "types": [
        "plus_code"
      ]
    }
  ]
}