{
  "station": "本多治見",
  "lat": 35.328472,
  "lng": 137.12275,
  "plus_code": {
    "compound_code": "84HF+93 日本、岐阜県多治見市",
    "global_code": "8Q7V84HF+93"
  },
  "results": [
    {
      "address_components": [
        {
          "long_name": "１６３",
          "short_name": "１６３",
          "types": [
            "premise"
          ]
        },
        {
          "long_name": "１丁目",
          "short_name": "１丁目",
          "types": [
            "political",
            "sublocality",
            "sublocality_level_3"
          ]
        },
        {
          "long_name": "平和町",
          "short_name": "平和町",
          "types": [
            "political",
            "sublocality",
            "sublocality_level_2"
          ]
        },
        {
          "long_name": "多治見市",
          "short_name": "多治見市",
          "types": [
            "locality",
            "political"
          ]
        },
        {
          "long_name": "岐阜県",
          "short_name": "岐阜県",
          "types": [
            "administrative_area_level_1",
            "political"
          ]
        },
        {
          "long_name": "日本",
          "short_name": "JP",
          "types": [
            "country",
            "political"
          ]
        },
        {
          "long_name": "507-0827",
          "short_name": "507-0827",
          "types": [
            "postal_code"
          ]
        }
      ],
      "formatted_address": "日本、〒507-0827 岐阜県多治見市平和町１丁目１６３",
      "geometry": {
        "location": {
          "lat": 35.328467,
          "lng": 137.1228051
        },
        "location_type": "ROOFTOP",
        "viewport": {
          "northeast": {
            "lat": 35.3298159802915,
            "lng": 137.1241540802915
          },
          "southwest": {
            "lat": 35.3271180197085,
            "lng": 137.1214561197085
          }
        }
      },
      "place_id": "ChIJcyXH6m5qA2ARKVslCjMtTr0",
      "plus_code": {
        "compound_code": "84HF+94 日本、岐阜県多治見市",
        "global_code": "8Q7V84HF+94"
      },
      "types": [
        "street_address"
      ]
    },
    {
      "address_components": [
        {
          "long_name": "１６３",
          "short_name": "１６３",
          "types": [
            "premise"
          ]
        },
        {
          "long_name": "１丁目",
          "short_name": "１丁目",
          "types": [
            "political",
            "sublocality",
            "sublocality_level_3"
          ]
        },
        {
          "long_name": "平和町",
          "short_name": "平和町",
          "types": [
            "political",
            "sublocality",
            "sublocality_level_2"
          ]
        },
        {
          "long_name": "多治見市",
          "short_name": "多治見市",
          "types": [
            "locality",
            "political"
          ]
        },
        {
          "long_name": "岐阜県",
          "short_name": "岐阜県",
          "types": [
            "administrative_area_level_1",
            "political"
          ]
        },
        {
          "long_name": "日本",
          "short_name": "JP",
          "types": [
            "country",
            "political"
          ]
        },
        {
          "long_name": "507-0827",
          "short_name": "507-0827",
          "types": [
            "postal_code"
          ]
        }
      ],
      "formatted_address": "日本、〒507-0827 岐阜県多治見市平和町１丁目１６３",
      "geometry": {
        "location": {
          "lat": 35.328375,
          "lng": 137.122897
        },
        "location_type": "ROOFTOP",
        "viewport": {
          "northeast": {
            "lat": 35.3297239802915,
            "lng": 137.1242459802915
          },
          "southwest": {
            "lat": 35.32702601970851,
            "lng": 137.1215480197085
          }
        }
      },
      "place_id": "ChIJ5X7S6m5qA2ARy9noKT8PYJE",
      "plus_code": {
        "compound_code": "84HF+85 日本、岐阜県多治見市",
        "global_code": "8Q7V84HF+85"
      },
      "types": [
        "establishment",
        "point_of_interest"
      ]
    },
    {
      "address_components": [
        {
          "long_name": "７４−１",
          "short_name": "７４−１",
          "types": [
            "premise"
          ]
        },
        {
          "long_name": "１丁目",
          "short_name": "１丁目",
          "types": [
            "political",
            "sublocality",
            "sublocality_level_3"
          ]
        },
        {
          "long_name": "平和町",
          "short_name": "平和町",
          "types": [
            "political",
            "sublocality",
            "sublocality_level_2"
          ]
        },
        {
          "long_name": "多治見市",
          "short_name": "多治見市",
          "types": [
            "locality",
            "political"
          ]
        },
        {
          "long_name": "岐阜県",
          "short_name": "岐阜県",
          "types": [
            "administrative_area_level_1",
            "political"
          ]
        },
        {
          "long_name": "日本",
          "short_name": "JP",
          "types": [
            "country",
            "political"
          ]
        },
        {
          "long_name": "507-0827",
          "short_name": "507-0827",
          "types": [
            "postal_code"
          ]
        }
      ],
      "formatted_address": "日本、〒507-0827 岐阜県多治見市平和町１丁目７４−１",
      "geometry": {
        "bounds": {
          "northeast": {
            "lat": 35.3283501,
            "lng": 137.1225534
          },
          "southwest": {
            "lat": 35.32825330000001,
            "lng": 137.1223918
          }
        },
        "location": {
          "lat": 35.3283017,
          "lng": 137.1224897
        },
        "location_type": "ROOFTOP",
        "viewport": {
          "northeast": {
            "lat": 35.32965068029151,
            "lng": 137.1238215802915
          },
          "southwest": {
            "lat": 35.32695271970851,
            "lng": 137.1211236197085
          }
        }
      },
      "place_id": "ChIJIaXcxm5qA2ARusz58X5lPJ0",
      "types": [
        "premise"
      ]
    },
    {
      "address_components": [
        {
          "long_name": "Unnamed Road",
          "short_name": "Unnamed Road",
          "types": [
            "route"
          ]
        },
        {
          "long_name": "１丁目",
          "short_name": "１丁目",
          "types": [
            "political",
            "sublocality",
            "sublocality_level_3"
          ]
        },
        {
          "long_name": "平和町",
          "short_name": "平和町",
          "types": [
            "political",
            "sublocality",
            "sublocality_level_2"
          ]
        },
        {
          "long_name": "多治見市",
          "short_name": "多治見市",
          "types": [
            "locality",
            "political"
          ]
        },
        {
          "long_name": "岐阜県",
          "short_name": "岐阜県",
          "types": [
            "administrative_area_level_1",
            "political"
          ]
        },
        {
          "long_name": "日本",
          "short_name": "JP",
          "types": [
            "country",
            "political"
          ]
        },
        {
          "long_name": "507-0827",
          "short_name": "507-0827",
          "types": [
            "postal_code"
          ]
        }
      ],
      "formatted_address": "Unnamed Road, １丁目 平和町 多治見市 岐阜県 507-0827 日本",
      "geometry": {
        "bounds": {
          "northeast": {
            "lat": 35.3288255,
            "lng": 137.122859
          },
          "southwest": {
            "lat": 35.3280566,
            "lng": 137.122728
          }
        },
        "location": {
          "lat": 35.3284357,
          "lng": 137.1227497
        },
        "location_type": "GEOMETRIC_CENTER",
        "viewport": {
          "northeast": {
            "lat": 35.32979003029149,
            "lng": 137.1241424802915
          },
          "southwest": {
            "lat": 35.3270920697085,
            "lng": 137.1214445197085
          }
        }
      },
      "place_id": "ChIJXzLRwW5qA2AR5tsxN541Flk",
      "types": [
        "route"
      ]
    },
    {
      "address_components": [
        {
          "long_name": "１丁目",
          "short_name": "１丁目",
          "types": [
            "political",
            "sublocality",
            "sublocality_level_3"
          ]
        },
        {
          "long_name": "平和町",
          "short_name": "平和町",
          "types": [
            "political",
            "sublocality",
            "sublocality_level_2"
          ]
        },
        {
          "long_name": "多治見市",
          "short_name": "多治見市",
          "types": [
            "locality",
            "political"
          ]
        },
        {
          "long_name": "岐阜県",
          "short_name": "岐阜県",
          "types": [
            "administrative_area_level_1",
            "political"
          ]
        },
        {
          "long_name": "日本",
          "short_name": "JP",
          "types": [
            "country",
            "political"
          ]
        },
        {
          "long_name": "507-0827",
          "short_name": "507-0827",
          "types": [
            "postal_code"
          ]
        }
      ],
      "formatted_address": "日本、〒507-0827 岐阜県多治見市平和町１丁目",
      "geometry": {
        "bounds": {
          "northeast": {
            "lat": 35.3310308,
            "lng": 137.1246261
          },
          "southwest": {
            "lat": 35.3267686,
            "lng": 137.1210723
          }
        },
        "location": {
          "lat": 35.3289944,
          "lng": 137.1225087
        },
        "location_type": "APPROXIMATE",
        "viewport": {
          "northeast": {
            "lat": 35.3310308,
            "lng": 137.1246261
          },
          "southwest": {
            "lat": 35.3267686,
            "lng": 137.1210723
          }
        }
      },
      "place_id": "ChIJLwFO3G5qA2ARs_ODfSeWOzc",
      "types": [
        "political",
        "sublocality",
        "sublocality_level_3"
      ]
    },
    {
      "address_components": [
        {
          "long_name": "平和町",
          "short_name": "平和町",
          "types": [
            "political",
            "sublocality",
            "sublocality_level_2"
          ]
        },
        {
          "long_name": "多治見市",
          "short_name": "多治見市",
          "types": [
            "locality",
            "political"
          ]
        },
        {
          "long_name": "岐阜県",
          "short_name": "岐阜県",
          "types": [
            "administrative_area_level_1",
            "political"
          ]
        },
        {
          "long_name": "日本",
          "short_name": "JP",
          "types": [
            "country",
            "political"
          ]
        },
        {
          "long_name": "507-0827",
          "short_name": "507-0827",
          "types": [
            "postal_code"
          ]
        }
      ],
      "formatted_address": "日本、〒507-0827 岐阜県多治見市平和町",
      "geometry": {
        "bounds": {
          "northeast": {
            "lat": 35.3310308,
            "lng": 137.1246261
          },
          "southwest": {
            "lat": 35.3238005,
            "lng": 137.1110464
          }
        },
        "location": {
          "lat": 35.3272184,
          "lng": 137.1203773
        },
        "location_type": "APPROXIMATE",
        "viewport": {
          "northeast": {
            "lat": 35.3310308,
            "lng": 137.1246261
          },
          "southwest": {
            "lat": 35.3238005,
            "lng": 137.1110464
          }
        }
      },
      "place_id": "ChIJmdi1NmhqA2AR6l43SAS56Gs",
      "types": [
        "political",
        "sublocality",
        "sublocality_level_2"
      ]
    },
    {
      "address_components": [
        {
          "long_name": "507-0827",
          "short_name": "507-0827",
          "types": [
            "postal_code"
          ]
        },
        {
          "long_name": "平和町",
          "short_name": "平和町",
          "types": [
            "political",
            "sublocality",
            "sublocality_level_2"
          ]
        },
        {
          "long_name": "多治見市",
          "short_name": "多治見市",
          "types": [
            "locality",
            "political"
          ]
        },
        {
          "long_name": "岐阜県",
          "short_name": "岐阜県",
          "types": [
            "administrative_area_level_1",
            "political"
          ]
        },
        {
          "long_name": "日本",
          "short_name": "JP",
          "types": [
            "country",
            "political"
          ]
        }
      ],
      "formatted_address": "日本 〒507-0827",
      "geometry": {
        "bounds": {
          "northeast": {
            "lat": 35.3310308,
            "lng": 137.1246261
          },
          "southwest": {
            "lat": 35.3238005,
            "lng": 137.1110464
          }
        },
        "location": {
          "lat": 35.3272184,
          "lng": 137.1203773
        },
        "location_type": "APPROXIMATE",
        "viewport": {
          "northeast": {
            "lat": 35.3310308,
            "lng": 137.1246261
          },
          "southwest": {
            "lat": 35.3238005,
            "lng": 137.1110464
          }
        }
      },
      "place_id": "ChIJS51q1G5qA2ARQQaoDXsJH90",
      "types": [
        "postal_code"
      ]
    },
    {
      "address_components": [
        {
          "long_name": "多治見市",
          "short_name": "多治見市",
          "types": [
            "locality",
            "political"
          ]
        },
        {
          "long_name": "岐阜県",
          "short_name": "岐阜県",
          "types": [
            "administrative_area_level_1",
            "political"
          ]
        },
        {
          "long_name": "日本",
          "short_name": "JP",
          "types": [
            "country",
            "political"
          ]
        }
      ],
      "formatted_address": "日本、岐阜県多治見市",
      "geometry": {
        "bounds": {
          "northeast": {
            "lat": 35.4030491,
            "lng": 137.1864006
          },
          "southwest": {
            "lat": 35.2703422,
            "lng": 137.0459087
          }
        },
        "location": {
          "lat": 35.3327697,
          "lng": 137.1321388
        },
        "location_type": "APPROXIMATE",
        "viewport": {
          "northeast": {
            "lat": 35.4030491,
            "lng": 137.1864006
          },
          "southwest": {
            "lat": 35.2703422,
            "lng": 137.0459087
          }
        }
      },
      "place_id": "ChIJrQ2X519qA2ARJlle7zz6MQk",
      "types": [
        "locality",
        "political"
      ]
    },
    {
      "address_components": [
        {
          "long_name": "岐阜県",
          "short_name": "岐阜県",
          "types": [
            "administrative_area_level_1",
            "political"
          ]
        },
        {
          "long_name": "日本",
          "short_name": "JP",
          "types": [
            "country",
            "political"
          ]
        }
      ],
      "formatted_address": "日本、岐阜県",
      "geometry": {
        "bounds": {
          "northeast": {
            "lat": 36.465098,
            "lng": 137.6532657
          },
          "southwest": {
            "lat": 35.1337282,
            "lng": 136.2762022
          }
        },
        "location": {
          "lat": 35.7437491,
          "lng": 136.9805103
        },
        "location_type": "APPROXIMATE",
        "viewport": {
          "northeast": {
            "lat": 36.465098,
            "lng": 137.6532657
          },
          "southwest": {
            "lat": 35.1337282,
            "lng": 136.2762022
          }
        }
      },
      "place_id": "ChIJi8OICvLxAmARZ9bM7q0UJ68",
      "types": [
        "administrative_area_level_1",
        "political"
      ]
    },
    {
      "address_components": [
        {
          "long_name": "日本",
          "short_name": "JP",
          "types": [
            "country",
            "political"
          ]
        }
      ],
      "formatted_address": "日本",
      "geometry": {
        "bounds": {
          "northeast": {
            "lat": 45.6412626,
            "lng": 154.0031455
          },
          "southwest": {
            "lat": 20.3585295,
            "lng": 122.8554688
          }
        },
        "location": {
          "lat": 36.204824,
          "lng": 138.252924
        },
        "location_type": "APPROXIMATE",
        "viewport": {
          "northeast": {
            "lat": 45.6412626,
            "lng": 154.0031455
          },
          "southwest": {
            "lat": 20.3585295,
            "lng": 122.8554688
          }
        }
      },
      "place_id": "ChIJLxl_1w9OZzQRRFJmfNR1QvU",
      "types": [
        "country",
        "political"
      ]
    },
    {
      "address_components": [
        {
          "long_name": "84HF+93",
          "short_name": "84HF+93",
          "types": [
            "plus_code"
          ]
        },
        {
          "long_name": "多治見市",
          "short_name": "多治見市",
          "types": [
            "locality",
            "political"
          ]
        },
        {
          "long_name": "岐阜県",
          "short_name": "岐阜県",
          "types": [
            "administrative_area_level_1",
            "political"
          ]
        },
        {
          "long_name": "日本",
          "short_name": "JP",
          "types": [
            "country",
            "political"
          ]
        }
      ],
      "formatted_address": "84HF+93 日本、岐阜県多治見市",
      "geometry": {
        "bounds": {
          "northeast": {
            "lat": 35.3285,
            "lng": 137.12275
          },
          "southwest": {
            "lat": 35.328375,
            "lng": 137.122625
          }
        },
        "location": {
          "lat": 35.328472,
          "lng": 137.12275
        },
        "location_type": "ROOFTOP",
        "viewport": {
          "northeast": {
            "lat": 35.3297864802915,
            "lng": 137.1240364802915
          },
          "southwest": {
            "lat": 35.3270885197085,
            "lng": 137.1213385197085
          }
        }
      },
      "place_id": "GhIJa9PYXguqQUARsHJoke0jYUA",
      "plus_code": {
        "compound_code": "84HF+93 日本、岐阜県多治見市",
        "global_code": "8Q7V84HF+93"
      },
      "types": [
        "plus_code"
      ]
    }
  ]
}