{
  "station": "下津井",
  "lat": 34.439004,
  "lng": 133.789556,
  "plus_code": {
    "compound_code": "CQQQ+JR 日本、岡山県倉敷市",
    "global_code": "8Q6MCQQQ+JR"
  },
  "results": [
    {
      "address_components": [
        {
          "long_name": "２４",
          "short_name": "２４",
          "types": [
            "premise"
          ]
        },
        {
          "long_name": "４",
          "short_name": "４",
          "types": [
            "political",
            "sublocality",
            "sublocality_level_4"
          ]
        },
        {
          "long_name": "４丁目",
          "short_name": "４丁目",
          "types": [
            "political",
            "sublocality",
            "sublocality_level_3"
          ]
        },
        {
          "long_name": "下津井",
          "short_name": "下津井",
          "types": [
            "political",
            "sublocality",
            "sublocality_level_2"
          ]
        },
        {
          "long_name": "倉敷市",
          "short_name": "倉敷市",
          "types": [
            "locality",
            "political"
          ]
        },
        {
          "long_name": "岡山県",
          "short_name": "岡山県",
          "types": [
            "administrative_area_level_1",
            "political"
          ]
        },
        {
          "long_name": "日本",
          "short_name": "JP",
          "types": [
            "country",
            "political"
          ]
        },
        {
          "long_name": "711-0927",
          "short_name": "711-0927",
          "types": [
            "postal_code"
          ]
        }
      ],
      "formatted_address": "日本、〒711-0927 岡山県倉敷市下津井４丁目４−２４",
      "geometry": {
        "location": {
          "lat": 34.4389351,
          "lng": 133.7896713
        },
        "location_type": "ROOFTOP",
        "viewport": {
          "northeast": {
            "lat": 34.4402840802915,
            "lng": 133.7910202802915
          },
          "southwest": {
            "lat": 34.4375861197085,
            "lng": 133.7883223197085
          }
        }
      },
      "place_id": "ChIJIdMNPHxfUTURPvHbSu6BfoY",
      "plus_code": {
        "compound_code": "CQQQ+HV 日本、岡山県 倉敷市",
        "global_code": "8Q6MCQQQ+HV"
      },
      "types": [
        "establishment",
        "point_of_interest"
      ]
    },
    {
      "address_components": [
        {
          "long_name": "６５",
          "short_name": "６５",
          "types": [
            "premise"
          ]
        },
        {
          "long_name": "２",
          "short_name": "２",
          "types": [
            "political",
            "sublocality",
            "sublocality_level_4"
          ]
        },
        {
          "long_name": "４丁目",
          "short_name": "４丁目",
          "types": [
            "political",
            "sublocality",
            "sublocality_level_3"
          ]
        },
        {
          "long_name": "下津井",
          "short_name": "下津井",
          "types": [
            "political",
            "sublocality",
            "sublocality_level_2"
          ]
        },
        {
          "long_name": "倉敷市",
          "short_name": "倉敷市",
          "types": [
            "locality",
            "political"
          ]
        },
        {
          "long_name": "岡山県",
          "short_name": "岡山県",
          "types": [
            "administrative_area_level_1",
            "political"
          ]
        },
        {
          "long_name": "日本",
          "short_name": "JP",
          "types": [
            "country",
            "political"
          ]
        },
        {
          "long_name": "711-0927",
          "short_name": "711-0927",
          "types": [
            "postal_code"
          ]
        }
      ],
      "formatted_address": "日本、〒711-0927 岡山県倉敷市下津井４丁目２−６５",
      "geometry": {
        "location": {
          "lat": 34.4391585,
          "lng": 133.7894075
        },
        "location_type": "ROOFTOP",
        "viewport": {
          "northeast": {
            "lat": 34.4405074802915,
            "lng": 133.7907564802915
          },
          "southwest": {
            "lat": 34.4378095197085,
            "lng": 133.7880585197085
          }
        }
      },
      "place_id": "ChIJR38jwX1fUTURaZa-L4rDwrU",
      "plus_code": {
        "compound_code": "CQQQ+MQ 日本、岡山県 倉敷市",
        "global_code": "8Q6MCQQQ+MQ"
      },
      "types": [
        "street_address"
      ]
    },
    {
      "address_components": [
        {
          "long_name": "３",
          "short_name": "３",
          "types": [
            "premise"
          ]
        },
        {
          "long_name": "１",
          "short_name": "１",
          "types": [
            "political",
            "sublocality",
            "sublocality_level_4"
          ]
        },
        {
          "long_name": "４丁目",
          "short_name": "４丁目",
          "types": [
            "political",
            "sublocality",
            "sublocality_level_3"
          ]
        },
        {
          "long_name": "下津井",
          "short_name": "下津井",
          "types": [
            "political",
            "sublocality",
            "sublocality_level_2"
          ]
        },
        {
          "long_name": "倉敷市",
          "short_name": "倉敷市",
          "types": [
            "locality",
            "political"
          ]
        },
        {
          "long_name": "岡山県",
          "short_name": "岡山県",
          "types": [
            "administrative_area_level_1",
            "political"
          ]
        },
        {
          "long_name": "日本",
          "short_name": "JP",
          "types": [
            "country",
            "political"
          ]
        },
        {
          "long_name": "711-0927",
          "short_name": "711-0927",
          "types": [
            "postal_code"
          ]
        }
      ],
      "formatted_address": "日本、〒711-0927 岡山県倉敷市下津井４丁目１−３",
      "geometry": {
        "bounds": {
          "northeast": {
            "lat": 34.4393803,
            "lng": 133.7900547
          },
          "southwest": {
            "lat": 34.439171,
            "lng": 133.7898034
          }
        },
        "location": {
          "lat": 34.4392758,
          "lng": 133.789911
        },
        "location_type": "ROOFTOP",
        "viewport": {
          "northeast": {
            "lat": 34.4406246302915,
            "lng": 133.7912780302915
          },
          "southwest": {
            "lat": 34.4379266697085,
            "lng": 133.7885800697085
          }
        }
      },
      "place_id": "ChIJk0h5lH1fUTUR1yBqzYtGzOs",
      "types": [
        "premise"
      ]
    },
    {
      "address_components": [
        {
          "long_name": "下津井",
          "short_name": "下津井",
          "types": [
            "establishment",
            "point_of_interest",
            "transit_station"
          ]
        },
        {
          "long_name": "１",
          "short_name": "１",
          "types": [
            "political",
            "sublocality",
            "sublocality_level_4"
          ]
        },
        {
          "long_name": "４丁目",
          "short_name": "４丁目",
          "types": [
            "political",
            "sublocality",
            "sublocality_level_3"
          ]
        },
        {
          "long_name": "下津井",
          "short_name": "下津井",
          "types": [
            "political",
            "sublocality",
            "sublocality_level_2"
          ]
        },
        {
          "long_name": "倉敷市",
          "short_name": "倉敷市",
          "types": [
            "locality",
            "political"
          ]
        },
        {
          "long_name": "岡山県",
          "short_name": "岡山県",
          "types": [
            "administrative_area_level_1",
            "political"
          ]
        },
        {
          "long_name": "日本",
          "short_name": "JP",
          "types": [
            "country",
            "political"
          ]
        },
        {
          "long_name": "711-0927",
          "short_name": "711-0927",
          "types": [
            "postal_code"
          ]
        }
      ],
      "formatted_address": "日本、〒711-0927 岡山県倉敷市下津井４丁目１ 下津井",
      "geometry": {
        "location": {
          "lat": 34.438954,
          "lng": 133.790215
        },
        "location_type": "GEOMETRIC_CENTER",
        "viewport": {
          "northeast": {
            "lat": 34.44030298029149,
            "lng": 133.7915639802915
          },
          "southwest": {
            "lat": 34.43760501970849,
            "lng": 133.7888660197085
          }
        }
      },
      "place_id": "ChIJoV1S7X1fUTURUZ5u0jm3ai8",
      "plus_code": {
        "compound_code": "CQQR+H3 日本、岡山県 倉敷市",
        "global_code": "8Q6MCQQR+H3"
      },
      "types": [
        "establishment",
        "point_of_interest",
        "transit_station"
      ]
    },
    {
      "address_components": [
        {
          "long_name": "岡山児島線",
          "short_name": "県道21号",
          "types": [
            "route"
          ]
        },
        {
          "long_name": "３丁目",
          "short_name": "３丁目",
          "types": [
            "political",
            "sublocality",
            "sublocality_level_3"
          ]
        },
        {
          "long_name": "下津井",
          "short_name": "下津井",
          "types": [
            "political",
            "sublocality",
            "sublocality_level_2"
          ]
        },
        {
          "long_name": "倉敷市",
          "short_name": "倉敷市",
          "types": [
            "locality",
            "political"
          ]
        },
        {
          "long_name": "岡山県",
          "short_name": "岡山県",
          "types": [
            "administrative_area_level_1",
            "political"
          ]
        },
        {
          "long_name": "日本",
          "short_name": "JP",
          "types": [
            "country",
            "political"
          ]
        },
        {
          "long_name": "711-0927",
          "short_name": "711-0927",
          "types": [
            "postal_code"
          ]
        }
      ],
      "formatted_address": "日本、〒711-0927 岡山県倉敷市下津井３丁目 県道21号",
      "geometry": {
        "bounds": {
          "northeast": {
            "lat": 34.4396441,
            "lng": 133.7899134
          },
          "southwest": {
            "lat": 34.4394947,
            "lng": 133.7895937
          }
        },
        "location": {
          "lat": 34.4395571,
          "lng": 133.7897451
        },
        "location_type": "GEOMETRIC_CENTER",
        "viewport": {
          "northeast": {
            "lat": 34.4409183802915,
            "lng": 133.7911025302915
          },
          "southwest": {
            "lat": 34.4382204197085,
            "lng": 133.7884045697085
          }
        }
      },
      "place_id": "ChIJzV1Oln1fUTUR8j5kIY6_AxU",
      "types": [
        "route"
      ]
    },
    {
      "address_components": [
        {
          "long_name": "２",
          "short_name": "２",
          "types": [
            "political",
            "sublocality",
            "sublocality_level_4"
          ]
        },
        {
          "long_name": "４丁目",
          "short_name": "４丁目",
          "types": [
            "political",
            "sublocality",
            "sublocality_level_3"
          ]
        },
        {
          "long_name": "下津井",
          "short_name": "下津井",
          "types": [
            "political",
            "sublocality",
            "sublocality_level_2"
          ]
        },
        {
          "long_name": "倉敷市",
          "short_name": "倉敷市",
          "types": [
            "locality",
            "political"
          ]
        },
        {
          "long_name": "岡山県",
          "short_name": "岡山県",
          "types": [
            "administrative_area_level_1",
            "political"
          ]
        },
        {
          "long_name": "日本",
          "short_name": "JP",
          "types": [
            "country",
            "political"
          ]
        },
        {
          "long_name": "711-0927",
          "short_name": "711-0927",
          "types": [
            "postal_code"
          ]
        }
      ],
      "formatted_address": "日本、〒711-0927 岡山県倉敷市下津井４丁目２",
      "geometry": {
        "bounds": {
          "northeast": {
            "lat": 34.439612,
            "lng": 133.789775
          },
          "southwest": {
            "lat": 34.43756,
            "lng": 133.7884938
          }
        },
        "location": {
          "lat": 34.4384351,
          "lng": 133.7892009
        },
        "location_type": "GEOMETRIC_CENTER",
        "viewport": {
          "northeast": {
            "lat": 34.4399349802915,
            "lng": 133.7904833802915
          },
          "southwest": {
            "lat": 34.4372370197085,
            "lng": 133.7877854197085
          }
        }
      },
      "place_id": "ChIJOcIb2n1fUTURWT7AnX9chFk",
      "types": [
        "political",
        "sublocality",
        "sublocality_level_4"
      ]
    },
    {
      "address_components": [
        {
          "long_name": "４丁目",
          "short_name": "４丁目",
          "types": [
            "political",
            "sublocality",
            "sublocality_level_3"
          ]
        },
        {
          "long_name": "下津井",
          "short_name": "下津井",
          "types": [
            "political",
            "sublocality",
            "sublocality_level_2"
          ]
        },
        {
          "long_name": "倉敷市",
          "short_name": "倉敷市",
          "types": [
            "locality",
            "political"
          ]
        },
        {
          "long_name": "岡山県",
          "short_name": "岡山県",
          "types": [
            "administrative_area_level_1",
            "political"
          ]
        },
        {
          "long_name": "日本",
          "short_name": "JP",
          "types": [
            "country",
            "political"
          ]
        },
        {
          "long_name": "711-0927",
          "short_name": "711-0927",
          "types": [
            "postal_code"
          ]
        }
      ],
      "formatted_address": "日本、〒711-0927 岡山県倉敷市下津井４丁目",
      "geometry": {
        "bounds": {
          "northeast": {
            "lat": 34.441196,
            "lng": 133.791496
          },
          "southwest": {
            "lat": 34.435019,
            "lng": 133.782189
          }
        },
        "location": {
          "lat": 34.4380406,
          "lng": 133.7872575
        },
        "location_type": "APPROXIMATE",
        "viewport": {
          "northeast": {
            "lat": 34.441196,
            "lng": 133.791496
          },
          "southwest": {
            "lat": 34.435019,
            "lng": 133.782189
          }
        }
      },
      "place_id": "ChIJsT42uX5fUTURRbDIFnzx2VE",
      "types": [
        "political",
        "sublocality",
        "sublocality_level_3"
      ]
    },
    {
      "address_components": [
        {
          "long_name": "711-0927",
          "short_name": "711-0927",
          "types": [
            "postal_code"
          ]
        },
        {
          "long_name": "下津井",
          "short_name": "下津井",
          "types": [
            "political",
            "sublocality",
            "sublocality_level_2"
          ]
        },
        {
          "long_name": "倉敷市",
          "short_name": "倉敷市",
          "types": [
            "locality",
            "political"
          ]
        },
        {
          "long_name": "岡山県",
          "short_name": "岡山県",
          "types": [
            "administrative_area_level_1",
            "political"
          ]
        },
        {
          "long_name": "日本",
          "short_name": "JP",
          "types": [
            "country",
            "political"
          ]
        }
      ],
      "formatted_address": "日本 〒711-0927",
      "geometry": {
        "bounds": {
          "northeast": {
            "lat": 34.4664827,
            "lng": 133.8378999
          },
          "southwest": {
            "lat": 34.4169601,
            "lng": 133.7069774
          }
        },
        "location": {
          "lat": 34.4430138,
          "lng": 133.7836695
        },
        "location_type": "APPROXIMATE",
        "viewport": {
          "northeast": {
            "lat": 34.4664827,
            "lng": 133.8378999
          },
          "southwest": {
            "lat": 34.4169601,
            "lng": 133.7069774
          }
        }
      },
      "place_id": "ChIJhTBKQ35fUTURVTytGNiEsRE",
      "types": [
        "postal_code"
      ]
    },
    {
      "address_components": [
        {
          "long_name": "下津井",
          "short_name": "下津井",
          "types": [
            "political",
            "sublocality",
            "sublocality_level_2"
          ]
        },
        {
          "long_name": "倉敷市",
          "short_name": "倉敷市",
          "types": [
            "locality",
            "political"
          ]
        },
        {
          "long_name": "岡山県",
          "short_name": "岡山県",
          "types": [
            "administrative_area_level_1",
            "political"
          ]
        },
        {
          "long_name": "日本",
          "short_name": "JP",
          "types": [
            "country",
            "political"
          ]
        },
        {
          "long_name": "711-0927",
          "short_name": "711-0927",
          "types": [
            "postal_code"
          ]
        }
      ],
      "formatted_address": "日本、〒711-0927 岡山県倉敷市下津井",
      "geometry": {
        "bounds": {
          "northeast": {
            "lat": 34.4664831,
            "lng": 133.8379
          },
          "southwest": {
            "lat": 34.41696,
            "lng": 133.706977
          }
        },
        "location": {
          "lat": 34.4430138,
          "lng": 133.7836695
        },
        "location_type": "APPROXIMATE",
        "viewport": {
          "northeast": {
            "lat": 34.4664831,
            "lng": 133.8379
          },
          "southwest": {
            "lat": 34.41696,
            "lng": 133.706977
          }
        }
      },
      "place_id": "ChIJPb3pLtLhUzURO7BBiQGN6gA",
      "types": [
        "political",
        "sublocality",
        "sublocality_level_2"
      ]
    },
    {
      "address_components": [
        {
          "long_name": "倉敷市",
          "short_name": "倉敷市",
          "types": [
            "locality",
            "political"
          ]
        },
        {
          "long_name": "岡山県",
          "short_name": "岡山県",
          "types": [
            "administrative_area_level_1",
            "political"
          ]
        },
        {
          "long_name": "日本",
          "short_name": "JP",
          "types": [
            "country",
            "political"
          ]
        }
      ],
      "formatted_address": "日本、岡山県倉敷市",
      "geometry": {
        "bounds": {
          "northeast": {
            "lat": 34.6694519,
            "lng": 133.88216
          },
          "southwest": {
            "lat": 34.4173279,
            "lng": 133.602364
          }
        },
        "location": {
          "lat": 34.5849782,
          "lng": 133.7719812
        },
        "location_type": "APPROXIMATE",
        "viewport": {
          "northeast": {
            "lat": 34.6694519,
            "lng": 133.88216
          },
          "southwest": {
            "lat": 34.4173279,
            "lng": 133.602364
          }
        }
      },
      "place_id": "ChIJHRYTPbhZUTURPsJqUXABtgM",
      "types": [
        "locality",
        "political"
      ]
    },
    {
      "address_components": [
        {
          "long_name": "岡山県",
          "short_name": "岡山県",
          "types": [
            "administrative_area_level_1",
            "political"
          ]
        },
        {
          "long_name": "日本",
          "short_name": "JP",
          "types": [
            "country",
            "political"
          ]
        }
      ],
      "formatted_address": "日本、岡山県",
      "geometry": {
        "bounds": {
          "northeast": {
            "lat": 35.3529353,
            "lng": 134.4128796
          },
          "southwest": {
            "lat": 34.2984259,
            "lng": 133.2667459
          }
        },
        "location": {
          "lat": 34.8963407,
          "lng": 133.6375314
        },
        "location_type": "APPROXIMATE",
        "viewport": {
          "northeast": {
            "lat": 35.3529353,
            "lng": 134.4128796
          },
          "southwest": {
            "lat": 34.2984259,
            "lng": 133.2667459
          }
        }
      },
      "place_id": "ChIJh5W24jhmVDURU20vGB0GIdI",
      "types": [
        "administrative_area_level_1",
        "political"
      ]
    },
    {
      "address_components": [
        {
          "long_name": "日本",
          "short_name": "JP",
          "types": [
            "country",
            "political"
          ]
        }
      ],
      "formatted_address": "日本",
      "geometry": {
        "bounds": {
          "northeast": {
            "lat": 45.6412626,
            "lng": 154.0031455
          },
          "southwest": {
            "lat": 20.3585295,
            "lng": 122.8554688
          }
        },
        "location": {
          "lat": 36.204824,
          "lng": 138.252924
        },
        "location_type": "APPROXIMATE",
        "viewport": {
          "northeast": {
            "lat": 45.6412626,
            "lng": 154.0031455
          },
          "southwest": {
            "lat": 20.3585295,
            "lng": 122.8554688
          }
        }
      },
      "place_id": "ChIJLxl_1w9OZzQRRFJmfNR1QvU",
      "types": [
        "country",
        "political"
      ]
    }
  ]
}