[
  {"code":1002,"company_code":3,"name":"東海道新幹線","name_formal":"東海道新幹線","lng":137.721489,"lat":35.144122,"zoom":7},
  {"code":1003,"company_code":4,"name":"山陽新幹線","name_formal":"山陽新幹線","lng":133.147896,"lat":34.419338,"zoom":7},
  {"code":1004,"company_code":2,"name":"東北新幹線","name_formal":"東北新幹線","lng":140.763192,"lat":38.274267,"zoom":7},
  {"code":1005,"company_code":2,"name":"上越新幹線","name_formal":"上越新幹線","lng":139.121488,"lat":36.798565,"zoom":8},
  {"code":1006,"company_code":2,"name":"上越新幹線(ガーラ湯沢支線)","name_formal":"上越新幹線(ガーラ湯沢支線)","lng":138.80325,"lat":36.942882,"zoom":14},
  {"code":1007,"company_code":2,"name":"山形新幹線","name_formal":"山形新幹線","lng":140.168478,"lat":37.588209,"zoom":8},
  {"code":1008,"company_code":2,"name":"秋田新幹線","name_formal":"秋田新幹線","lng":140.362254,"lat":37.757289,"zoom":7},
  {"code":1009,"company_code":2,"name":"北陸新幹線","name_formal":"北陸新幹線","lng":138.035698,"lat":36.185981,"zoom":8},
  {"code":1010,"company_code":6,"name":"九州新幹線","name_formal":"九州新幹線","lng":130.576824,"lat":32.79428,"zoom":8},
  {"code":1011,"company_code":1,"name":"北海道新幹線","name_formal":"北海道新幹線","lng":140.644226,"lat":42.094146,"zoom":7},
  {"code":11101,"company_code":1,"name":"JR函館本線(函館～長万部)","name_formal":"JR函館本線(函館～長万部)","lng":140.48337,"lat":42.239814,"zoom":9},
  {"code":11102,"company_code":1,"name":"JR函館本線(長万部～小樽)","name_formal":"JR函館本線(長万部～小樽)","lng":140.642888,"lat":42.91991,"zoom":9},
  {"code":11103,"company_code":1,"name":"JR函館本線(小樽～旭川)","name_formal":"JR函館本線(小樽～旭川)","lng":141.697911,"lat":43.415097,"zoom":9},
  {"code":11104,"company_code":1,"name":"JR室蘭本線(長万部・室蘭～苫小牧)","name_formal":"JR室蘭本線(長万部・室蘭～苫小牧)","lng":141.006394,"lat":42.570717,"zoom":9},
  {"code":11105,"company_code":1,"name":"JR室蘭本線(苫小牧～岩見沢)","name_formal":"JR室蘭本線(苫小牧～岩見沢)","lng":141.744499,"lat":42.938417,"zoom":10},
  {"code":11106,"company_code":1,"name":"JR根室本線(滝川～新得)","name_formal":"JR根室本線(滝川～新得)","lng":142.335533,"lat":43.359751,"zoom":10},
  {"code":11107,"company_code":1,"name":"JR根室本線(新得～釧路)","name_formal":"JR根室本線(新得～釧路)","lng":143.564744,"lat":42.965675,"zoom":9},
  {"code":11108,"company_code":1,"name":"花咲線","name_formal":"JR根室本線(釧路～根室)","lng":145.064288,"lat":43.127555,"zoom":9},
  {"code":11109,"company_code":1,"name":"JR千歳線","name_formal":"JR千歳線","lng":141.567569,"lat":42.885851,"zoom":10},
  {"code":11110,"company_code":1,"name":"JR石勝線","name_formal":"JR石勝線","lng":142.12081,"lat":42.97761,"zoom":9},
  {"code":11111,"company_code":1,"name":"JR日高本線","name_formal":"JR日高本線","lng":142.189228,"lat":42.43949,"zoom":9},
  {"code":11112,"company_code":1,"name":"JR札沼線","name_formal":"JR札沼線","lng":141.65751,"lat":43.330449,"zoom":10},
  {"code":11113,"company_code":1,"name":"JR留萌本線","name_formal":"JR留萌本線","lng":141.763792,"lat":43.847331,"zoom":10},
  {"code":11114,"company_code":1,"name":"JR富良野線","name_formal":"JR富良野線","lng":142.429333,"lat":43.609838,"zoom":10},
  {"code":11115,"company_code":1,"name":"JR宗谷本線","name_formal":"JR宗谷本線","lng":142.225614,"lat":44.65873,"zoom":8},
  {"code":11116,"company_code":1,"name":"JR石北本線","name_formal":"JR石北本線","lng":143.362946,"lat":43.961388,"zoom":8},
  {"code":11117,"company_code":1,"name":"JR釧網本線","name_formal":"JR釧網本線","lng":144.433766,"lat":43.523739,"zoom":9},
  {"code":11118,"company_code":1,"name":"JR海峡線","name_formal":"JR海峡線","lng":140.329047,"lat":41.366575,"zoom":9},
  {"code":11119,"company_code":1,"name":"JR江差線","name_formal":"JR江差線","lng":140.416821,"lat":41.775382,"zoom":10,"closed":true},
  {"code":11201,"company_code":2,"name":"JR東北本線(八戸～青森)","name_formal":"JR東北本線(八戸～青森)","lng":141.147228,"lat":40.697919,"zoom":10,"closed":true},
  {"code":11202,"company_code":2,"name":"JR奥羽本線(新庄～青森)","name_formal":"JR奥羽本線(新庄～青森)","lng":140.442717,"lat":39.922271,"zoom":8},
  {"code":11231,"company_code":2,"name":"JR東北本線(黒磯～利府・盛岡)","name_formal":"JR東北本線(黒磯～利府・盛岡)","lng":140.898125,"lat":38.461424,"zoom":8},
  {"code":11203,"company_code":2,"name":"はまなすベイライン大湊線","name_formal":"JR大湊線","lng":141.234189,"lat":41.077048,"zoom":10},
  {"code":11204,"company_code":2,"name":"JR五能線","name_formal":"JR五能線","lng":140.1536,"lat":40.622488,"zoom":9},
  {"code":11205,"company_code":2,"name":"JR津軽線","name_formal":"JR津軽線","lng":140.637964,"lat":40.997249,"zoom":10},
  {"code":11206,"company_code":2,"name":"JR八戸線","name_formal":"JR八戸線","lng":141.701934,"lat":40.402643,"zoom":10},
  {"code":11207,"company_code":2,"name":"JR岩泉線","name_formal":"JR岩泉線","lng":141.711091,"lat":39.752567,"zoom":11,"closed":true},
  {"code":11208,"company_code":2,"name":"ドラゴンレール大船渡線","name_formal":"JR大船渡線","lng":141.47243,"lat":38.961641,"zoom":10},
  {"code":11209,"company_code":2,"name":"銀河ドリームライン釜石線","name_formal":"JR釜石線","lng":141.527912,"lat":39.326365,"zoom":10},
  {"code":11210,"company_code":2,"name":"JR北上線","name_formal":"JR北上線","lng":140.846624,"lat":39.304719,"zoom":10},
  {"code":11211,"company_code":2,"name":"JR田沢湖線","name_formal":"JR田沢湖線","lng":140.768567,"lat":39.693448,"zoom":10},
  {"code":11212,"company_code":2,"name":"十和田八幡平四季彩ライン","name_formal":"JR花輪線","lng":140.845349,"lat":40.133731,"zoom":10},
  {"code":11213,"company_code":2,"name":"JR山田線","name_formal":"JR山田線","lng":141.666787,"lat":39.596929,"zoom":9},
  {"code":11214,"company_code":2,"name":"JR羽越本線","name_formal":"JR羽越本線","lng":139.76178,"lat":38.732941,"zoom":8},
  {"code":11215,"company_code":2,"name":"JR男鹿線","name_formal":"JR男鹿線","lng":139.958679,"lat":39.8924,"zoom":11},
  {"code":11216,"company_code":2,"name":"山形線","name_formal":"JR奥羽本線(福島～新庄)","lng":140.283354,"lat":38.307715,"zoom":9},
  {"code":11217,"company_code":2,"name":"JR仙山線","name_formal":"JR仙山線","lng":140.599619,"lat":38.3147,"zoom":10},
  {"code":11218,"company_code":2,"name":"フルーツライン左沢線","name_formal":"JR左沢線","lng":140.28081,"lat":38.335651,"zoom":12},
  {"code":11219,"company_code":2,"name":"JR米坂線","name_formal":"JR米坂線","lng":139.770357,"lat":38.044984,"zoom":10},
  {"code":11220,"company_code":2,"name":"奥の細道最上川ライン","name_formal":"JR陸羽西線","lng":140.096185,"lat":38.755341,"zoom":10},
  {"code":11221,"company_code":2,"name":"奥の細道湯けむりライン","name_formal":"JR陸羽東線","lng":140.681304,"lat":38.73004,"zoom":10},
  {"code":11222,"company_code":2,"name":"JR仙石線","name_formal":"JR仙石線","lng":141.072642,"lat":38.366342,"zoom":11},
  {"code":11223,"company_code":2,"name":"JR石巻線","name_formal":"JR石巻線","lng":141.252299,"lat":38.486868,"zoom":11},
  {"code":11224,"company_code":2,"name":"JR気仙沼線","name_formal":"JR気仙沼線","lng":141.464458,"lat":38.69618,"zoom":10},
  {"code":11225,"company_code":2,"name":"JR磐越西線(郡山～会津若松)","name_formal":"JR磐越西線(郡山～会津若松)","lng":140.130791,"lat":37.517734,"zoom":10},
  {"code":11226,"company_code":2,"name":"森と水とロマンの鉄道","name_formal":"JR磐越西線(森と水とロマンの鉄道)","lng":139.479249,"lat":37.686232,"zoom":9},
  {"code":11227,"company_code":2,"name":"JR只見線","name_formal":"JR只見線","lng":139.447807,"lat":37.391765,"zoom":9},
  {"code":11228,"company_code":2,"name":"ゆうゆうあぶくまライン","name_formal":"JR磐越東線","lng":140.642612,"lat":37.269777,"zoom":10},
  {"code":11229,"company_code":2,"name":"JR常磐線(取手～いわき)","name_formal":"JR常磐線(取手～いわき)","lng":140.518874,"lat":36.519004,"zoom":9},
  {"code":11230,"company_code":2,"name":"JR常磐線(いわき～仙台)","name_formal":"JR常磐線(いわき～仙台)","lng":140.93342,"lat":37.661556,"zoom":9},
  {"code":11301,"company_code":2,"name":"JR東海道本線(東京～熱海)","name_formal":"JR東海道本線(東京～熱海)","lng":139.430244,"lat":35.39508,"zoom":10},
  {"code":11302,"company_code":2,"name":"JR山手線","name_formal":"JR山手線","lng":139.735223,"lat":35.693027,"zoom":12},
  {"code":11303,"company_code":2,"name":"JR南武線","name_formal":"JR南武線","lng":139.562183,"lat":35.621268,"zoom":11},
  {"code":11304,"company_code":2,"name":"JR鶴見線","name_formal":"JR鶴見線","lng":139.697342,"lat":35.503227,"zoom":13},
  {"code":11305,"company_code":2,"name":"JR武蔵野線","name_formal":"JR武蔵野線","lng":139.705113,"lat":35.802577,"zoom":10},
  {"code":11306,"company_code":2,"name":"JR横浜線","name_formal":"JR横浜線","lng":139.471119,"lat":35.561004,"zoom":11},
  {"code":11307,"company_code":2,"name":"JR根岸線","name_formal":"JR根岸線","lng":139.598679,"lat":35.414846,"zoom":12},
  {"code":11308,"company_code":2,"name":"JR横須賀線","name_formal":"JR横須賀線","lng":139.647619,"lat":35.483405,"zoom":10},
  {"code":11309,"company_code":2,"name":"JR相模線","name_formal":"JR相模線","lng":139.367802,"lat":35.483175,"zoom":11},
  {"code":11311,"company_code":2,"name":"JR中央本線(東京～塩尻)","name_formal":"JR中央本線(東京～塩尻)","lng":138.617358,"lat":35.770367,"zoom":9},
  {"code":11312,"company_code":2,"name":"JR中央線(快速)","name_formal":"JR中央線(快速)","lng":139.537988,"lat":35.70017,"zoom":10},
  {"code":11313,"company_code":2,"name":"JR中央・総武線","name_formal":"JR中央・総武緩行線","lng":139.837155,"lat":35.701641,"zoom":10},
  {"code":11314,"company_code":2,"name":"JR総武本線","name_formal":"JR総武本線","lng":140.254661,"lat":35.687903,"zoom":9},
  {"code":11315,"company_code":2,"name":"JR青梅線","name_formal":"JR青梅線","lng":139.240041,"lat":35.782573,"zoom":11},
  {"code":11316,"company_code":2,"name":"JR五日市線","name_formal":"JR五日市線","lng":139.291657,"lat":35.72583,"zoom":12},
  {"code":11317,"company_code":2,"name":"JR八高線(八王子～高麗川)","name_formal":"JR八高線(八王子～高麗川)","lng":139.332994,"lat":35.780502,"zoom":11},
  {"code":11318,"company_code":2,"name":"JR八高線(高麗川～高崎)","name_formal":"JR八高線(高麗川～高崎)","lng":139.179653,"lat":36.121042,"zoom":10},
  {"code":11319,"company_code":2,"name":"宇都宮線","name_formal":"JR東北本線","lng":139.846403,"lat":36.379439,"zoom":9},
  {"code":11320,"company_code":2,"name":"JR常磐線(上野～取手)","name_formal":"JR常磐線(上野～取手)","lng":139.923813,"lat":35.819719,"zoom":11},
  {"code":11321,"company_code":2,"name":"JR埼京線","name_formal":"JR埼京線","lng":139.618202,"lat":35.803196,"zoom":11},
  {"code":11322,"company_code":2,"name":"JR川越線","name_formal":"JR川越線","lng":139.469343,"lat":35.90961,"zoom":11},
  {"code":11323,"company_code":2,"name":"JR高崎線","name_formal":"JR高崎線","lng":139.452181,"lat":36.095736,"zoom":9},
  {"code":11324,"company_code":2,"name":"JR外房線","name_formal":"JR外房線","lng":140.27983,"lat":35.348739,"zoom":10},
  {"code":11325,"company_code":2,"name":"JR内房線","name_formal":"JR内房線","lng":139.948081,"lat":35.293288,"zoom":9},
  {"code":11326,"company_code":2,"name":"JR京葉線","name_formal":"JR京葉線","lng":139.93611,"lat":35.64365,"zoom":11},
  {"code":11327,"company_code":2,"name":"JR成田線","name_formal":"JR成田線","lng":140.372388,"lat":35.862765,"zoom":10},
  {"code":11328,"company_code":2,"name":"JR成田エクスプレス","name_formal":"JR成田エクスプレス","lng":139.757198,"lat":35.692121,"zoom":9},
  {"code":11329,"company_code":2,"name":"JR鹿島線","name_formal":"JR鹿島線","lng":140.564697,"lat":35.942684,"zoom":12},
  {"code":11330,"company_code":2,"name":"JR久留里線","name_formal":"JR久留里線","lng":140.0465,"lat":35.350678,"zoom":11},
  {"code":11331,"company_code":2,"name":"JR東金線","name_formal":"JR東金線","lng":140.368059,"lat":35.562329,"zoom":12},
  {"code":11332,"company_code":2,"name":"JR京浜東北線","name_formal":"JR京浜東北線","lng":139.642512,"lat":35.639296,"zoom":10},
  {"code":11333,"company_code":2,"name":"JR湘南新宿ライン","name_formal":"JR湘南新宿ライン","lng":139.622944,"lat":35.6574,"zoom":10},
  {"code":11343,"company_code":2,"name":"上野東京ライン","name_formal":"上野東京ライン","lng":139.7721,"lat":35.697456,"zoom":14},
  {"code":11334,"company_code":2,"name":"JR烏山線","name_formal":"JR烏山線","lng":140.064979,"lat":36.65874,"zoom":12},
  {"code":11335,"company_code":2,"name":"JR吾妻線","name_formal":"JR吾妻線","lng":138.791304,"lat":36.552041,"zoom":10},
  {"code":11337,"company_code":2,"name":"JR信越本線","name_formal":"JR信越本線","lng":138.880775,"lat":36.330382,"zoom":11},
  {"code":11338,"company_code":2,"name":"JR水郡線","name_formal":"JR水郡線","lng":140.462154,"lat":36.922047,"zoom":9},
  {"code":11339,"company_code":2,"name":"JR水戸線","name_formal":"JR水戸線","lng":140.051321,"lat":36.333565,"zoom":10},
  {"code":11340,"company_code":2,"name":"JR日光線","name_formal":"JR日光線","lng":139.752941,"lat":36.636143,"zoom":11},
  {"code":11341,"company_code":2,"name":"JR両毛線","name_formal":"JR両毛線","lng":139.38788,"lat":36.356774,"zoom":10},
  {"code":11342,"company_code":2,"name":"JR上越線","name_formal":"JR上越線","lng":138.892419,"lat":36.915387,"zoom":9},
  {"code":11401,"company_code":2,"name":"八ヶ岳高原線","name_formal":"JR小海線","lng":138.439481,"lat":36.091697,"zoom":10},
  {"code":11402,"company_code":3,"name":"JR身延線","name_formal":"JR身延線","lng":138.532397,"lat":35.392163,"zoom":10},
  {"code":11403,"company_code":2,"name":"JR信越本線(篠ノ井～長野)","name_formal":"JR信越本線(篠ノ井～長野)","lng":138.159816,"lat":36.608596,"zoom":12},
  {"code":11404,"company_code":2,"name":"JR信越本線(直江津～新潟)","name_formal":"JR信越本線(直江津～新潟)","lng":138.759545,"lat":37.511082,"zoom":9},
  {"code":11405,"company_code":4,"name":"JR北陸本線(富山～直江津)","name_formal":"JR北陸本線(富山～直江津)","lng":137.718501,"lat":37.015009,"zoom":9,"closed":true},
  {"code":11406,"company_code":2,"name":"JR白新線","name_formal":"JR白新線","lng":139.190471,"lat":37.924007,"zoom":11},
  {"code":11407,"company_code":2,"name":"JR飯山線","name_formal":"JR飯山線","lng":138.541732,"lat":36.98446,"zoom":10},
  {"code":11408,"company_code":2,"name":"JR越後線","name_formal":"JR越後線","lng":138.834,"lat":37.626749,"zoom":10},
  {"code":11409,"company_code":2,"name":"北アルプス線","name_formal":"JR大糸線","lng":137.873509,"lat":36.676128,"zoom":9},
  {"code":11410,"company_code":2,"name":"JR弥彦線","name_formal":"JR弥彦線","lng":138.904435,"lat":37.673318,"zoom":12},
  {"code":11411,"company_code":3,"name":"JR中央本線(名古屋～塩尻)","name_formal":"JR中央本線(名古屋～塩尻)","lng":137.468492,"lat":35.662471,"zoom":9},
  {"code":11412,"company_code":2,"name":"JR篠ノ井線","name_formal":"JR篠ノ井線","lng":138.017277,"lat":36.384225,"zoom":10},
  {"code":11413,"company_code":3,"name":"JR飯田線(豊橋～天竜峡)","name_formal":"JR飯田線(豊橋～天竜峡)","lng":137.668949,"lat":35.125648,"zoom":10},
  {"code":11414,"company_code":3,"name":"JR飯田線(天竜峡～辰野)","name_formal":"JR飯田線(天竜峡～辰野)","lng":137.898635,"lat":35.759902,"zoom":10},
  {"code":11415,"company_code":4,"name":"JR北陸本線(米原～金沢)","name_formal":"JR北陸本線(米原～金沢)","lng":136.44251,"lat":36.333933,"zoom":8},
  {"code":11416,"company_code":3,"name":"JR高山本線","name_formal":"JR高山本線","lng":137.143739,"lat":36.03507,"zoom":9},
  {"code":11417,"company_code":4,"name":"JR城端線","name_formal":"JR城端線","lng":136.96308,"lat":36.646861,"zoom":11},
  {"code":11418,"company_code":4,"name":"JR氷見線","name_formal":"JR氷見線","lng":137.016787,"lat":36.806027,"zoom":12},
  {"code":11419,"company_code":4,"name":"JR七尾線","name_formal":"JR七尾線","lng":136.791627,"lat":36.880722,"zoom":10},
  {"code":11420,"company_code":4,"name":"敦賀港線","name_formal":"JR北陸本線(敦賀～敦賀港)","lng":136.075533,"lat":35.656349,"zoom":14,"closed":true},
  {"code":11421,"company_code":4,"name":"九頭竜線","name_formal":"JR越美北線","lng":136.441311,"lat":35.998584,"zoom":10},
  {"code":11422,"company_code":4,"name":"JR小浜線","name_formal":"JR小浜線","lng":135.741818,"lat":35.530155,"zoom":10},
  {"code":11501,"company_code":3,"name":"JR東海道本線(熱海～浜松)","name_formal":"JR東海道本線(熱海～浜松)","lng":138.38881,"lat":34.949097,"zoom":9},
  {"code":11502,"company_code":3,"name":"JR東海道本線(浜松～岐阜)","name_formal":"JR東海道本線(浜松～岐阜)","lng":137.129185,"lat":35.046422,"zoom":9},
  {"code":11503,"company_code":3,"name":"JR東海道本線(岐阜～美濃赤坂・米原)","name_formal":"JR東海道本線(岐阜～美濃赤坂・米原)","lng":136.528155,"lat":35.363629,"zoom":10},
  {"code":11504,"company_code":2,"name":"JR伊東線","name_formal":"JR伊東線","lng":139.069655,"lat":35.047592,"zoom":12},
  {"code":11505,"company_code":3,"name":"JR御殿場線","name_formal":"JR御殿場線","lng":139.033143,"lat":35.222461,"zoom":11},
  {"code":11506,"company_code":3,"name":"JR武豊線","name_formal":"JR武豊線","lng":136.958688,"lat":34.932579,"zoom":12},
  {"code":11507,"company_code":3,"name":"JR太多線","name_formal":"JR太多線","lng":137.062592,"lat":35.391158,"zoom":12},
  {"code":11508,"company_code":3,"name":"JR関西本線(名古屋～亀山)","name_formal":"JR関西本線(名古屋～亀山)","lng":136.639315,"lat":35.033339,"zoom":10},
  {"code":11509,"company_code":4,"name":"JR関西本線(亀山～加茂)","name_formal":"JR関西本線(亀山～加茂)","lng":136.174989,"lat":34.801434,"zoom":10},
  {"code":11510,"company_code":3,"name":"JR紀勢本線","name_formal":"JR紀勢本線","lng":136.287262,"lat":34.321544,"zoom":9},
  {"code":11511,"company_code":4,"name":"JR草津線","name_formal":"JR草津線","lng":136.104525,"lat":34.964586,"zoom":11},
  {"code":11512,"company_code":3,"name":"JR参宮線","name_formal":"JR参宮線","lng":136.69878,"lat":34.495826,"zoom":11},
  {"code":11513,"company_code":3,"name":"JR名松線","name_formal":"JR名松線","lng":136.388175,"lat":34.600285,"zoom":11},
  {"code":11601,"company_code":4,"name":"琵琶湖線","name_formal":"JR東海道本線(米原～京都)","lng":136.095137,"lat":35.119309,"zoom":10},
  {"code":11602,"company_code":4,"name":"京都線","name_formal":"JR東海道本線(京都～大阪)","lng":135.624814,"lat":34.851924,"zoom":11},
  {"code":11603,"company_code":4,"name":"JR神戸線(大阪～神戸)","name_formal":"JR東海道本線(大阪～神戸)","lng":135.334729,"lat":34.728762,"zoom":11},
  {"code":11605,"company_code":4,"name":"JR湖西線","name_formal":"JR湖西線","lng":135.964881,"lat":35.246446,"zoom":10},
  {"code":11607,"company_code":4,"name":"大和路線","name_formal":"JR関西本線(加茂～ＪＲ難波)","lng":135.677416,"lat":34.650434,"zoom":11},
  {"code":11608,"company_code":4,"name":"JR神戸線(神戸～姫路)","name_formal":"JR山陽本線(神戸～姫路)","lng":134.928339,"lat":34.719971,"zoom":10},
  {"code":11609,"company_code":4,"name":"JR山陽本線(姫路～岡山)","name_formal":"JR山陽本線(姫路～岡山)","lng":134.246211,"lat":34.813522,"zoom":10},
  {"code":11610,"company_code":4,"name":"JR山陽本線(岡山～三原)","name_formal":"JR山陽本線(岡山～三原)","lng":133.563758,"lat":34.523041,"zoom":10},
  {"code":11611,"company_code":4,"name":"JR山陽本線(三原～岩国)","name_formal":"JR山陽本線(三原～岩国)","lng":132.5498,"lat":34.386501,"zoom":10},
  {"code":11612,"company_code":4,"name":"JR山陽本線(岩国～門司)","name_formal":"JR山陽本線(岩国～門司)","lng":131.606343,"lat":34.071664,"zoom":9},
  {"code":11613,"company_code":4,"name":"JR山陽本線(兵庫～和田岬)","name_formal":"JR山陽本線(兵庫～和田岬)","lng":135.167942,"lat":34.665776,"zoom":14},
  {"code":11614,"company_code":4,"name":"嵯峨野線","name_formal":"JR山陰本線(京都～園部)","lng":135.604156,"lat":35.053071,"zoom":11},
  {"code":11615,"company_code":4,"name":"JR山陰本線(園部～豊岡)","name_formal":"JR山陰本線(園部～豊岡)","lng":135.088684,"lat":35.326095,"zoom":10},
  {"code":11616,"company_code":4,"name":"JR山陰本線(豊岡～米子)","name_formal":"JR山陰本線(豊岡～米子)","lng":134.020902,"lat":35.521829,"zoom":9},
  {"code":11617,"company_code":4,"name":"学研都市線","name_formal":"JR片町線","lng":135.690165,"lat":34.759998,"zoom":11},
  {"code":11618,"company_code":4,"name":"奈良線","name_formal":"奈良線","lng":135.786434,"lat":34.834023,"zoom":11},
  {"code":11622,"company_code":4,"name":"JR舞鶴線","name_formal":"JR舞鶴線","lng":135.279314,"lat":35.367744,"zoom":11},
  {"code":11623,"company_code":4,"name":"大阪環状線","name_formal":"大阪環状線","lng":135.502189,"lat":34.681541,"zoom":13},
  {"code":11624,"company_code":4,"name":"JRゆめ咲線","name_formal":"JR桜島線","lng":135.447445,"lat":34.674044,"zoom":13},
  {"code":11625,"company_code":4,"name":"JR東西線","name_formal":"JR東西線","lng":135.472967,"lat":34.707925,"zoom":13},
  {"code":11626,"company_code":4,"name":"阪和線(天王寺～和歌山)","name_formal":"阪和線(天王寺～和歌山)","lng":135.401194,"lat":34.461541,"zoom":10},
  {"code":11627,"company_code":4,"name":"羽衣線","name_formal":"阪和線(鳳～東羽衣)","lng":135.449577,"lat":34.534059,"zoom":14},
  {"code":11628,"company_code":4,"name":"JR関西空港線","name_formal":"JR関西空港線","lng":135.288868,"lat":34.415185,"zoom":12},
  {"code":11629,"company_code":4,"name":"JR宝塚線","name_formal":"JR福知山線(新大阪～篠山口)","lng":135.344435,"lat":34.869893,"zoom":10},
  {"code":11630,"company_code":4,"name":"福知山線(篠山口～福知山)","name_formal":"福知山線(篠山口～福知山)","lng":135.105576,"lat":35.160771,"zoom":11},
  {"code":11631,"company_code":4,"name":"JR赤穂線","name_formal":"JR赤穂線","lng":134.197493,"lat":34.747274,"zoom":10},
  {"code":11632,"company_code":4,"name":"JR加古川線","name_formal":"JR加古川線","lng":134.952523,"lat":34.93708,"zoom":11},
  {"code":11633,"company_code":4,"name":"JR姫新線(姫路～佐用)","name_formal":"JR姫新線(姫路～佐用)","lng":134.526543,"lat":34.925862,"zoom":11},
  {"code":11634,"company_code":4,"name":"JR姫新線(佐用～新見)","name_formal":"JR姫新線(佐用～新見)","lng":133.88054,"lat":35.050241,"zoom":10},
  {"code":11635,"company_code":4,"name":"JR播但線","name_formal":"JR播但線","lng":134.764054,"lat":35.113193,"zoom":10},
  {"code":11636,"company_code":4,"name":"JR和歌山線","name_formal":"JR和歌山線","lng":135.557082,"lat":34.363637,"zoom":10},
  {"code":11637,"company_code":4,"name":"万葉まほろば線","name_formal":"桜井線","lng":135.800712,"lat":34.58069,"zoom":12},
  {"code":11639,"company_code":4,"name":"きのくに線","name_formal":"JR紀勢本線(新宮～和歌山)","lng":135.427175,"lat":33.831836,"zoom":9},
  {"code":11640,"company_code":4,"name":"紀勢本線(和歌山～和歌山市)","name_formal":"紀勢本線(和歌山～和歌山市)","lng":135.178334,"lat":34.238033,"zoom":14},
  {"code":11641,"company_code":4,"name":"おおさか東線","name_formal":"おおさか東線","lng":135.574272,"lat":34.656968,"zoom":13},
  {"code":11701,"company_code":4,"name":"JR山陰本線(米子～益田)","name_formal":"JR山陰本線(米子～益田)","lng":132.561068,"lat":35.20731,"zoom":9},
  {"code":11702,"company_code":4,"name":"JR山陰本線(益田～下関)","name_formal":"JR山陰本線(益田～下関)","lng":131.272667,"lat":34.359407,"zoom":9},
  {"code":11703,"company_code":4,"name":"JR伯備線","name_formal":"JR伯備線","lng":133.495623,"lat":35.053289,"zoom":9},
  {"code":11704,"company_code":4,"name":"JR因美線","name_formal":"JR因美線","lng":134.150016,"lat":35.26469,"zoom":10},
  {"code":11705,"company_code":4,"name":"JR境線","name_formal":"JR境線","lng":133.26254,"lat":35.488058,"zoom":12},
  {"code":11706,"company_code":4,"name":"JR木次線","name_formal":"JR木次線","lng":133.02148,"lat":35.199251,"zoom":11},
  {"code":11707,"company_code":4,"name":"JR三江線","name_formal":"JR三江線","lng":132.562983,"lat":34.943012,"zoom":10,"closed":true},
  {"code":11708,"company_code":4,"name":"JR山口線","name_formal":"JR山口線","lng":131.473485,"lat":34.346643,"zoom":10},
  {"code":11709,"company_code":4,"name":"JR宇野線","name_formal":"JR宇野線","lng":133.913199,"lat":34.575841,"zoom":12},
  {"code":11710,"company_code":4,"name":"瀬戸大橋線","name_formal":"JR本四備讃線","lng":133.80944,"lat":34.454276,"zoom":11},
  {"code":11713,"company_code":4,"name":"JR吉備線","name_formal":"JR吉備線","lng":133.827268,"lat":34.681156,"zoom":12},
  {"code":11714,"company_code":4,"name":"JR芸備線","name_formal":"JR芸備線","lng":132.921643,"lat":34.77393,"zoom":9},
  {"code":11715,"company_code":4,"name":"JR津山線","name_formal":"JR津山線","lng":133.922702,"lat":34.891198,"zoom":10},
  {"code":11716,"company_code":4,"name":"JR呉線","name_formal":"JR呉線","lng":132.779739,"lat":34.387277,"zoom":10},
  {"code":11717,"company_code":4,"name":"JR可部線","name_formal":"JR可部線","lng":132.477815,"lat":34.458223,"zoom":12},
  {"code":11720,"company_code":4,"name":"JR福塩線","name_formal":"JR福塩線","lng":133.129784,"lat":34.638266,"zoom":10},
  {"code":11721,"company_code":4,"name":"JR宇部線","name_formal":"JR宇部線","lng":131.302676,"lat":34.019353,"zoom":11},
  {"code":11722,"company_code":4,"name":"JR美祢線","name_formal":"JR美祢線","lng":131.180693,"lat":34.233281,"zoom":11},
  {"code":11723,"company_code":4,"name":"JR小野田線","name_formal":"JR小野田線","lng":131.193686,"lat":33.978555,"zoom":12},
  {"code":11724,"company_code":4,"name":"JR岩徳線","name_formal":"JR岩徳線","lng":132.056976,"lat":34.093478,"zoom":11},
  {"code":11801,"company_code":5,"name":"JR土讃線","name_formal":"JR土讃線","lng":133.570257,"lat":33.7664,"zoom":9},
  {"code":11802,"company_code":5,"name":"JR高徳線","name_formal":"JR高徳線","lng":134.310584,"lat":34.249541,"zoom":10},
  {"code":11803,"company_code":5,"name":"よしの川ブルーライン","name_formal":"JR徳島線","lng":134.151808,"lat":34.048722,"zoom":10},
  {"code":11804,"company_code":5,"name":"JR牟岐線","name_formal":"JR牟岐線","lng":134.508423,"lat":33.839965,"zoom":10},
  {"code":11805,"company_code":5,"name":"JR鳴門線","name_formal":"JR鳴門線","lng":134.568428,"lat":34.163778,"zoom":13},
  {"code":11806,"company_code":5,"name":"JR予讃線","name_formal":"JR予讃線","lng":133.362659,"lat":34.192992,"zoom":9},
  {"code":11807,"company_code":5,"name":"JR予讃・内子線","name_formal":"JR予讃・内子線","lng":132.589517,"lat":33.557035,"zoom":10},
  {"code":11808,"company_code":5,"name":"しまんとグリーンライン","name_formal":"JR予土線","lng":132.822384,"lat":33.232872,"zoom":10},
  {"code":11901,"company_code":4,"name":"JR博多南線","name_formal":"JR博多南線","lng":130.428809,"lat":33.56485,"zoom":12},
  {"code":11902,"company_code":6,"name":"JR鹿児島本線(下関・門司港～博多)","name_formal":"JR鹿児島本線(下関・門司港～博多)","lng":130.628538,"lat":33.836705,"zoom":10},
  {"code":11903,"company_code":6,"name":"JR鹿児島本線(博多～八代)","name_formal":"JR鹿児島本線(博多～八代)","lng":130.506308,"lat":33.092446,"zoom":9},
  {"code":11904,"company_code":6,"name":"JR鹿児島本線(川内～鹿児島)","name_formal":"JR鹿児島本線(川内～鹿児島)","lng":130.363502,"lat":31.653348,"zoom":10},
  {"code":11905,"company_code":6,"name":"JR長崎本線(鳥栖～長崎)","name_formal":"JR長崎本線(鳥栖～長崎)","lng":130.152151,"lat":33.12136,"zoom":10},
  {"code":11906,"company_code":6,"name":"JR日豊本線(門司港～佐伯)","name_formal":"JR日豊本線(門司港～佐伯)","lng":131.303552,"lat":33.554935,"zoom":9},
  {"code":11907,"company_code":6,"name":"JR日豊本線(佐伯～鹿児島中央)","name_formal":"JR日豊本線(佐伯～鹿児島中央)","lng":131.447211,"lat":32.216978,"zoom":8},
  {"code":11908,"company_code":6,"name":"福北ゆたか線","name_formal":"JR篠栗線","lng":130.532703,"lat":33.61991,"zoom":11},
  {"code":11909,"company_code":6,"name":"JR筑肥線(姪浜～西唐津)","name_formal":"JR筑肥線(姪浜～西唐津)","lng":130.129413,"lat":33.511649,"zoom":11},
  {"code":11910,"company_code":6,"name":"若松線","name_formal":"JR筑豊本線(若松～折尾)","lng":130.752128,"lat":33.88822,"zoom":12},
  {"code":11911,"company_code":6,"name":"福北ゆたか線(折尾～桂川)","name_formal":"JR筑豊本線(折尾～桂川)","lng":130.706114,"lat":33.734501,"zoom":11},
  {"code":11912,"company_code":6,"name":"原田線","name_formal":"JR筑豊本線(桂川～原田)","lng":130.609132,"lat":33.524164,"zoom":12},
  {"code":11913,"company_code":6,"name":"ゆふ高原線","name_formal":"JR久大本線","lng":131.035995,"lat":33.262062,"zoom":9},
  {"code":11914,"company_code":6,"name":"JR日田彦山線","name_formal":"JR日田彦山線","lng":130.872999,"lat":33.586903,"zoom":10},
  {"code":11915,"company_code":6,"name":"JR後藤寺線","name_formal":"JR後藤寺線","lng":130.743147,"lat":33.638943,"zoom":12},
  {"code":11916,"company_code":6,"name":"海の中道線","name_formal":"JR香椎線(西戸崎～香椎)","lng":130.404193,"lat":33.676709,"zoom":12},
  {"code":11917,"company_code":6,"name":"JR香椎線(香椎～宇美)","name_formal":"JR香椎線(香椎～宇美)","lng":130.472901,"lat":33.61956,"zoom":12},
  {"code":11918,"company_code":6,"name":"JR佐世保線","name_formal":"JR佐世保線","lng":129.93997,"lat":33.188116,"zoom":11},
  {"code":11920,"company_code":6,"name":"JR筑肥線(西唐津～伊万里)","name_formal":"JR筑肥線(西唐津～伊万里)","lng":129.939736,"lat":33.371295,"zoom":11},
  {"code":11921,"company_code":6,"name":"JR唐津線","name_formal":"JR唐津線","lng":130.077405,"lat":33.335443,"zoom":11},
  {"code":11922,"company_code":6,"name":"JR大村線","name_formal":"JR大村線","lng":129.921424,"lat":33.001698,"zoom":11},
  {"code":11923,"company_code":6,"name":"阿蘇高原線","name_formal":"JR豊肥本線","lng":131.26213,"lat":33.017127,"zoom":9},
  {"code":11924,"company_code":6,"name":"三角線（あまくさみすみ線）","name_formal":"JR三角線","lng":130.589298,"lat":32.69145,"zoom":11},
  {"code":11925,"company_code":6,"name":"えびの高原線(八代～吉松)","name_formal":"JR肥薩線(八代～吉松)","lng":130.683312,"lat":32.286997,"zoom":10},
  {"code":11926,"company_code":6,"name":"JR肥薩線(吉松～隼人)","name_formal":"JR肥薩線(吉松～隼人)","lng":130.706746,"lat":31.890984,"zoom":11},
  {"code":11927,"company_code":6,"name":"JR宮崎空港線","name_formal":"JR宮崎空港線","lng":131.432762,"lat":31.895343,"zoom":13},
  {"code":11928,"company_code":6,"name":"JR日南線","name_formal":"JR日南線","lng":131.362654,"lat":31.683577,"zoom":10},
  {"code":11929,"company_code":6,"name":"えびの高原線","name_formal":"JR吉都線","lng":130.956402,"lat":31.917244,"zoom":10},
  {"code":11930,"company_code":6,"name":"JR指宿枕崎線","name_formal":"JR指宿枕崎線","lng":130.503411,"lat":31.36,"zoom":10},
  {"code":21001,"company_code":11,"name":"東武東上線","name_formal":"東武東上線","lng":139.459638,"lat":35.921219,"zoom":10},
  {"code":21002,"company_code":11,"name":"東武伊勢崎線","name_formal":"東武伊勢崎線","lng":139.499341,"lat":36.056766,"zoom":10},
  {"code":21003,"company_code":11,"name":"東武日光線","name_formal":"東武日光線","lng":139.69116,"lat":36.445797,"zoom":9},
  {"code":21004,"company_code":11,"name":"東武野田線","name_formal":"東武野田線","lng":139.891913,"lat":35.887913,"zoom":10},
  {"code":21005,"company_code":11,"name":"東武亀戸線","name_formal":"東武亀戸線","lng":139.824347,"lat":35.707952,"zoom":14},
  {"code":21006,"company_code":11,"name":"東武大師線","name_formal":"東武大師線","lng":139.785323,"lat":35.779061,"zoom":15},
  {"code":21007,"company_code":11,"name":"東武越生線","name_formal":"東武越生線","lng":139.342623,"lat":35.953219,"zoom":12},
  {"code":21008,"company_code":11,"name":"東武宇都宮線","name_formal":"東武宇都宮線","lng":139.817894,"lat":36.48379,"zoom":12},
  {"code":21009,"company_code":11,"name":"東武鬼怒川線","name_formal":"東武鬼怒川線","lng":139.707174,"lat":36.79813,"zoom":12},
  {"code":21010,"company_code":11,"name":"東武佐野線","name_formal":"東武佐野線","lng":139.568059,"lat":36.328868,"zoom":12},
  {"code":21011,"company_code":11,"name":"東武桐生線","name_formal":"東武桐生線","lng":139.323413,"lat":36.369397,"zoom":12},
  {"code":21012,"company_code":11,"name":"東武小泉線","name_formal":"東武小泉線","lng":139.450654,"lat":36.256586,"zoom":12},
  {"code":22001,"company_code":12,"name":"西武池袋線","name_formal":"西武池袋線","lng":139.467893,"lat":35.791262,"zoom":10},
  {"code":22002,"company_code":12,"name":"西武秩父線","name_formal":"西武秩父線","lng":139.204733,"lat":35.921705,"zoom":11},
  {"code":22003,"company_code":12,"name":"西武有楽町線","name_formal":"西武有楽町線","lng":139.667595,"lat":35.740404,"zoom":14},
  {"code":22004,"company_code":12,"name":"西武豊島線","name_formal":"西武豊島線","lng":139.651517,"lat":35.740043,"zoom":15},
  {"code":22005,"company_code":12,"name":"西武狭山線","name_formal":"西武狭山線","lng":139.439249,"lat":35.779602,"zoom":14},
  {"code":22006,"company_code":12,"name":"レオライナー","name_formal":"西武山口線","lng":139.431444,"lat":35.770568,"zoom":14},
  {"code":22007,"company_code":12,"name":"西武新宿線","name_formal":"西武新宿線","lng":139.530865,"lat":35.776947,"zoom":11},
  {"code":22008,"company_code":12,"name":"西武拝島線","name_formal":"西武拝島線","lng":139.413136,"lat":35.732865,"zoom":12},
  {"code":22009,"company_code":12,"name":"西武西武園線","name_formal":"西武西武園線","lng":139.457372,"lat":35.764151,"zoom":14},
  {"code":22010,"company_code":12,"name":"西武国分寺線","name_formal":"西武国分寺線","lng":139.467741,"lat":35.730628,"zoom":13},
  {"code":22011,"company_code":12,"name":"西武多摩湖線","name_formal":"西武多摩湖線","lng":139.468509,"lat":35.741048,"zoom":13},
  {"code":22012,"company_code":12,"name":"西武多摩川線","name_formal":"西武多摩川線","lng":139.513532,"lat":35.677028,"zoom":13},
  {"code":23001,"company_code":13,"name":"京成本線","name_formal":"京成本線","lng":140.072263,"lat":35.726289,"zoom":10},
  {"code":23002,"company_code":13,"name":"京成押上線","name_formal":"京成押上線","lng":139.841766,"lat":35.737,"zoom":13},
  {"code":23003,"company_code":13,"name":"京成金町線","name_formal":"京成金町線","lng":139.868585,"lat":35.761222,"zoom":14},
  {"code":23004,"company_code":13,"name":"京成千葉線","name_formal":"京成千葉線","lng":140.066134,"lat":35.650683,"zoom":12},
  {"code":23005,"company_code":13,"name":"京成千原線","name_formal":"京成千原線","lng":140.140142,"lat":35.578852,"zoom":12},
  {"code":23006,"company_code":13,"name":"成田スカイアクセス","name_formal":"京成成田空港線","lng":140.04558,"lat":35.783475,"zoom":10},
  {"code":24001,"company_code":14,"name":"京王線","name_formal":"京王線","lng":139.533577,"lat":35.678364,"zoom":11},
  {"code":24002,"company_code":14,"name":"京王相模原線","name_formal":"京王相模原線","lng":139.437516,"lat":35.625847,"zoom":12},
  {"code":24003,"company_code":14,"name":"京王高尾線","name_formal":"京王高尾線","lng":139.308437,"lat":35.643316,"zoom":13},
  {"code":24004,"company_code":14,"name":"京王競馬場線","name_formal":"京王競馬場線","lng":139.489623,"lat":35.668945,"zoom":14},
  {"code":24005,"company_code":14,"name":"京王動物園線","name_formal":"京王動物園線","lng":139.409992,"lat":35.657462,"zoom":14},
  {"code":24006,"company_code":14,"name":"京王井の頭線","name_formal":"京王井の頭線","lng":139.634988,"lat":35.676685,"zoom":12},
  {"code":24007,"company_code":14,"name":"京王新線","name_formal":"京王新線","lng":139.685251,"lat":35.680499,"zoom":14},
  {"code":25001,"company_code":15,"name":"小田急線","name_formal":"小田急小田原線","lng":139.434775,"lat":35.528535,"zoom":11},
  {"code":25002,"company_code":15,"name":"小田急江ノ島線","name_formal":"小田急江ノ島線","lng":139.449776,"lat":35.435748,"zoom":11},
  {"code":25003,"company_code":15,"name":"小田急多摩線","name_formal":"小田急多摩線","lng":139.460294,"lat":35.619458,"zoom":13},
  {"code":26001,"company_code":16,"name":"東急東横線","name_formal":"東急東横線","lng":139.668326,"lat":35.58608,"zoom":11},
  {"code":26002,"company_code":16,"name":"東急目黒線","name_formal":"東急目黒線","lng":139.678351,"lat":35.603755,"zoom":13},
  {"code":26003,"company_code":16,"name":"東急田園都市線","name_formal":"東急田園都市線","lng":139.584659,"lat":35.583242,"zoom":11},
  {"code":26004,"company_code":16,"name":"東急大井町線","name_formal":"東急大井町線","lng":139.675376,"lat":35.607027,"zoom":12},
  {"code":26005,"company_code":16,"name":"東急池上線","name_formal":"東急池上線","lng":139.706239,"lat":35.593937,"zoom":13},
  {"code":26006,"company_code":16,"name":"東急多摩川線","name_formal":"東急多摩川線","lng":139.687433,"lat":35.572442,"zoom":13},
  {"code":26007,"company_code":16,"name":"東急世田谷線","name_formal":"東急世田谷線","lng":139.652542,"lat":35.653197,"zoom":14},
  {"code":26008,"company_code":16,"name":"東急こどもの国線","name_formal":"東急こどもの国線","lng":139.487859,"lat":35.54811,"zoom":14},
  {"code":27001,"company_code":17,"name":"京急本線","name_formal":"京急本線","lng":139.665422,"lat":35.470013,"zoom":10},
  {"code":27002,"company_code":17,"name":"京急空港線","name_formal":"京急空港線","lng":139.749784,"lat":35.555001,"zoom":13},
  {"code":27003,"company_code":17,"name":"京急大師線","name_formal":"京急大師線","lng":139.7233,"lat":35.53569,"zoom":14},
  {"code":27004,"company_code":17,"name":"京急逗子線","name_formal":"京急逗子線","lng":139.598851,"lat":35.314704,"zoom":13},
  {"code":27005,"company_code":17,"name":"京急久里浜線","name_formal":"京急久里浜線","lng":139.668282,"lat":35.228708,"zoom":12},
  {"code":28001,"company_code":18,"name":"東京メトロ銀座線","name_formal":"東京メトロ銀座線","lng":139.757208,"lat":35.686461,"zoom":13},
  {"code":28002,"company_code":18,"name":"東京メトロ丸ノ内線","name_formal":"東京メトロ丸ノ内線","lng":139.700437,"lat":35.705185,"zoom":12},
  {"code":28003,"company_code":18,"name":"東京メトロ日比谷線","name_formal":"東京メトロ日比谷線","lng":139.7679,"lat":35.694692,"zoom":12},
  {"code":28004,"company_code":18,"name":"東京メトロ東西線","name_formal":"東京メトロ東西線","lng":139.815491,"lat":35.683265,"zoom":11},
  {"code":28005,"company_code":18,"name":"東京メトロ千代田線","name_formal":"東京メトロ千代田線","lng":139.755861,"lat":35.723012,"zoom":12},
  {"code":28006,"company_code":18,"name":"東京メトロ有楽町線","name_formal":"東京メトロ有楽町線","lng":139.704204,"lat":35.733166,"zoom":11},
  {"code":28008,"company_code":18,"name":"東京メトロ半蔵門線","name_formal":"東京メトロ半蔵門線","lng":139.765227,"lat":35.688132,"zoom":12},
  {"code":28009,"company_code":18,"name":"東京メトロ南北線","name_formal":"東京メトロ南北線","lng":139.734332,"lat":35.7103,"zoom":12},
  {"code":28010,"company_code":18,"name":"東京メトロ副都心線","name_formal":"東京メトロ副都心線","lng":139.686663,"lat":35.731442,"zoom":12},
  {"code":29001,"company_code":19,"name":"相鉄本線","name_formal":"相鉄本線","lng":139.509143,"lat":35.465604,"zoom":11},
  {"code":29002,"company_code":19,"name":"相鉄いずみ野線","name_formal":"相鉄いずみ野線","lng":139.496493,"lat":35.431541,"zoom":13},
  {"code":29003,"company_code":19,"name":"相鉄・JR直通線","name_formal":"相鉄新横浜線","lng":139.496493,"lat":35.431541,"zoom":13},
  {"code":30001,"company_code":20,"name":"名鉄名古屋本線","name_formal":"名鉄名古屋本線","lng":137.046489,"lat":35.090245,"zoom":10},
  {"code":30002,"company_code":20,"name":"名鉄豊川線","name_formal":"名鉄豊川線","lng":137.362084,"lat":34.829167,"zoom":13},
  {"code":30003,"company_code":20,"name":"名鉄西尾線","name_formal":"名鉄西尾線","lng":137.07579,"lat":34.89568,"zoom":11},
  {"code":30004,"company_code":20,"name":"名鉄蒲郡線","name_formal":"名鉄蒲郡線","lng":137.149053,"lat":34.830155,"zoom":12},
  {"code":30005,"company_code":20,"name":"名鉄三河線","name_formal":"名鉄三河線","lng":137.039745,"lat":35.027892,"zoom":11},
  {"code":30006,"company_code":20,"name":"名鉄豊田線","name_formal":"名鉄豊田線","lng":137.094959,"lat":35.120296,"zoom":12},
  {"code":30007,"company_code":20,"name":"名鉄空港線","name_formal":"名鉄空港線","lng":136.827543,"lat":34.87839,"zoom":13},
  {"code":30008,"company_code":20,"name":"名鉄常滑線","name_formal":"名鉄常滑線","lng":136.872021,"lat":35.052184,"zoom":11},
  {"code":30009,"company_code":20,"name":"名鉄河和線","name_formal":"名鉄河和線","lng":136.906047,"lat":34.923752,"zoom":11},
  {"code":30010,"company_code":20,"name":"名鉄知多新線","name_formal":"名鉄知多新線","lng":136.880792,"lat":34.804816,"zoom":12},
  {"code":30011,"company_code":20,"name":"名鉄築港線","name_formal":"名鉄築港線","lng":136.905663,"lat":35.091877,"zoom":14},
  {"code":30012,"company_code":20,"name":"名鉄瀬戸線","name_formal":"名鉄瀬戸線","lng":136.992543,"lat":35.20783,"zoom":11},
  {"code":30013,"company_code":20,"name":"名鉄津島線","name_formal":"名鉄津島線","lng":136.778182,"lat":35.198356,"zoom":12},
  {"code":30014,"company_code":20,"name":"名鉄尾西線","name_formal":"名鉄尾西線","lng":136.744357,"lat":35.243667,"zoom":11},
  {"code":30015,"company_code":20,"name":"名鉄犬山線","name_formal":"名鉄犬山線","lng":136.889865,"lat":35.311657,"zoom":11},
  {"code":30016,"company_code":20,"name":"名鉄各務原線","name_formal":"名鉄各務原線","lng":136.853254,"lat":35.403204,"zoom":12},
  {"code":30017,"company_code":20,"name":"名鉄広見線","name_formal":"名鉄広見線","lng":137.028976,"lat":35.417842,"zoom":12},
  {"code":30018,"company_code":20,"name":"名鉄小牧線","name_formal":"名鉄小牧線","lng":136.939613,"lat":35.296314,"zoom":12},
  {"code":30019,"company_code":20,"name":"犬山モノレール","name_formal":"名鉄モンキーパークモノレール線","lng":136.951161,"lat":35.390618,"zoom":15,"closed":true},
  {"code":30020,"company_code":20,"name":"名鉄竹鼻線","name_formal":"名鉄竹鼻線","lng":136.732503,"lat":35.349351,"zoom":13},
  {"code":30021,"company_code":20,"name":"名鉄羽島線","name_formal":"名鉄羽島線","lng":136.693134,"lat":35.31405,"zoom":14},
  {"code":31001,"company_code":21,"name":"近鉄難波線","name_formal":"近鉄難波線","lng":135.527158,"lat":34.663364,"zoom":12},
  {"code":31002,"company_code":21,"name":"近鉄橿原線","name_formal":"近鉄橿原線","lng":135.785511,"lat":34.596653,"zoom":11},
  {"code":31003,"company_code":21,"name":"近鉄南大阪線","name_formal":"近鉄南大阪線","lng":135.653052,"lat":34.572452,"zoom":11},
  {"code":31004,"company_code":21,"name":"近鉄養老線","name_formal":"近鉄養老線","lng":136.632012,"lat":35.259232,"zoom":10,"closed":true},
  {"code":31005,"company_code":21,"name":"近鉄大阪線","name_formal":"近鉄大阪線","lng":135.872054,"lat":34.615565,"zoom":10},
  {"code":31006,"company_code":21,"name":"近鉄伊賀線","name_formal":"近鉄伊賀線","lng":136.139283,"lat":34.733361,"zoom":12,"closed":true},
  {"code":31007,"company_code":21,"name":"近鉄吉野線","name_formal":"近鉄吉野線","lng":135.794504,"lat":34.42944,"zoom":12},
  {"code":31008,"company_code":21,"name":"近鉄湯の山線","name_formal":"近鉄湯の山線","lng":136.544364,"lat":34.994193,"zoom":12},
  {"code":31009,"company_code":21,"name":"近鉄山田線","name_formal":"近鉄山田線","lng":136.590338,"lat":34.5698,"zoom":11},
  {"code":31010,"company_code":21,"name":"近鉄鳥羽線","name_formal":"近鉄鳥羽線","lng":136.772746,"lat":34.48381,"zoom":12},
  {"code":31011,"company_code":21,"name":"近鉄天理線","name_formal":"近鉄天理線","lng":135.803701,"lat":34.602763,"zoom":13},
  {"code":31012,"company_code":21,"name":"近鉄道明寺線","name_formal":"近鉄道明寺線","lng":135.622029,"lat":34.580118,"zoom":14},
  {"code":31013,"company_code":247,"name":"内部線","name_formal":"内部線","lng":136.605136,"lat":34.949515,"zoom":13},
  {"code":31014,"company_code":247,"name":"八王子線","name_formal":"八王子線","lng":136.607798,"lat":34.958208,"zoom":14},
  {"code":31015,"company_code":21,"name":"近鉄志摩線","name_formal":"近鉄志摩線","lng":136.826903,"lat":34.403198,"zoom":11},
  {"code":31016,"company_code":21,"name":"近鉄生駒線","name_formal":"近鉄生駒線","lng":135.702919,"lat":34.654096,"zoom":13},
  {"code":31017,"company_code":21,"name":"近鉄田原本線","name_formal":"近鉄田原本線","lng":135.743514,"lat":34.574638,"zoom":13},
  {"code":31018,"company_code":21,"name":"近鉄御所線","name_formal":"近鉄御所線","lng":135.724873,"lat":34.488002,"zoom":13},
  {"code":31019,"company_code":21,"name":"近鉄鈴鹿線","name_formal":"近鉄鈴鹿線","lng":136.582796,"lat":34.877985,"zoom":13},
  {"code":31020,"company_code":21,"name":"近鉄奈良線","name_formal":"近鉄奈良線","lng":135.690379,"lat":34.687693,"zoom":11},
  {"code":31021,"company_code":21,"name":"近鉄信貴線","name_formal":"近鉄信貴線","lng":135.632634,"lat":34.625063,"zoom":14},
  {"code":31022,"company_code":21,"name":"近鉄長野線","name_formal":"近鉄長野線","lng":135.598676,"lat":34.500495,"zoom":12},
  {"code":31023,"company_code":21,"name":"近鉄けいはんな線","name_formal":"近鉄けいはんな線","lng":135.675864,"lat":34.698946,"zoom":12},
  {"code":31024,"company_code":21,"name":"西信貴ケーブル","name_formal":"近鉄西信貴鋼索線","lng":135.647956,"lat":34.617671,"zoom":15},
  {"code":31025,"company_code":21,"name":"近鉄京都線","name_formal":"近鉄京都線","lng":135.785599,"lat":34.853989,"zoom":11},
  {"code":31026,"company_code":21,"name":"生駒ケーブル","name_formal":"近鉄生駒鋼索線","lng":135.688804,"lat":34.685819,"zoom":14},
  {"code":31027,"company_code":21,"name":"近鉄名古屋線","name_formal":"近鉄名古屋線","lng":136.643873,"lat":34.943061,"zoom":10},
  {"code":32001,"company_code":22,"name":"南海本線","name_formal":"南海本線","lng":135.362031,"lat":34.49541,"zoom":10},
  {"code":32002,"company_code":22,"name":"南海空港線","name_formal":"南海空港線","lng":135.284067,"lat":34.423068,"zoom":12},
  {"code":32003,"company_code":22,"name":"南海和歌山港線","name_formal":"南海和歌山港線","lng":135.15514,"lat":34.231381,"zoom":13},
  {"code":32004,"company_code":22,"name":"南海高師浜線","name_formal":"南海高師浜線","lng":135.438734,"lat":34.530693,"zoom":15},
  {"code":32005,"company_code":22,"name":"南海加太線","name_formal":"南海加太線","lng":135.125625,"lat":34.264375,"zoom":12},
  {"code":32006,"company_code":22,"name":"南海多奈川線","name_formal":"南海多奈川線","lng":135.144804,"lat":34.318368,"zoom":14},
  {"code":32007,"company_code":22,"name":"南海高野線","name_formal":"南海高野線","lng":135.543273,"lat":34.465339,"zoom":9},
  {"code":32008,"company_code":22,"name":"南海高野山ケーブル","name_formal":"南海高野山ケーブル","lng":135.579934,"lat":34.231566,"zoom":15},
  {"code":32009,"company_code":22,"name":"南海汐見橋線","name_formal":"南海汐見橋線","lng":135.486403,"lat":34.648352,"zoom":13},
  {"code":33001,"company_code":23,"name":"京阪本線","name_formal":"京阪本線","lng":135.670564,"lat":34.849577,"zoom":10},
  {"code":33002,"company_code":23,"name":"京阪宇治線","name_formal":"京阪宇治線","lng":135.78689,"lat":34.918987,"zoom":13},
  {"code":33003,"company_code":23,"name":"京阪交野線","name_formal":"京阪交野線","lng":135.667869,"lat":34.794003,"zoom":13},
  {"code":33004,"company_code":23,"name":"京阪鴨東線","name_formal":"京阪鴨東線","lng":135.772187,"lat":35.023132,"zoom":14},
  {"code":33005,"company_code":23,"name":"石清水八幡宮参道ケーブル","name_formal":"京阪鋼索線","lng":135.699706,"lat":34.883349,"zoom":16},
  {"code":33006,"company_code":23,"name":"京阪石山坂本線","name_formal":"京阪石山坂本線","lng":135.873688,"lat":35.021355,"zoom":12},
  {"code":33007,"company_code":23,"name":"京阪京津線","name_formal":"京阪京津線","lng":135.835176,"lat":35.005599,"zoom":13},
  {"code":33008,"company_code":23,"name":"京阪中之島線","name_formal":"京阪中之島線","lng":135.500428,"lat":34.693396,"zoom":14},
  {"code":34001,"company_code":24,"name":"阪急神戸本線","name_formal":"阪急神戸本線","lng":135.353562,"lat":34.735819,"zoom":11},
  {"code":34002,"company_code":24,"name":"阪急宝塚本線","name_formal":"阪急宝塚本線","lng":135.434347,"lat":34.786061,"zoom":12},
  {"code":34003,"company_code":24,"name":"阪急京都本線","name_formal":"阪急京都本線","lng":135.610734,"lat":34.860506,"zoom":10},
  {"code":34004,"company_code":24,"name":"阪急今津線","name_formal":"阪急今津線","lng":135.354665,"lat":34.770692,"zoom":13},
  {"code":34005,"company_code":24,"name":"阪急甲陽線","name_formal":"阪急甲陽線","lng":135.328762,"lat":34.752839,"zoom":14},
  {"code":34006,"company_code":24,"name":"阪急伊丹線","name_formal":"阪急伊丹線","lng":135.414605,"lat":34.770061,"zoom":14},
  {"code":34007,"company_code":24,"name":"阪急箕面線","name_formal":"阪急箕面線","lng":135.460216,"lat":34.822979,"zoom":14},
  {"code":34008,"company_code":24,"name":"阪急千里線","name_formal":"阪急千里線","lng":135.513394,"lat":34.770891,"zoom":12},
  {"code":34009,"company_code":24,"name":"阪急嵐山線","name_formal":"阪急嵐山線","lng":135.691095,"lat":34.996498,"zoom":14},
  {"code":35001,"company_code":25,"name":"阪神本線","name_formal":"阪神本線","lng":135.338815,"lat":34.727138,"zoom":11},
  {"code":35002,"company_code":25,"name":"阪神なんば線","name_formal":"阪神なんば線","lng":135.454218,"lat":34.694376,"zoom":13},
  {"code":35003,"company_code":25,"name":"阪神武庫川線","name_formal":"阪神武庫川線","lng":135.379225,"lat":34.712243,"zoom":15},
  {"code":36001,"company_code":26,"name":"西鉄天神大牟田線","name_formal":"西鉄天神大牟田線","lng":130.46953,"lat":33.337366,"zoom":10},
  {"code":36002,"company_code":26,"name":"西鉄太宰府線","name_formal":"西鉄太宰府線","lng":130.525471,"lat":33.510781,"zoom":14},
  {"code":36003,"company_code":26,"name":"西鉄甘木線","name_formal":"西鉄甘木線","lng":130.600039,"lat":33.37458,"zoom":12},
  {"code":36004,"company_code":26,"name":"西鉄貝塚線","name_formal":"西鉄貝塚線","lng":130.446509,"lat":33.711977,"zoom":12},
  {"code":99101,"company_code":101,"name":"札幌市営地下鉄東西線","name_formal":"札幌市営地下鉄東西線","lng":141.377284,"lat":43.056549,"zoom":11},
  {"code":99102,"company_code":101,"name":"札幌市営地下鉄南北線","name_formal":"札幌市営地下鉄南北線","lng":141.343332,"lat":43.064544,"zoom":12},
  {"code":99103,"company_code":101,"name":"札幌市営地下鉄東豊線","name_formal":"札幌市営地下鉄東豊線","lng":141.373098,"lat":43.071952,"zoom":12},
  {"code":99104,"company_code":101,"name":"札幌市電山鼻線","name_formal":"札幌市電山鼻線","lng":141.344198,"lat":43.04684,"zoom":14},
  {"code":99105,"company_code":102,"name":"函館市電２系統","name_formal":"函館市電２系統","lng":140.747385,"lat":41.780541,"zoom":13},
  {"code":99106,"company_code":102,"name":"函館市電５系統","name_formal":"函館市電５系統","lng":140.743726,"lat":41.779569,"zoom":13},
  {"code":99107,"company_code":103,"name":"ふるさと銀河線","name_formal":"北海道ちほく高原鉄道ふるさと銀河線","lng":143.640036,"lat":43.422924,"zoom":9,"closed":true},
  {"code":99108,"company_code":248,"name":"道南いさりび鉄道線","name_formal":"道南いさりび鉄道線","lng":140.585861,"lat":41.729305,"zoom":11},
  {"code":99201,"company_code":104,"name":"津軽鉄道線","name_formal":"津軽鉄道線","lng":140.447532,"lat":40.891851,"zoom":11},
  {"code":99202,"company_code":105,"name":"弘南鉄道弘南線","name_formal":"弘南鉄道弘南線","lng":140.548713,"lat":40.611755,"zoom":12},
  {"code":99203,"company_code":105,"name":"弘南鉄道大鰐線","name_formal":"弘南鉄道大鰐線","lng":140.509053,"lat":40.560212,"zoom":12},
  {"code":99204,"company_code":106,"name":"十和田観光電鉄","name_formal":"十和田観光電鉄","lng":141.292702,"lat":40.643408,"zoom":12,"closed":true},
  {"code":99205,"company_code":107,"name":"いわて銀河鉄道線","name_formal":"いわて銀河鉄道線","lng":141.188052,"lat":40.049658,"zoom":10},
  {"code":99206,"company_code":108,"name":"青い森鉄道線","name_formal":"青い森鉄道線","lng":141.052179,"lat":40.663222,"zoom":9},
  {"code":99207,"company_code":109,"name":"三陸鉄道北リアス線","name_formal":"三陸鉄道北リアス線","lng":141.859799,"lat":39.913361,"zoom":10,"closed":true},
  {"code":99208,"company_code":109,"name":"三陸鉄道リアス線","name_formal":"三陸鉄道リアス線","lng":141.807114,"lat":39.682264,"zoom":9},
  {"code":99209,"company_code":110,"name":"秋田内陸線","name_formal":"秋田内陸縦貫鉄道秋田内陸線","lng":140.468934,"lat":39.917595,"zoom":10},
  {"code":99210,"company_code":111,"name":"鳥海山ろく線","name_formal":"由利高原鉄道鳥海山ろく線","lng":140.094379,"lat":39.315005,"zoom":11},
  {"code":99211,"company_code":112,"name":"フラワー長井線","name_formal":"山形鉄道フラワー長井線","lng":140.082424,"lat":38.126083,"zoom":12},
  {"code":99212,"company_code":113,"name":"くりはら田園鉄道線","name_formal":"くりはら田園鉄道線","lng":141.033267,"lat":38.815749,"zoom":11,"closed":true},
  {"code":99213,"company_code":114,"name":"阿武隈急行線","name_formal":"阿武隈急行線","lng":140.662917,"lat":37.919176,"zoom":11},
  {"code":99214,"company_code":115,"name":"仙台市営地下鉄南北線","name_formal":"仙台市営地下鉄南北線","lng":140.879993,"lat":38.276252,"zoom":12},
  {"code":99218,"company_code":115,"name":"仙台市営地下鉄東西線","name_formal":"仙台市営地下鉄東西線","lng":140.888157,"lat":38.261098,"zoom":12},
  {"code":99215,"company_code":116,"name":"福島交通飯坂線","name_formal":"福島交通飯坂線","lng":140.453164,"lat":37.795162,"zoom":13},
  {"code":99216,"company_code":117,"name":"会津鉄道会津線","name_formal":"会津鉄道会津線","lng":139.848048,"lat":37.28676,"zoom":10},
  {"code":99217,"company_code":118,"name":"仙台空港線","name_formal":"仙台空港鉄道仙台空港線","lng":140.905799,"lat":38.161795,"zoom":13},
  {"code":99301,"company_code":119,"name":"都営大江戸線","name_formal":"都営大江戸線","lng":139.713704,"lat":35.707546,"zoom":12},
  {"code":99302,"company_code":119,"name":"都営浅草線","name_formal":"都営浅草線","lng":139.758604,"lat":35.662262,"zoom":12},
  {"code":99303,"company_code":119,"name":"都営三田線","name_formal":"都営三田線","lng":139.703218,"lat":35.718836,"zoom":12},
  {"code":99304,"company_code":119,"name":"都営新宿線","name_formal":"都営新宿線","lng":139.809404,"lat":35.689175,"zoom":11},
  {"code":99305,"company_code":119,"name":"都電荒川線","name_formal":"都営都電荒川線","lng":139.748615,"lat":35.735017,"zoom":13},
  {"code":99342,"company_code":119,"name":"日暮里・舎人ライナー","name_formal":"日暮里・舎人ライナー","lng":139.769496,"lat":35.781826,"zoom":12},
  {"code":99306,"company_code":120,"name":"秩父鉄道秩父本線","name_formal":"秩父鉄道秩父本線","lng":139.206814,"lat":36.100995,"zoom":10},
  {"code":99307,"company_code":121,"name":"埼玉高速鉄道線","name_formal":"埼玉高速鉄道線","lng":139.727016,"lat":35.842333,"zoom":12},
  {"code":99308,"company_code":122,"name":"いすみ線","name_formal":"いすみ鉄道いすみ線","lng":140.291339,"lat":35.267411,"zoom":12},
  {"code":99309,"company_code":123,"name":"つくばエクスプレス","name_formal":"首都圏新都市鉄道つくばエクスプレス","lng":139.937509,"lat":35.905772,"zoom":10},
  {"code":99310,"company_code":124,"name":"みなとみらい線","name_formal":"みなとみらい21線","lng":139.636099,"lat":35.455683,"zoom":14},
  {"code":99311,"company_code":125,"name":"ゆりかもめ","name_formal":"ゆりかもめ東京臨海新交通臨海線","lng":139.77495,"lat":35.64287,"zoom":13},
  {"code":99312,"company_code":126,"name":"わたらせ渓谷線","name_formal":"わたらせ渓谷鐵道わたらせ渓谷線","lng":139.350756,"lat":36.53324,"zoom":11},
  {"code":99313,"company_code":127,"name":"ユーカリが丘線","name_formal":"山万ユーカリが丘線","lng":140.153048,"lat":35.730883,"zoom":15},
  {"code":99314,"company_code":128,"name":"伊豆箱根鉄道大雄山線","name_formal":"伊豆箱根鉄道大雄山線","lng":139.130947,"lat":35.289398,"zoom":13},
  {"code":99315,"company_code":129,"name":"ひたちなか海浜鉄道湊線","name_formal":"ひたちなか海浜鉄道湊線","lng":140.572955,"lat":36.371476,"zoom":12},
  {"code":99316,"company_code":130,"name":"ブルーライン","name_formal":"横浜市高速鉄道1号線・3号線","lng":139.551482,"lat":35.487768,"zoom":11},
  {"code":99343,"company_code":130,"name":"グリーンライン","name_formal":"横浜市高速鉄道4号線","lng":139.586937,"lat":35.547246,"zoom":13},
  {"code":99317,"company_code":131,"name":"金沢シーサイドライン","name_formal":"横浜新都市交通金沢シーサイドライン","lng":139.631144,"lat":35.362157,"zoom":13},
  {"code":99318,"company_code":132,"name":"関東鉄道常総線","name_formal":"関東鉄道常総線","lng":139.990139,"lat":36.119885,"zoom":10},
  {"code":99319,"company_code":132,"name":"関東鉄道竜ヶ崎線","name_formal":"関東鉄道竜ヶ崎線","lng":140.157307,"lat":35.918932,"zoom":13},
  {"code":99320,"company_code":133,"name":"江ノ島電鉄線","name_formal":"江ノ島電鉄線","lng":139.512407,"lat":35.326088,"zoom":13},
  {"code":99321,"company_code":134,"name":"ニューシャトル","name_formal":"埼玉新都市交通伊奈線","lng":139.616281,"lat":35.962695,"zoom":12},
  {"code":99322,"company_code":135,"name":"鹿島鉄道線","name_formal":"鹿島鉄道線","lng":140.391129,"lat":36.158972,"zoom":12,"closed":true},
  {"code":99323,"company_code":136,"name":"鹿島臨海鉄道大洗鹿島線","name_formal":"鹿島臨海鉄道大洗鹿島線","lng":140.542834,"lat":36.187306,"zoom":10},
  {"code":99324,"company_code":137,"name":"芝山鉄道線","name_formal":"芝山鉄道線","lng":140.392362,"lat":35.763562,"zoom":14},
  {"code":99325,"company_code":138,"name":"小湊鉄道線","name_formal":"小湊鉄道線","lng":140.127399,"lat":35.395848,"zoom":11},
  {"code":99326,"company_code":139,"name":"湘南モノレール","name_formal":"湘南モノレール","lng":139.510245,"lat":35.332232,"zoom":13},
  {"code":99327,"company_code":140,"name":"上信電鉄","name_formal":"上信電鉄","lng":138.915634,"lat":36.26619,"zoom":11},
  {"code":99328,"company_code":141,"name":"上毛電気鉄道上毛線","name_formal":"上毛電気鉄道上毛線","lng":139.191168,"lat":36.417048,"zoom":11},
  {"code":99329,"company_code":142,"name":"新京成線","name_formal":"新京成電鉄新京成線","lng":139.970426,"lat":35.759051,"zoom":12},
  {"code":99330,"company_code":143,"name":"真岡鐵道真岡線","name_formal":"真岡鐵道真岡線","lng":140.042681,"lat":36.44502,"zoom":11},
  {"code":99331,"company_code":144,"name":"千葉都市モノレール１号線","name_formal":"千葉都市モノレール１号線","lng":140.113108,"lat":35.608265,"zoom":14},
  {"code":99332,"company_code":144,"name":"千葉都市モノレール２号線","name_formal":"千葉都市モノレール２号線","lng":140.141086,"lat":35.626392,"zoom":13},
  {"code":99333,"company_code":145,"name":"流鉄流山線","name_formal":"流鉄流山線","lng":139.911993,"lat":35.837927,"zoom":13},
  {"code":99334,"company_code":146,"name":"多摩モノレール","name_formal":"多摩都市モノレール線","lng":139.421699,"lat":35.697431,"zoom":12},
  {"code":99335,"company_code":147,"name":"銚子電鉄線","name_formal":"銚子電気鉄道線","lng":140.847403,"lat":35.719128,"zoom":13},
  {"code":99336,"company_code":148,"name":"東京モノレール","name_formal":"東京モノレール羽田空港線","lng":139.763286,"lat":35.591023,"zoom":12},
  {"code":99337,"company_code":149,"name":"りんかい線","name_formal":"東京臨海高速鉄道りんかい線","lng":139.76613,"lat":35.623733,"zoom":13},
  {"code":99338,"company_code":150,"name":"東葉高速線","name_formal":"東葉高速鉄道東葉高速線","lng":140.038047,"lat":35.719061,"zoom":12},
  {"code":99339,"company_code":151,"name":"箱根登山鉄道鉄道線","name_formal":"箱根登山鉄道鉄道線","lng":139.099491,"lat":35.245979,"zoom":12},
  {"code":99340,"company_code":152,"name":"北総鉄道北総線","name_formal":"北総鉄道北総線","lng":140.037845,"lat":35.783463,"zoom":11},
  {"code":99341,"company_code":153,"name":"ほっとスパ・ライン","name_formal":"野岩鉄道会津鬼怒川線","lng":139.701333,"lat":36.987336,"zoom":11},
  {"code":99344,"company_code":151,"name":"箱根登山ケーブルカー","name_formal":"箱根登山鉄道鋼索線","lng":139.041424,"lat":35.248167,"zoom":15},
  {"code":99401,"company_code":154,"name":"富士急行線","name_formal":"富士急行線","lng":138.860756,"lat":35.553671,"zoom":12},
  {"code":99402,"company_code":155,"name":"北越急行ほくほく線","name_formal":"北越急行ほくほく線","lng":138.590994,"lat":37.139662,"zoom":10},
  {"code":99403,"company_code":156,"name":"しなの鉄道線","name_formal":"しなの鉄道線","lng":138.317429,"lat":36.419424,"zoom":10},
  {"code":99427,"company_code":156,"name":"北しなの線","name_formal":"北しなの線","lng":138.210502,"lat":36.755306,"zoom":11},
  {"code":99404,"company_code":157,"name":"上田電鉄別所線","name_formal":"上田電鉄別所線","lng":138.210922,"lat":36.376253,"zoom":13},
  {"code":99405,"company_code":158,"name":"長野電鉄長野線","name_formal":"長野電鉄長野線","lng":138.304252,"lat":36.701859,"zoom":11},
  {"code":99406,"company_code":158,"name":"長野電鉄屋代線","name_formal":"長野電鉄屋代線","lng":138.211936,"lat":36.599249,"zoom":12,"closed":true},
  {"code":99407,"company_code":159,"name":"上高地線","name_formal":"アルピコ交通上高地線","lng":137.897382,"lat":36.213717,"zoom":12},
  {"code":99408,"company_code":160,"name":"富山地鉄本線","name_formal":"富山地鉄本線","lng":137.389761,"lat":36.789882,"zoom":11},
  {"code":99409,"company_code":160,"name":"富山地鉄立山線","name_formal":"富山地鉄立山線","lng":137.370551,"lat":36.632597,"zoom":12},
  {"code":99410,"company_code":160,"name":"富山地鉄不二越・上滝線","name_formal":"富山地鉄不二越・上滝線","lng":137.252526,"lat":36.654978,"zoom":12},
  {"code":99411,"company_code":161,"name":"神岡鉄道神岡線","name_formal":"神岡鉄道神岡線","lng":137.272808,"lat":36.404333,"zoom":12,"closed":true},
  {"code":99412,"company_code":162,"name":"黒部峡谷鉄道本線","name_formal":"黒部峡谷鉄道本線","lng":137.629336,"lat":36.771398,"zoom":12},
  {"code":99413,"company_code":160,"name":"富山地鉄市内線【１・２系統】","name_formal":"富山地鉄市内線","lng":137.21049,"lat":36.687492,"zoom":14},
  {"code":99422,"company_code":160,"name":"富山地鉄富山都心線【３系統(環状線)】","name_formal":"富山地鉄富山都心線","lng":137.212887,"lat":36.695539,"zoom":15},
  {"code":99414,"company_code":163,"name":"万葉線","name_formal":"万葉線","lng":137.051988,"lat":36.768654,"zoom":13},
  {"code":99415,"company_code":160,"name":"富山ライトレール","name_formal":"富山ライトレール","lng":137.22737,"lat":36.73584,"zoom":13},
  {"code":99416,"company_code":165,"name":"北陸鉄道石川線","name_formal":"北陸鉄道石川線","lng":136.62763,"lat":36.507489,"zoom":12},
  {"code":99417,"company_code":165,"name":"北陸鉄道浅野川線","name_formal":"北陸鉄道浅野川線","lng":136.641245,"lat":36.611011,"zoom":13},
  {"code":99423,"company_code":244,"name":"日本海ひすいライン","name_formal":"日本海ひすいライン","lng":138.005628,"lat":37.09275,"zoom":10},
  {"code":99424,"company_code":244,"name":"妙高はねうまライン","name_formal":"妙高はねうまライン","lng":138.005628,"lat":37.09275,"zoom":10},
  {"code":99425,"company_code":245,"name":"あいの風とやま鉄道線","name_formal":"あいの風とやま鉄道線","lng":137.214613,"lat":36.68416,"zoom":10},
  {"code":99426,"company_code":246,"name":"IRいしかわ鉄道線","name_formal":"IRいしかわ鉄道株式会社","lng":136.852064,"lat":36.661886,"zoom":10},
  {"code":99418,"company_code":166,"name":"のと鉄道七尾線","name_formal":"のと鉄道七尾線","lng":136.904415,"lat":37.124485,"zoom":11},
  {"code":99419,"company_code":167,"name":"えちぜん鉄道勝山永平寺線","name_formal":"えちぜん鉄道勝山永平寺線","lng":136.351361,"lat":36.086419,"zoom":11},
  {"code":99420,"company_code":167,"name":"えちぜん鉄道三国芦原線","name_formal":"えちぜん鉄道三国芦原線","lng":136.191953,"lat":36.162792,"zoom":11},
  {"code":99421,"company_code":168,"name":"福井鉄道福武線","name_formal":"福井鉄道福武線","lng":136.206805,"lat":36.010776,"zoom":12},
  {"code":99501,"company_code":169,"name":"伊豆急行線","name_formal":"伊豆急行線","lng":139.04159,"lat":34.82443,"zoom":11},
  {"code":99502,"company_code":128,"name":"伊豆箱根鉄道駿豆線","name_formal":"伊豆箱根鉄道駿豆線","lng":138.931561,"lat":35.056608,"zoom":12},
  {"code":99503,"company_code":170,"name":"岳南鉄道線","name_formal":"岳南鉄道線","lng":138.714121,"lat":35.159558,"zoom":13},
  {"code":99504,"company_code":171,"name":"静岡鉄道静岡清水線","name_formal":"静岡鉄道静岡清水線","lng":138.439058,"lat":34.998159,"zoom":12},
  {"code":99505,"company_code":172,"name":"天竜浜名湖線","name_formal":"天竜浜名湖鉄道天竜浜名湖線","lng":137.730471,"lat":34.827764,"zoom":10},
  {"code":99506,"company_code":173,"name":"遠州鉄道鉄道線","name_formal":"遠州鉄道鉄道線","lng":137.776199,"lat":34.781572,"zoom":12},
  {"code":99507,"company_code":174,"name":"大井川鐵道大井川本線","name_formal":"大井川鐵道大井川本線","lng":138.107252,"lat":34.969743,"zoom":11},
  {"code":99508,"company_code":174,"name":"南アルプスあぷとライン","name_formal":"大井川鐵道井川線","lng":138.161761,"lat":35.168192,"zoom":12},
  {"code":99509,"company_code":175,"name":"あおなみ線","name_formal":"西名古屋港線","lng":136.865063,"lat":35.125367,"zoom":12},
  {"code":99510,"company_code":176,"name":"東海交通事業城北線","name_formal":"東海交通事業城北線","lng":136.896663,"lat":35.2293,"zoom":13},
  {"code":99511,"company_code":177,"name":"愛知環状鉄道線","name_formal":"愛知環状鉄道線","lng":137.122188,"lat":35.121306,"zoom":10},
  {"code":99512,"company_code":178,"name":"リニモ","name_formal":"東部丘陵線","lng":137.060016,"lat":35.171156,"zoom":13},
  {"code":99513,"company_code":179,"name":"名古屋市営地下鉄東山線","name_formal":"名古屋市営地下鉄東山線","lng":136.922634,"lat":35.16914,"zoom":12},
  {"code":99514,"company_code":179,"name":"名古屋市営地下鉄名城線","name_formal":"名古屋市営地下鉄名城線","lng":136.932897,"lat":35.160544,"zoom":12},
  {"code":99515,"company_code":179,"name":"名古屋市営地下鉄名港線","name_formal":"名古屋市営地下鉄名港線","lng":136.889669,"lat":35.125101,"zoom":13},
  {"code":99516,"company_code":179,"name":"名古屋市営地下鉄鶴舞線","name_formal":"名古屋市営地下鉄鶴舞線","lng":136.936117,"lat":35.17099,"zoom":12},
  {"code":99517,"company_code":179,"name":"名古屋市営地下鉄桜通線","name_formal":"名古屋市営地下鉄桜通線","lng":136.938224,"lat":35.140668,"zoom":12},
  {"code":99518,"company_code":179,"name":"名古屋市営地下鉄上飯田線","name_formal":"名古屋市営地下鉄上飯田線","lng":136.929713,"lat":35.201222,"zoom":15},
  {"code":99519,"company_code":180,"name":"ピーチライナー","name_formal":"桃花台新交通","lng":136.958555,"lat":35.298234,"zoom":13,"closed":true},
  {"code":99520,"company_code":181,"name":"豊橋鉄道渥美線","name_formal":"豊橋鉄道渥美線","lng":137.330361,"lat":34.703542,"zoom":12},
  {"code":99521,"company_code":181,"name":"豊橋鉄道東田本線","name_formal":"豊橋鉄道東田本線","lng":137.405755,"lat":34.765006,"zoom":14},
  {"code":99522,"company_code":181,"name":"豊橋鉄道運動公園前線","name_formal":"豊橋鉄道運動公園前線","lng":137.422057,"lat":34.76187,"zoom":16,"closed":true},
  {"code":99523,"company_code":182,"name":"ゆとりーとライン","name_formal":"ガイドウェイバス志段味線","lng":136.961198,"lat":35.205581,"zoom":13},
  {"code":99524,"company_code":183,"name":"明知鉄道明知線","name_formal":"明知鉄道明知線","lng":137.412013,"lat":35.382803,"zoom":12},
  {"code":99525,"company_code":184,"name":"長良川鉄道越美南線","name_formal":"長良川鉄道越美南線","lng":136.927208,"lat":35.710077,"zoom":10},
  {"code":99526,"company_code":185,"name":"樽見鉄道樽見線","name_formal":"樽見鉄道樽見線","lng":136.628319,"lat":35.515246,"zoom":11},
  {"code":99528,"company_code":186,"name":"三岐鉄道三岐線","name_formal":"三岐鉄道三岐線","lng":136.544136,"lat":35.087472,"zoom":11},
  {"code":99529,"company_code":186,"name":"三岐鉄道北勢線","name_formal":"三岐鉄道北勢線","lng":136.598498,"lat":35.094627,"zoom":12},
  {"code":99530,"company_code":187,"name":"伊勢鉄道伊勢線","name_formal":"伊勢鉄道伊勢線","lng":136.552366,"lat":34.833916,"zoom":12},
  {"code":99531,"company_code":188,"name":"伊賀鉄道伊賀線","name_formal":"伊賀鉄道伊賀線","lng":136.139626,"lat":34.733361,"zoom":12},
  {"code":99532,"company_code":189,"name":"養老鉄道養老線","name_formal":"養老鉄道養老線","lng":136.622399,"lat":35.26596,"zoom":11},
  {"code":99601,"company_code":190,"name":"近江鉄道本線","name_formal":"近江鉄道本線","lng":136.210976,"lat":35.155042,"zoom":10},
  {"code":99602,"company_code":190,"name":"近江鉄道多賀線","name_formal":"近江鉄道多賀線","lng":136.267701,"lat":35.233253,"zoom":14},
  {"code":99603,"company_code":190,"name":"近江鉄道八日市線","name_formal":"近江鉄道八日市線","lng":136.150422,"lat":35.110964,"zoom":13},
  {"code":99604,"company_code":191,"name":"信楽高原鐵道信楽線","name_formal":"信楽高原鐵道信楽線","lng":136.093845,"lat":34.913169,"zoom":12},
  {"code":99605,"company_code":192,"name":"嵯峨野観光線","name_formal":"嵯峨野観光線","lng":135.651684,"lat":35.021588,"zoom":12},
  {"code":99606,"company_code":193,"name":"叡山電鉄叡山本線","name_formal":"叡山電鉄叡山本線","lng":135.79088,"lat":35.050004,"zoom":13},
  {"code":99607,"company_code":193,"name":"叡山電鉄鞍馬線","name_formal":"叡山電鉄鞍馬線","lng":135.778977,"lat":35.086169,"zoom":13},
  {"code":99608,"company_code":194,"name":"宮福線","name_formal":"宮福線","lng":135.145079,"lat":35.426651,"zoom":11},
  {"code":99609,"company_code":194,"name":"宮豊線","name_formal":"宮豊線","lng":135.021467,"lat":35.580097,"zoom":10},
  {"code":99653,"company_code":194,"name":"宮舞線","name_formal":"宮舞線","lng":135.265479,"lat":35.499725,"zoom":11},
  {"code":99610,"company_code":195,"name":"京都市営地下鉄烏丸線","name_formal":"京都市営地下鉄烏丸線","lng":135.765567,"lat":35.016334,"zoom":12},
  {"code":99611,"company_code":195,"name":"京都市営地下鉄東西線","name_formal":"京都市営地下鉄東西線","lng":135.766122,"lat":34.979171,"zoom":12},
  {"code":99612,"company_code":196,"name":"京福電鉄嵐山本線","name_formal":"京福電鉄嵐山本線","lng":135.710258,"lat":35.012713,"zoom":13},
  {"code":99613,"company_code":196,"name":"京福電鉄北野線","name_formal":"京福電鉄北野線","lng":135.712402,"lat":35.025937,"zoom":14},
  {"code":99614,"company_code":197,"name":"北大阪急行電鉄","name_formal":"北大阪急行電鉄","lng":135.495462,"lat":34.789927,"zoom":13},
  {"code":99616,"company_code":198,"name":"泉北高速鉄道線","name_formal":"泉北高速鉄道線","lng":135.489235,"lat":34.509278,"zoom":12},
  {"code":99617,"company_code":199,"name":"水間鉄道水間線","name_formal":"水間鉄道水間線","lng":135.369133,"lat":34.428011,"zoom":13},
  {"code":99618,"company_code":249,"name":"大阪メトロ御堂筋線","name_formal":"高速電気軌道第1号線","lng":135.511838,"lat":34.674645,"zoom":11},
  {"code":99619,"company_code":249,"name":"大阪メトロ谷町線","name_formal":"高速電気軌道第2号線","lng":135.552732,"lat":34.675671,"zoom":12},
  {"code":99620,"company_code":249,"name":"大阪メトロ四つ橋線","name_formal":"高速電気軌道第3号線","lng":135.493651,"lat":34.65792,"zoom":13},
  {"code":99621,"company_code":249,"name":"大阪メトロ中央線","name_formal":"高速電気軌道第4号線","lng":135.495747,"lat":34.667773,"zoom":12},
  {"code":99622,"company_code":249,"name":"大阪メトロ千日前線","name_formal":"高速電気軌道第5号線","lng":135.5153,"lat":34.676715,"zoom":13},
  {"code":99623,"company_code":249,"name":"大阪メトロ堺筋線","name_formal":"高速電気軌道第6号線","lng":135.5083,"lat":34.677623,"zoom":13},
  {"code":99624,"company_code":249,"name":"大阪メトロ長堀鶴見緑地線","name_formal":"高速電気軌道第7号線","lng":135.538246,"lat":34.692749,"zoom":12},
  {"code":99652,"company_code":249,"name":"大阪メトロ今里筋線","name_formal":"高速電気軌道第8号線","lng":135.550224,"lat":34.717782,"zoom":13},
  {"code":99625,"company_code":249,"name":"大阪メトロ南港ポートタウン線","name_formal":"大阪市高速電気軌道南港ポートタウン線","lng":135.440931,"lat":34.628382,"zoom":13},
  {"code":99626,"company_code":201,"name":"大阪モノレール線","name_formal":"大阪モノレール線","lng":135.524495,"lat":34.789061,"zoom":12},
  {"code":99627,"company_code":201,"name":"大阪モノレール彩都線","name_formal":"国際文化公園都市線","lng":135.527089,"lat":34.830776,"zoom":13},
  {"code":99628,"company_code":202,"name":"阪堺電軌上町線","name_formal":"阪堺電軌上町線","lng":135.504187,"lat":34.627458,"zoom":14},
  {"code":99629,"company_code":202,"name":"阪堺電軌阪堺線","name_formal":"阪堺電軌阪堺線","lng":135.480941,"lat":34.59887,"zoom":12},
  {"code":99630,"company_code":203,"name":"神戸高速東西線","name_formal":"神戸高速東西線","lng":135.17274,"lat":34.677957,"zoom":13},
  {"code":99631,"company_code":203,"name":"神戸高速南北線","name_formal":"神戸高速南北線","lng":135.167386,"lat":34.677885,"zoom":16},
  {"code":99632,"company_code":204,"name":"有馬線","name_formal":"神鉄有馬線","lng":135.185057,"lat":34.75246,"zoom":12},
  {"code":99633,"company_code":204,"name":"三田線","name_formal":"神鉄三田線","lng":135.222138,"lat":34.850099,"zoom":12},
  {"code":99634,"company_code":204,"name":"公園都市線","name_formal":"神鉄公園都市線","lng":135.206843,"lat":34.895678,"zoom":13},
  {"code":99635,"company_code":204,"name":"粟生線","name_formal":"神鉄粟生線","lng":135.019035,"lat":34.794565,"zoom":11},
  {"code":99636,"company_code":205,"name":"北神急行北神線","name_formal":"北神急行電鉄北神線","lng":135.180499,"lat":34.734054,"zoom":12},
  {"code":99637,"company_code":206,"name":"山陽電鉄本線","name_formal":"山陽電鉄本線","lng":134.884142,"lat":34.747294,"zoom":10},
  {"code":99638,"company_code":206,"name":"山陽電鉄網干線","name_formal":"山陽電鉄網干線","lng":134.628993,"lat":34.796194,"zoom":13},
  {"code":99615,"company_code":207,"name":"能勢電鉄妙見線","name_formal":"能勢電鉄妙見線","lng":135.423799,"lat":34.872305,"zoom":12},
  {"code":99640,"company_code":207,"name":"能勢電鉄日生線","name_formal":"能勢電鉄日生線","lng":135.402694,"lat":34.900813,"zoom":14},
  {"code":99642,"company_code":208,"name":"三木鉄道三木線","name_formal":"三木鉄道三木線","lng":134.939091,"lat":34.798605,"zoom":13,"closed":true},
  {"code":99643,"company_code":209,"name":"北条鉄道北条線","name_formal":"北条鉄道北条線","lng":134.863886,"lat":34.894979,"zoom":12},
  {"code":99644,"company_code":210,"name":"智頭急行智頭線","name_formal":"智頭急行智頭線","lng":134.326813,"lat":35.094419,"zoom":10},
  {"code":99645,"company_code":211,"name":"神戸市営地下鉄西神線","name_formal":"神戸市営地下鉄西神線","lng":135.068889,"lat":34.683072,"zoom":12},
  {"code":99646,"company_code":211,"name":"神戸市営地下鉄山手線","name_formal":"神戸市営地下鉄山手線","lng":135.171474,"lat":34.680322,"zoom":13},
  {"code":99647,"company_code":211,"name":"夢かもめ","name_formal":"神戸市営地下鉄海岸線","lng":135.16886,"lat":34.670659,"zoom":13},
  {"code":99648,"company_code":212,"name":"ポートライナー","name_formal":"神戸新交通ポートアイランド線","lng":135.212604,"lat":34.670334,"zoom":13},
  {"code":99649,"company_code":212,"name":"六甲ライナー","name_formal":"神戸新交通六甲アイランド線","lng":135.267785,"lat":34.702989,"zoom":14},
  {"code":99650,"company_code":213,"name":"紀州鉄道線","name_formal":"紀州鉄道線","lng":135.156126,"lat":33.895428,"zoom":14},
  {"code":99651,"company_code":214,"name":"貴志川線","name_formal":"和歌山電鐵貴志川線","lng":135.240802,"lat":34.229287,"zoom":12},
  {"code":99701,"company_code":215,"name":"若桜線","name_formal":"若桜鉄道若桜線","lng":134.302364,"lat":35.378992,"zoom":12},
  {"code":99702,"company_code":216,"name":"北松江線","name_formal":"一畑電車北松江線","lng":132.897202,"lat":35.457747,"zoom":11},
  {"code":99703,"company_code":216,"name":"大社線","name_formal":"一畑電車大社線","lng":132.730284,"lat":35.389565,"zoom":12},
  {"code":99704,"company_code":217,"name":"水島本線","name_formal":"水島臨海鉄道水島本線","lng":133.74786,"lat":34.564207,"zoom":13},
  {"code":99705,"company_code":218,"name":"井原線","name_formal":"井原鉄道井原線","lng":133.557491,"lat":34.616696,"zoom":11},
  {"code":99706,"company_code":219,"name":"東山線","name_formal":"岡山電軌東山本線","lng":133.931588,"lat":34.66244,"zoom":15},
  {"code":99707,"company_code":219,"name":"清輝橋線","name_formal":"岡山電軌清輝橋線","lng":133.924009,"lat":34.658571,"zoom":15},
  {"code":99708,"company_code":220,"name":"スカイレールみどり坂線","name_formal":"広島短距離交通瀬野線","lng":132.593324,"lat":34.427459,"zoom":15},
  {"code":99709,"company_code":221,"name":"アストラムライン","name_formal":"広島高速交通広島新交通1号線","lng":132.433582,"lat":34.439099,"zoom":12},
  {"code":99710,"company_code":222,"name":"広電１号線(宇品線)","name_formal":"広電１号線(宇品線)","lng":132.463532,"lat":34.380078,"zoom":13},
  {"code":99711,"company_code":222,"name":"広電２号線(宮島線)","name_formal":"広電２号線(宮島線)","lng":132.385827,"lat":34.371507,"zoom":12},
  {"code":99712,"company_code":222,"name":"広電３号線","name_formal":"広電３号線","lng":132.452442,"lat":34.381522,"zoom":13},
  {"code":99713,"company_code":222,"name":"広電５号線(皆実線)","name_formal":"広電５号線(皆実線)","lng":132.467666,"lat":34.378141,"zoom":13},
  {"code":99714,"company_code":222,"name":"広電６号線(江波線)","name_formal":"広電６号線(江波線)","lng":132.454292,"lat":34.388572,"zoom":14},
  {"code":99715,"company_code":222,"name":"広電７号線","name_formal":"広電７号線","lng":132.452816,"lat":34.395047,"zoom":14},
  {"code":99716,"company_code":222,"name":"広電８号線(横川線)","name_formal":"広電８号線(横川線)","lng":132.442765,"lat":34.391156,"zoom":14},
  {"code":99717,"company_code":222,"name":"広電９号線(白島線)","name_formal":"広電９号線(白島線)","lng":132.464167,"lat":34.400809,"zoom":15},
  {"code":99718,"company_code":223,"name":"錦川清流線","name_formal":"錦川鉄道錦川清流線","lng":132.059047,"lat":34.207446,"zoom":11},
  {"code":99801,"company_code":224,"name":"阿波室戸シーサイドライン","name_formal":"阿佐海岸鉄道阿佐東線","lng":134.311257,"lat":33.573504,"zoom":13},
  {"code":99802,"company_code":225,"name":"琴電琴平線","name_formal":"琴電琴平線","lng":133.962144,"lat":34.262128,"zoom":11},
  {"code":99803,"company_code":225,"name":"琴電長尾線","name_formal":"琴電長尾線","lng":134.097367,"lat":34.30701,"zoom":12},
  {"code":99804,"company_code":225,"name":"琴電志度線","name_formal":"琴電志度線","lng":134.116572,"lat":34.345152,"zoom":12},
  {"code":99805,"company_code":226,"name":"伊予鉄道郡中線","name_formal":"伊予鉄道郡中線","lng":132.72982,"lat":33.808536,"zoom":12},
  {"code":99806,"company_code":226,"name":"伊予鉄道高浜線","name_formal":"伊予鉄道高浜線","lng":132.727696,"lat":33.863704,"zoom":13},
  {"code":99807,"company_code":226,"name":"伊予鉄道横河原線","name_formal":"伊予鉄道横河原線","lng":132.823533,"lat":33.812592,"zoom":12},
  {"code":99808,"company_code":226,"name":"伊予鉄道環状線","name_formal":"伊予鉄道１系統","lng":132.762237,"lat":33.844896,"zoom":14},
  {"code":99809,"company_code":226,"name":"伊予鉄道環状線","name_formal":"伊予鉄道２系統","lng":132.762666,"lat":33.843755,"zoom":15},
  {"code":99810,"company_code":226,"name":"伊予鉄道市駅線","name_formal":"伊予鉄道３系統","lng":132.772268,"lat":33.843002,"zoom":14},
  {"code":99811,"company_code":226,"name":"伊予鉄道松山駅前線","name_formal":"伊予鉄道５系統","lng":132.768625,"lat":33.843611,"zoom":14},
  {"code":99812,"company_code":226,"name":"伊予鉄道本町線","name_formal":"伊予鉄道６系統","lng":132.769464,"lat":33.848087,"zoom":14},
  {"code":99814,"company_code":227,"name":"中村線","name_formal":"土佐くろしお鉄道中村線","lng":133.049886,"lat":33.09467,"zoom":11},
  {"code":99815,"company_code":227,"name":"宿毛線","name_formal":"土佐くろしお鉄道宿毛線","lng":132.831054,"lat":32.9626,"zoom":11},
  {"code":99816,"company_code":227,"name":"ごめん・なはり線","name_formal":"土佐くろしお鉄道ごめん・なはり線","lng":133.825217,"lat":33.515977,"zoom":11},
  {"code":99817,"company_code":228,"name":"ごめん線","name_formal":"土佐電鉄ごめん線","lng":133.599336,"lat":33.568629,"zoom":13},
  {"code":99818,"company_code":228,"name":"伊野線","name_formal":"土佐電鉄伊野線","lng":133.491902,"lat":33.552422,"zoom":12},
  {"code":99819,"company_code":228,"name":"桟橋線","name_formal":"土佐電鉄桟橋線","lng":133.546559,"lat":33.552468,"zoom":14},
  {"code":99901,"company_code":229,"name":"甘木鉄道","name_formal":"甘木鉄道","lng":130.58818,"lat":33.41618,"zoom":12},
  {"code":99902,"company_code":230,"name":"伊田線","name_formal":"平成筑豊鉄道伊田線","lng":130.760437,"lat":33.700855,"zoom":12},
  {"code":99903,"company_code":230,"name":"糸田線","name_formal":"平成筑豊鉄道糸田線","lng":130.788732,"lat":33.659069,"zoom":13},
  {"code":99904,"company_code":230,"name":"田川線","name_formal":"平成筑豊鉄道田川線","lng":130.901004,"lat":33.666048,"zoom":12},
  {"code":99928,"company_code":230,"name":"門司港レトロ観光線","name_formal":"平成筑豊鉄道門司港レトロ観光線","lng":130.965949,"lat":33.952694,"zoom":15},
  {"code":99905,"company_code":231,"name":"福岡市営地下鉄空港線","name_formal":"福岡市営地下鉄空港線","lng":130.383813,"lat":33.593568,"zoom":12},
  {"code":99906,"company_code":231,"name":"福岡市営地下鉄箱崎線","name_formal":"福岡市営地下鉄箱崎線","lng":130.417116,"lat":33.614827,"zoom":14},
  {"code":99907,"company_code":231,"name":"福岡市営地下鉄七隈線","name_formal":"福岡市営地下鉄七隈線","lng":130.366789,"lat":33.567083,"zoom":13},
  {"code":99908,"company_code":232,"name":"北九州モノレール","name_formal":"北九州高速鉄道","lng":130.873511,"lat":33.856095,"zoom":13},
  {"code":99909,"company_code":233,"name":"筑豊電気鉄道線","name_formal":"筑豊電気鉄道線","lng":130.731984,"lat":33.824256,"zoom":12},
  {"code":99910,"company_code":234,"name":"西九州線(有田～伊万里)","name_formal":"松浦鉄道西九州線(有田～伊万里)","lng":129.867922,"lat":33.228861,"zoom":12},
  {"code":99911,"company_code":234,"name":"西九州線(伊万里～佐世保)","name_formal":"松浦鉄道西九州線(伊万里～佐世保)","lng":129.73464,"lat":33.283372,"zoom":11},
  {"code":99912,"company_code":235,"name":"島原鉄道線","name_formal":"島原鉄道線","lng":130.191995,"lat":32.768275,"zoom":11},
  {"code":99913,"company_code":236,"name":"長崎電軌１系統","name_formal":"長崎電軌１系統","lng":129.868389,"lat":32.768729,"zoom":13},
  {"code":99914,"company_code":236,"name":"長崎電軌３系統","name_formal":"長崎電軌３系統","lng":129.870541,"lat":32.768163,"zoom":13},
  {"code":99915,"company_code":236,"name":"長崎電軌４系統","name_formal":"長崎電軌４系統","lng":129.884165,"lat":32.747605,"zoom":15},
  {"code":99916,"company_code":236,"name":"長崎電軌５系統","name_formal":"長崎電軌５系統","lng":129.88161,"lat":32.745534,"zoom":14},
  {"code":99917,"company_code":237,"name":"熊本電鉄本線","name_formal":"熊本電鉄本線","lng":130.729807,"lat":32.850622,"zoom":13},
  {"code":99918,"company_code":237,"name":"熊本電鉄上熊本線","name_formal":"熊本電鉄上熊本線","lng":130.709079,"lat":32.823571,"zoom":14},
  {"code":99919,"company_code":238,"name":"高森線","name_formal":"南阿蘇鉄道高森線","lng":131.045126,"lat":32.84394,"zoom":12},
  {"code":99920,"company_code":239,"name":"湯前線","name_formal":"くま川鉄道湯前線","lng":130.881136,"lat":32.239144,"zoom":11},
  {"code":99921,"company_code":240,"name":"肥薩おれんじ鉄道線","name_formal":"肥薩おれんじ鉄道線","lng":130.391373,"lat":32.168418,"zoom":10},
  {"code":99922,"company_code":241,"name":"熊本市電Ａ系統","name_formal":"熊本市電Ａ系統","lng":130.72211,"lat":32.791042,"zoom":13},
  {"code":99923,"company_code":241,"name":"熊本市電Ｂ系統","name_formal":"熊本市電Ｂ系統","lng":130.720343,"lat":32.79799,"zoom":13},
  {"code":99925,"company_code":242,"name":"鹿児島市電１系統","name_formal":"鹿児島市電１系統","lng":130.543142,"lat":31.56371,"zoom":13},
  {"code":99926,"company_code":242,"name":"鹿児島市電２系統","name_formal":"鹿児島市電２系統","lng":130.550718,"lat":31.581544,"zoom":14},
  {"code":99927,"company_code":243,"name":"ゆいレール","name_formal":"沖縄都市モノレール線","lng":127.688109,"lat":26.212294,"zoom":13}
]