[{"code":1123176,"station":"花巻","phonetic":"はなまき","prefecture":3,"lon":141.110458,"lat":39.393182,"lines":[11209,11231],"next":[1123175,1121006,1121005,1121004,1121003,1120902,1123177],"voronoi":{"pivot":[140.969293,39.469890],"points":[0,0,22228,-36633,39162,-52019,31288,-24078,13114,-4799,67624,9623,-25319,56500]}},
{"code":1120902,"station":"似内","phonetic":"にたない","prefecture":3,"lon":141.140889,"lat":39.406819,"lines":[11209],"next":[1123175,1123176,1123177,1120903],"voronoi":{"pivot":[141.117391,39.418483],"points":[0,0,25319,-56500,12797,-3122,2275,74578]}},
{"code":1120903,"station":"新花巻","phonetic":"しんはなまき","prefecture":3,"lon":141.173020,"lat":39.405839,"lines":[11209,50022],"next":[1123178,1123177,1123175,1120905,1120904,1120902],"voronoi":{"pivot":[141.173196,39.452455],"points":[0,0,4191,1289,12327,-93664,-6987,-18501,-27220,17283,2275,74578]}},
{"code":1120904,"station":"小山田","phonetic":"おやまだ","prefecture":3,"lon":141.193999,"lat":39.408600,"lines":[11209],"next":[1123178,1120905,1123179,1120903],"voronoi":{"pivot":[141.177387,39.453743],"points":[0,0,63055,36106,41226,10569,-91954,-140339]}},
{"code":1120905,"station":"土沢","phonetic":"つちざわ","prefecture":3,"lon":141.232488,"lat":39.383381,"lines":[11209],"next":[1120907,1120904,1120906,1121307,1123179,1123175,1120903],"voronoi":{"pivot":[141.182727,39.341579],"points":[0,0,18161,-33715,108098,163811,10916,33508,-14269,6320,-23965,-11084,-91954,-140339]}},
{"code":1120906,"station":"晴山","phonetic":"はるやま","prefecture":3,"lon":141.257892,"lat":39.366617,"lines":[11209],"next":[1120905,1120907,1123175,5000233,1123174],"voronoi":{"pivot":[141.202231,39.303627],"points":[0,0,-1344,4236,108098,163811,-42716,-229150,-32126,10044]}},
{"code":1120907,"station":"岩根橋","phonetic":"いわねばし","prefecture":3,"lon":141.318795,"lat":39.355264,"lines":[11209],"next":[1120909,5000233,1120908,1120905,1121307,1120906],"voronoi":{"pivot":[141.266270,39.242525],"points":[0,0,8033,-4977,53699,66646,26303,197212,-34403,3777,-10916,-33508]}},
{"code":1120908,"station":"宮守","phonetic":"みやもり","prefecture":3,"lon":141.350271,"lat":39.351066,"lines":[11209],"next":[1120907,1120912,1121308,1120911,1121307,1120909,1120913],"voronoi":{"pivot":[141.434752,39.458213],"points":[0,0,-21500,-82334,-12566,-23897,-72685,-47789,26303,197212,13839,-50,70470,-21560]}},
{"code":1120909,"station":"柏木平","phonetic":"かしわぎだいら","prefecture":3,"lon":141.379862,"lat":39.306060,"lines":[11209],"next":[1120907,1120911,5000233,1120910,1120908],"voronoi":{"pivot":[141.401463,39.342223],"points":[0,0,-57187,-187880,-69973,83204,53699,66646,72685,47789]}},
{"code":1120910,"station":"鱒沢","phonetic":"ますざわ","prefecture":3,"lon":141.399252,"lat":39.300158,"lines":[11209],"next":[1120808,5000233,1120817,1120911,1120909],"voronoi":{"pivot":[141.344275,39.154343],"points":[0,0,1964,-2671,91818,-23576,28693,18632,-65288,195495]}},
{"code":1120911,"station":"荒谷前","phonetic":"あらやまえ","prefecture":3,"lon":141.428507,"lat":39.309928,"lines":[11209],"next":[1120909,1120908,1120912,1120910,1120917,1120817],"voronoi":{"pivot":[141.492385,39.214529],"points":[0,0,-79132,161351,-12566,-23897,776,-9759,65288,-195495,8489,4461]}},
{"code":1120912,"station":"岩手二日町","phonetic":"いわてふつかまち","prefecture":3,"lon":141.456060,"lat":39.323441,"lines":[11209],"next":[1120908,1120911,1120913,1120917],"voronoi":{"pivot":[141.492385,39.214529],"points":[0,0,-79132,161351,21500,82334,58120,-242527]}},
{"code":1120913,"station":"綾織","phonetic":"あやおり","prefecture":3,"lon":141.476845,"lat":39.328422,"lines":[11209],"next":[1120914,1121308,1120917,1121309,1120916,1120912,1120908],"voronoi":{"pivot":[141.449146,39.481146],"points":[0,0,43537,-5074,17029,-223391,-8944,-22276,-7896,-14719,-58120,242527,3861,21582]}},
{"code":1123174,"station":"北上","phonetic":"きたかみ","prefecture":3,"lon":141.121221,"lat":39.281196,"lines":[11210,11231,50022],"next":[5000233,1121002,1123172,1121003,1123173,1123175,1120906],"voronoi":{"pivot":[141.202231,39.303627],"points":[0,0,-65421,-1218,-45897,-32708,-2249,-5964,59926,-26551,45273,-4621,40280,20003]}},
{"code":1121002,"station":"柳原(岩手)","phonetic":"やなぎはら","prefecture":3,"lon":141.111671,"lat":39.294597,"lines":[11210],"next":[1123175,1123174,1121003],"voronoi":{"pivot":[141.136811,39.302409],"points":[0,0,-45897,-32708,4743,45404]}},
{"code":1121003,"station":"江釣子","phonetic":"えづりこ","prefecture":3,"lon":141.075749,"lat":39.298349,"lines":[11210],"next":[1123175,1123173,1121002,1123174,1123176,1121004],"voronoi":{"pivot":[141.075086,39.352360],"points":[0,0,20571,-37255,-4743,-45404,-2249,-5964,-34507,-10704,7814,104126]}},
{"code":1121004,"station":"藤根","phonetic":"ふじね","prefecture":3,"lon":141.039571,"lat":39.301064,"lines":[11210],"next":[1123173,1121005,1123176,1121003],"voronoi":{"pivot":[141.030683,39.381237],"points":[0,0,-27014,-168248,50488,40044,7814,104126]}},
{"code":1123169,"station":"前沢","phonetic":"まえさわ","prefecture":3,"lon":141.126240,"lat":39.048686,"lines":[11231],"next":[1121007,1123172,1120806,1123170,1121009,1120805,1123168],"voronoi":{"pivot":[140.878996,39.052128],"points":[0,0,17382,20486,46569,35918,58965,5214,201963,-64914,-3322,-7063,-20181,-31580]}},
{"code":1123170,"station":"陸中折居","phonetic":"りくちゅうおりい","prefecture":3,"lon":141.140864,"lat":39.094185,"lines":[11231],"next":[1123171,5000233,1123172,1123169,1120806],"voronoi":{"pivot":[141.203875,39.048833],"points":[0,0,-201963,64914,52316,13879,117648,-14520,49128,-45978]}},
{"code":1123171,"station":"水沢","phonetic":"みずさわ","prefecture":3,"lon":141.146395,"lat":39.138998,"lines":[11231],"next":[1123170,5000233,1123172],"voronoi":{"pivot":[141.054227,39.127626],"points":[0,0,117648,-14520,-10948,73490]}},
{"code":1123172,"station":"金ケ崎","phonetic":"かねがさき","prefecture":3,"lon":141.112894,"lat":39.199615,"lines":[11231],"next":[1123169,1123173,1123170,1123174,1121007,5000233,1123171],"voronoi":{"pivot":[141.193863,39.232566],"points":[0,0,-45273,4621,-191633,-103606,-14011,-25048,58965,5214,52316,13879,106700,58970]}},
{"code":1123173,"station":"六原","phonetic":"ろくはら","prefecture":3,"lon":141.097605,"lat":39.227894,"lines":[11231],"next":[1123172,1121005,1121004,1121003,1121006,1123174,1121007],"voronoi":{"pivot":[140.956957,39.133581],"points":[0,0,191633,103606,-59926,26551,-34507,-10704,-50488,-40044,-26106,-32791,-217,-334]}},
{"code":1123175,"station":"村崎野","phonetic":"むらさきの","prefecture":3,"lon":141.120442,"lat":39.323027,"lines":[11231],"next":[1121003,1123176,1121002,1123174,1120903,1120902,1120905,1120906],"voronoi":{"pivot":[141.200888,39.307864],"points":[0,0,-18161,33715,-27220,17283,-12797,3122,-67624,-9623,20571,-37255,41154,-12696,65421,1218]}},
{"code":1123177,"station":"花巻空港","phonetic":"はなまきくうこう","prefecture":3,"lon":141.127625,"lat":39.442639,"lines":[11231],"next":[1123178,1121104,1120903,1121006,1120902,1123176,1121106],"voronoi":{"pivot":[140.987481,39.526448],"points":[0,0,185714,-73994,-15414,-19015,-40391,-14956,-148097,51406,-24215,28226,7086,6441]}},
{"code":1123178,"station":"石鳥谷","phonetic":"いしどりや","prefecture":3,"lon":141.146861,"lat":39.490919,"lines":[11231],"next":[1123177,1123181,1121104,1120903,1120904,1123179,1123180],"voronoi":{"pivot":[141.046149,39.544852],"points":[0,0,-34089,2925,-24578,-21328,185714,-73994,4191,1289,63055,36106,-182614,52613]}},
{"code":5000233,"station":"水沢江刺","phonetic":"みずさわえさし","prefecture":3,"lon":141.188703,"lat":39.145301,"lines":[50022],"next":[1120806,1120907,1123170,1123174,1120909,1120808,1120910,1120807,1123171,1123172,1120906],"voronoi":{"pivot":[141.234144,39.252568],"points":[0,0,-40280,-20003,-32936,-45970,10948,-73490,49128,-45978,9781,4039,67573,38024,47882,42482,-1964,2671,-69973,83204,-8033,4977]}}
]