[{"code":1192502,"station":"段","phonetic":"だん","prefecture":43,"lon":130.645736,"lat":32.468101,"lines":[11925],"next":[1190347,9992102,1192503,1190346,1190348,1190349],"voronoi":{"pivot":[130.674052,32.500322],"points":[0,0,42089,115,40046,-10290,-134020,-49465,9929,44206,13781,9313]}},
{"code":1192503,"station":"坂本","phonetic":"さかもと","prefecture":43,"lon":130.657898,"lat":32.435149,"lines":[11925],"next":[9992010,9992011,1190346,9992102,1192502,1192505,9992012,1192504,1190345],"voronoi":{"pivot":[130.839106,32.482248],"points":[0,0,-82918,7899,-134020,-49465,-1959,-2197,53205,-26657,153598,-11568,8233,12120,15825,25308,20787,37363]}},
{"code":1192504,"station":"葉木","phonetic":"はき","prefecture":43,"lon":130.645444,"lat":32.410293,"lines":[11925],"next":[1192505,1192506,1192503,9992103,9992102,1192507],"voronoi":{"pivot":[130.628886,32.390641],"points":[0,0,44527,21187,-53205,26657,-607,-306,-18247,-45004,6600,-2836]}},
{"code":1192505,"station":"鎌瀬","phonetic":"かませ","prefecture":43,"lon":130.654580,"lat":32.391092,"lines":[11925],"next":[1192506,1192504,9992009,1192514,9992010,1192503,9992007,9992002],"voronoi":{"pivot":[130.821169,32.389137],"points":[0,0,2947,5402,2895,5721,-153598,11568,-44527,-21187,123143,-53832,23767,10391,28700,19123]}},
{"code":1192506,"station":"瀬戸石","phonetic":"せといし","prefecture":43,"lon":130.646004,"lat":32.371474,"lines":[11925],"next":[1192505,1192507,1192512,1192511,1192509,1192504,1192513,1192514],"voronoi":{"pivot":[130.735553,32.327629],"points":[0,0,-34974,-12657,-12223,-2055,-14997,-791,-1560,894,-63844,77318,20932,302,123143,-53832]}},
{"code":1192507,"station":"海路","phonetic":"かいじ","prefecture":43,"lon":130.619280,"lat":32.349407,"lines":[11925],"next":[1192509,1192506,9992104,9992103,1192508,1192504],"voronoi":{"pivot":[130.601355,32.393174],"points":[0,0,-14567,-6321,-11490,-11256,49520,-50806,46981,-11771,-63844,77318]}},
{"code":1192508,"station":"吉尾","phonetic":"よしお","prefecture":43,"lon":130.600352,"lat":32.330958,"lines":[11925],"next":[9992106,9992107,1192509,9992105,1192507,9992104,9992109],"voronoi":{"pivot":[130.548109,32.319253],"points":[0,0,6239,30206,3616,10501,7759,10231,9575,5406,49520,-50806,-71957,-22718]}},
{"code":1192509,"station":"白石(熊本)","phonetic":"しろいし","prefecture":43,"lon":130.608328,"lat":32.305694,"lines":[11925],"next":[1192507,1192506,1192508,9992110,1192510,9992109,1192511],"voronoi":{"pivot":[130.641279,32.286636],"points":[0,0,-84276,304,-4057,12203,-86,2930,71957,22718,46981,-11771,1560,-894]}},
{"code":1192510,"station":"球泉洞","phonetic":"きゅうせんどう","prefecture":43,"lon":130.608191,"lat":32.267817,"lines":[11925],"next":[1192511,9992110,5000194,1192509],"voronoi":{"pivot":[130.557003,32.286941],"points":[0,0,-4049,-122769,39672,161,48653,122304]}},
{"code":1192511,"station":"一勝地","phonetic":"いっしょうち","prefecture":43,"lon":130.652399,"lat":32.250231,"lines":[11925],"next":[1192510,1192512,1192506,5000194,1192509],"voronoi":{"pivot":[130.688355,32.312918],"points":[0,0,-66884,-155195,-28845,6610,48653,122304,32079,25490]}},
{"code":1192512,"station":"那良口","phonetic":"ならぐち","prefecture":43,"lon":130.667479,"lat":32.243732,"lines":[11925],"next":[1192513,1192511,1192506,5000194],"voronoi":{"pivot":[130.700578,32.314972],"points":[0,0,-12223,-2055,-66884,-155195,35303,-11291]}},
{"code":1192513,"station":"渡","phonetic":"わたり","prefecture":43,"lon":130.694801,"lat":32.236631,"lines":[11925],"next":[1192512,1192514,5000194,1192506,1192518],"voronoi":{"pivot":[130.660398,32.144662],"points":[0,0,-3624,1770,43804,168541,34974,12657,-47087,-177022]}},
{"code":1192514,"station":"西人吉","phonetic":"にしひとよし","prefecture":43,"lon":130.725707,"lat":32.228410,"lines":[11925],"next":[1192513,1192518,1192505,1192515,1192517,9992002,1192506],"voronoi":{"pivot":[130.775797,32.347200],"points":[0,0,-20086,-88382,-46341,-106107,-4914,-1746,-15990,-357,47087,177022,16477,9179]}},
{"code":1192515,"station":"人吉(人吉温泉)","phonetic":"ひとよしおんせん","prefecture":43,"lon":130.753797,"lat":32.216142,"lines":[11925,99920],"next":[9992002,1192517,1192514,1192516],"voronoi":{"pivot":[130.714840,32.153493],"points":[0,0,-5471,-782,46341,106107,10319,-71415]}},
{"code":1192516,"station":"大畑","phonetic":"おこば","prefecture":43,"lon":130.787722,"lat":32.164930,"lines":[11925],"next":[9992003,9992005,1192913,9992004,1192517,9992002,1192914,1192515],"voronoi":{"pivot":[130.772347,32.189540],"points":[0,0,22582,-4044,49583,-28040,29263,-30780,-25657,-12373,-368,-85,-132910,39275,51189,33910]}},
{"code":1192517,"station":"矢岳","phonetic":"やたけ","prefecture":43,"lon":130.769799,"lat":32.104278,"lines":[11925],"next":[1192515,1192915,1192518,1192514,1192516,1192914],"voronoi":{"pivot":[130.794023,32.074022],"points":[0,0,-34098,1093,-55469,75850,4914,1746,5471,782,132910,-39275]}},
{"code":1192518,"station":"真幸","phonetic":"まさき","prefecture":45,"lon":130.729140,"lat":32.074544,"lines":[11925],"next":[5000194,1192514,1192517,1192915,1192519,1192513,1192916],"voronoi":{"pivot":[130.759924,32.075115],"points":[0,0,-55469,75850,-15990,-357,-28067,-5946,12435,-110093,37463,5372,34594,15188]}},
{"code":1192519,"station":"吉松","phonetic":"よしまつ","prefecture":46,"lon":130.738104,"lat":32.012026,"lines":[11925,11929,11926],"next":[5000192,1192914,1192518,1192602,1192916,5000194],"voronoi":{"pivot":[130.670376,32.028089],"points":[0,0,977,-32798,129936,-30535,-11680,30192,-79312,44993,-37463,-5372]}},
{"code":9992002,"station":"相良藩願成寺","phonetic":"さがらはんがんじょうじ","prefecture":43,"lon":130.769626,"lat":32.218429,"lines":[99920],"next":[1192515,9992006,1192514,1192516,9992005,9992007,9992003,1192505],"voronoi":{"pivot":[130.775797,32.347200],"points":[0,0,-20086,-88382,10319,-71415,6318,2137,35442,81667,1471,26671,-4121,63132,-643,5313]}},
{"code":9992003,"station":"川村(熊本)","phonetic":"かわむら","prefecture":43,"lon":130.795307,"lat":32.207284,"lines":[99920],"next":[1192516,9992004,9992002,9992005],"voronoi":{"pivot":[130.807789,32.271207],"points":[0,0,-35442,-81667,22582,-4044,18630,50289]}},
{"code":9992004,"station":"肥後西村","phonetic":"ひごにしのむら","prefecture":43,"lon":130.808839,"lat":32.202271,"lines":[99920],"next":[1192516,9992005,9992003],"voronoi":{"pivot":[130.794930,32.185495],"points":[0,0,49583,-28040,-30953,78329]}},
{"code":9992005,"station":"一武","phonetic":"いちぶ","prefecture":43,"lon":130.839915,"lat":32.214551,"lines":[99920],"next":[1192516,9992004,1192913,1192912,9992002,9992006,9992003],"voronoi":{"pivot":[130.844513,32.157455],"points":[0,0,29263,-30780,10302,588,11460,1945,-86277,168669,-1471,-26671,5770,-35422]}},
{"code":9992006,"station":"木上","phonetic":"きのえ","prefecture":43,"lon":130.858888,"lat":32.224256,"lines":[99920],"next":[9992007,9992002,1192912,9992008,9992005],"voronoi":{"pivot":[130.809261,32.297877],"points":[0,0,-4121,63132,104345,-227705,1075,-3144,-15022,-952]}},
{"code":9992007,"station":"おかどめ幸福","phonetic":"おかどめこうふく","prefecture":43,"lon":130.873629,"lat":32.231011,"lines":[99920],"next":[9992006,9992008,1192505,9992002,9992009],"voronoi":{"pivot":[130.821169,32.389137],"points":[0,0,-16673,-22814,643,-5313,104345,-227705,-40361,157034]}},
{"code":9992008,"station":"あさぎり","phonetic":"あさぎり","prefecture":43,"lon":130.893783,"lat":32.236191,"lines":[99920],"next":[9992007,1192911,9992006,9992009,1192912],"voronoi":{"pivot":[130.983854,32.132205],"points":[0,0,-114730,158134,40361,-157034,1075,-3144,30068,-3301]}},
{"code":9992009,"station":"東免田","phonetic":"ひがしめんだ","prefecture":43,"lon":130.912947,"lat":32.250095,"lines":[99920],"next":[1192505,9992010,9992008,9992007,1192910,1192911],"voronoi":{"pivot":[130.983854,32.132205],"points":[0,0,-114730,158134,-47954,98798,2947,5402,172260,-261487,-1859,-453]}},
{"code":9992010,"station":"公立病院前","phonetic":"こうりつびょういんまえ","prefecture":43,"lon":130.921768,"lat":32.255906,"lines":[99920],"next":[1192910,1192503,9992011,1192505,9992013,9992009],"voronoi":{"pivot":[131.001548,32.134111],"points":[0,0,-4296,9823,-162007,268445,-8233,-12120,-2895,-5721,172260,-261487]}},
{"code":9992011,"station":"多良木","phonetic":"たらぎ","prefecture":43,"lon":130.933362,"lat":32.262903,"lines":[99920],"next":[9992013,1192503,9992010,9992012],"voronoi":{"pivot":[130.997251,32.143935],"points":[0,0,-162007,268445,15825,25308,119635,-223679]}},
{"code":9992012,"station":"東多良木","phonetic":"ひがしたらぎ","prefecture":43,"lon":130.950765,"lat":32.272211,"lines":[99920],"next":[9992013,1190345,9992011,1192503,9992014],"voronoi":{"pivot":[130.970704,32.214008],"points":[0,0,-119635,223679,20787,37363,25347,19770,46654,-149087]}},
{"code":9992013,"station":"新鶴羽","phonetic":"しんつるば","prefecture":43,"lon":130.966275,"lat":32.275372,"lines":[99920],"next":[9992011,9992012,9992010,9992014,1192910],"voronoi":{"pivot":[130.943858,32.345734],"points":[0,0,26847,-131725,26547,-70074,4296,-9823,33942,1175]}},
{"code":9992014,"station":"湯前","phonetic":"ゆのまえ","prefecture":43,"lon":130.980094,"lat":32.281389,"lines":[99920],"next":[1190725,1192910,1190726,1190722,9991908,1190720,1190345,1190724,9991909,9992013,9991906,9991907,1190716,1190721,9992012],"voronoi":{"pivot":[131.035490,32.135287],"points":[0,0,181424,-2473,13676,22526,7028,13498,30273,75576,7844,50429,4065,78906,-1367,94381,-5263,23606,-112855,29876,-114271,27603,-21341,4113,-53943,7261,-73556,-65768,46654,-149087]}},
{"code":9992102,"station":"肥後高田","phonetic":"ひごこうだ","prefecture":43,"lon":130.612588,"lat":32.475546,"lines":[99921],"next":[1192502,1192411,1192503,1190349,9992103,9992104,1192504,1192410],"voronoi":{"pivot":[130.519505,32.518105],"points":[0,0,-238,-257,2370,-2675,97964,-76995,607,306,1959,2197,9929,44206,-110337,35223]}},
{"code":9992103,"station":"日奈久温泉","phonetic":"ひなぐおんせん","prefecture":43,"lon":130.581635,"lat":32.436163,"lines":[99921],"next":[9992104,9992102,1192504,1192507],"voronoi":{"pivot":[130.619601,32.438179],"points":[0,0,-97964,76995,65150,-128320,14567,6321]}},
{"code":9992104,"station":"肥後二見","phonetic":"ひごふたみ","prefecture":43,"lon":130.550019,"lat":32.420111,"lines":[99921],"next":[9992103,1192507,9992105,9992102,1192411,1192508],"voronoi":{"pivot":[130.565722,32.370192],"points":[0,0,-105734,122318,59279,25339,2370,-2675,65150,-128320,-11490,-11256]}},
{"code":9992105,"station":"上田浦","phonetic":"かみたのうら","prefecture":43,"lon":130.518600,"lat":32.392952,"lines":[99921],"next":[9992104,9992106,1192508,1192411],"voronoi":{"pivot":[130.565722,32.370192],"points":[0,0,-7759,-10231,-246941,98735,148966,33814]}},
{"code":9992106,"station":"たのうら御立岬公園","phonetic":"たのうらおたちみさきこうえん","prefecture":43,"lon":130.506705,"lat":32.363202,"lines":[99921],"next":[1192508,9992107,1192411,9992108,9992105],"voronoi":{"pivot":[130.311022,32.458695],"points":[0,0,-27193,-4098,178502,-90958,92016,-14180,3616,10501]}},
{"code":9992107,"station":"肥後田浦","phonetic":"ひごたのうら","prefecture":43,"lon":130.504778,"lat":32.350698,"lines":[99921],"next":[1192508,9992106,9992109,9992108],"voronoi":{"pivot":[130.548109,32.319253],"points":[0,0,6239,30206,-92016,14180,56470,-39830]}},
{"code":9992110,"station":"湯浦","phonetic":"ゆのうら","prefecture":43,"lon":130.504667,"lat":32.271231,"lines":[99921],"next":[9992109,1192510,5000194,9992111,1192509],"voronoi":{"pivot":[130.552955,32.164172],"points":[0,0,-9691,-4810,-83788,117654,93471,22128,4057,-12203]}},
{"code":1192911,"station":"西小林","phonetic":"にしこばやし","prefecture":45,"lon":130.921829,"lat":32.009409,"lines":[11929],"next":[1192909,1190746,9992008,1192910,1192912,9992009],"voronoi":{"pivot":[130.983854,32.132205],"points":[0,0,-43226,-5345,-83739,-203078,34817,-15456,44353,54148,58459,170125]}},
{"code":1192912,"station":"えびの飯野","phonetic":"えびのいいの","prefecture":45,"lon":130.871178,"lat":32.030295,"lines":[11929],"next":[1190746,9992005,1192913,1192911,9992006,9992008],"voronoi":{"pivot":[130.910560,32.130160],"points":[0,0,-15022,-952,-11460,-1945,-49612,-199863,22423,-3619,83739,203078]}},
{"code":1192913,"station":"えびの上江","phonetic":"えびのうわえ","prefecture":45,"lon":130.850133,"lat":32.035519,"lines":[11929],"next":[1192516,9992005,1192602,1192912,1190746,1192914],"voronoi":{"pivot":[130.873775,32.126676],"points":[0,0,10302,588,-49612,-199863,-3624,220,-15227,22671,32504,164011]}},
{"code":1192914,"station":"えびの","phonetic":"えびの","prefecture":45,"lon":130.816210,"lat":32.042242,"lines":[11929],"next":[1192602,1192915,1192519,1192516,1192517,1192913,1192916],"voronoi":{"pivot":[130.801289,31.964755],"points":[0,0,14326,-14464,32504,164011,-368,-85,-53728,-40196,-4940,-76067,526,-3007]}},
{"code":1192915,"station":"京町温泉","phonetic":"きょうまちおんせん","prefecture":45,"lon":130.767911,"lat":32.045379,"lines":[11929],"next":[1192517,1192518,1192914,1192916],"voronoi":{"pivot":[130.744890,32.055129],"points":[0,0,15034,19986,34098,-1093,-4940,-76067]}},
{"code":1192916,"station":"鶴丸","phonetic":"つるまる","prefecture":46,"lon":130.748524,"lat":32.030394,"lines":[11929],"next":[1192519,1192914,1192518,1192915],"voronoi":{"pivot":[130.744890,32.055129],"points":[0,0,-34594,-15188,79312,-44993,-526,3007]}},
{"code":5000192,"station":"西太良","closed":true,"phonetic":"にしたら","prefecture":46,"lon":130.603723,"lat":32.008027,"lines":[50019],"next":[1192519,5000191,5000193,5000194,1192602,1192603,5000190],"voronoi":{"pivot":[130.635230,31.959099],"points":[0,0,-64418,52199,67301,20023,32263,-3233,977,-32798,-18342,-38290,-1037,-1012]}},
{"code":5000193,"station":"羽月","closed":true,"phonetic":"はつき","prefecture":46,"lon":130.596582,"lat":32.032029,"lines":[50019],"next":[9992116,5000192,5000191,5000187,9992112,5000194],"voronoi":{"pivot":[130.570811,32.011299],"points":[0,0,-62874,18950,-29758,34521,7499,31280,597,559,151837,-65287]}},
{"code":5000194,"station":"薩摩大口","closed":true,"phonetic":"さつまおおくち","prefecture":46,"lon":130.609029,"lat":32.060977,"lines":[50019],"next":[1192518,1192513,5000192,1192512,1192511,9992110,1192510,9992112,1192519,5000193,9992111],"voronoi":{"pivot":[130.552955,32.164172],"points":[0,0,39672,161,28845,-6610,35303,-11291,3624,-1770,12435,-110093,-2458,-6480,-32263,3233,-151837,65287,36098,43395,20890,19358]}}
]