[{"code":1190529,"station":"喜々津","phonetic":"ききつ","prefecture":42,"lon":129.986270,"lat":32.832743,"lines":[11905],"next":[1190528,1190533,1190530,1192212,1190531],"voronoi":{"pivot":[130.012965,32.771020],"points":[0,0,-42247,62768,17083,28194,10707,937,18993,-96490]}},
{"code":1190530,"station":"市布","phonetic":"いちぬの","prefecture":42,"lon":129.965831,"lat":32.818986,"lines":[11905],"next":[1190534,1190533,1190529,1190531,1190535],"voronoi":{"pivot":[129.937601,32.829971],"points":[0,0,33117,3818,42247,-62768,-79872,55497,115,593]}},
{"code":1190531,"station":"肥前古賀","phonetic":"ひぜんこが","prefecture":42,"lon":129.951571,"lat":32.798463,"lines":[11905],"next":[9991203,9991209,1190528,1190532,1190535,1190530,9991401,9991204,1190529],"voronoi":{"pivot":[130.038063,32.731618],"points":[0,0,14150,-42300,21464,-80968,1829,-18349,-118833,143913,-25837,89106,2257,3498,79872,-55497,4536,-4591]}},
{"code":1190532,"station":"現川","phonetic":"うつつがわ","prefecture":42,"lon":129.926453,"lat":32.791180,"lines":[11905],"next":[9991402,9991401,1190536,1190531,9991306,1190535],"voronoi":{"pivot":[129.902668,32.804614],"points":[0,0,-8456,-14302,489,-5790,6297,-5842,55675,-44767,-25837,89106]}},
{"code":1190533,"station":"東園(長崎)","phonetic":"ひがしその","prefecture":42,"lon":129.962591,"lat":32.847091,"lines":[11905],"next":[1190534,1190529,1190530,1192212],"voronoi":{"pivot":[129.970717,32.833789],"points":[0,0,-33117,-3818,24052,43229,26148,-11217]}},
{"code":1190534,"station":"大草","phonetic":"おおくさ","prefecture":42,"lon":129.938972,"lat":32.860232,"lines":[11905],"next":[1192209,1190533,1190530,1192212,1192211,1190535],"voronoi":{"pivot":[129.870343,32.913441],"points":[0,0,31880,-5624,51333,-23323,8096,-11295,-24052,-43229,-4393,-2860]}},
{"code":1190535,"station":"本川内","phonetic":"ほんかわち","prefecture":42,"lon":129.899916,"lat":32.831792,"lines":[11905],"next":[1190536,1190537,1190531,1190530,1190532,1190534,1192209],"voronoi":{"pivot":[129.843935,32.926410],"points":[0,0,31911,-78912,26822,-42883,28168,18405,2257,3498,115,593,-62864,86331]}},
{"code":1190536,"station":"長与","phonetic":"ながよ","prefecture":42,"lon":129.879434,"lat":32.818981,"lines":[11905],"next":[1190535,1190537,1190532,9991306,9991303,9991302,9991305],"voronoi":{"pivot":[129.883244,32.796094],"points":[0,0,-7105,4697,-2515,1832,2222,44875,26822,-42883,-8456,-14302,-8808,4548]}},
{"code":1190537,"station":"高田(長崎)","phonetic":"こうだ","prefecture":42,"lon":129.869457,"lat":32.819475,"lines":[11905],"next":[1192208,9991302,1190536,1190538,1190535,1192209,9991301,1192204],"voronoi":{"pivot":[129.829186,32.936641],"points":[0,0,14749,-10232,31911,-78912,-2222,-44875,-4731,1661,-1113,497,-113069,122879,71742,10310]}},
{"code":1190538,"station":"道ノ尾","phonetic":"みちのお","prefecture":42,"lon":129.852997,"lat":32.804329,"lines":[11905],"next":[9991309,1192203,1190537,1192204,1192202,1190540,9991310,9991301,9991134],"voronoi":{"pivot":[128.739142,32.485955],"points":[0,0,977989,261400,40806,12067,40014,12734,69828,32624,-113069,122879,-42237,-3036,-110158,-20222,-55196,-10851]}},
{"code":1190539,"station":"西浦上","phonetic":"にしうらかみ","prefecture":42,"lon":129.859206,"lat":32.790245,"lines":[11905],"next":[9991306,9991308,9991303,9991301,9991309,9991307,9991302,9991305,9991304],"voronoi":{"pivot":[129.859787,32.791067],"points":[0,0,-1925,663,-45456,-16399,8938,1613,33101,6814,239,88,1168,802,3549,3391,678,1896]}},
{"code":9991303,"station":"昭和町通り","phonetic":"しょうわまちどおり","prefecture":42,"lon":129.860694,"lat":32.790630,"lines":[99913,99914],"next":[9991302,1190539,1190536,9991304,9991305],"voronoi":{"pivot":[129.879014,32.794772],"points":[0,0,-18934,-4836,-292,1132,16351,9723,7105,-4697]}},
{"code":1190540,"station":"浦上","phonetic":"うらかみ","prefecture":42,"lon":129.863304,"lat":32.765767,"lines":[11905],"next":[9991311,9991611,9991310,1190538,9991315,9991312,9991314,9991610,9991134,9991313],"voronoi":{"pivot":[129.863356,32.764466],"points":[0,0,-13575,-9440,-24085,-14012,-64222,-16809,-1118993,-284941,96662,46691,977989,261400,140213,21425,1901,-190,5028,-1341]}},
{"code":9991313,"station":"浦上駅前","phonetic":"うらかみえきまえ","prefecture":42,"lon":129.864171,"lat":32.765481,"lines":[99913,99914],"next":[9991315,9991312,9991314,1190540],"voronoi":{"pivot":[129.863356,32.764466],"points":[0,0,10847,2761,51,22,-9980,0]}},
{"code":1190541,"station":"長崎(長崎)","phonetic":"ながさき","prefecture":42,"lon":129.870515,"lat":32.753085,"lines":[11905],"next":[9991321,9991315,9991319,9991318,9991317,9991316,9991320],"voronoi":{"pivot":[129.870127,32.750674],"points":[0,0,1773,3418,-7110,-297,-7102,-2397,-10604,-5958,15056,1905,1367,262]}},
{"code":9991318,"station":"長崎駅前","phonetic":"ながさきえきまえ","prefecture":42,"lon":129.871874,"lat":32.752380,"lines":[99913,99914],"next":[9991317,9991319,1190541,9991406],"voronoi":{"pivot":[129.873456,32.751058],"points":[0,0,-3329,-385,1773,3418,3807,2106]}},
{"code":1192208,"station":"松原(長崎)","phonetic":"まつばら","prefecture":42,"lon":129.946190,"lat":32.977380,"lines":[11922],"next":[1190537,1192204,1192209,1190517,1190524,1192206,1192207],"voronoi":{"pivot":[129.902456,32.994494],"points":[0,0,-53121,-26902,-22883,-29622,2733,-1328,222290,40661,8526,16460,-1609,3424]}},
{"code":1192209,"station":"竹松","phonetic":"たけまつ","prefecture":42,"lon":129.953035,"lat":32.939959,"lines":[11922],"next":[1190534,1190524,1192208,1192210,1190537,1190535,1192211],"voronoi":{"pivot":[130.050253,32.973296],"points":[0,0,1223,4007,-222290,-40661,14749,-10232,26409,-12968,31880,-5624,1339,433]}},
{"code":1192210,"station":"諏訪","phonetic":"すわ","prefecture":42,"lon":129.960277,"lat":32.923627,"lines":[11922],"next":[1190524,1192212,1192209,1192211],"voronoi":{"pivot":[130.046341,32.954875],"points":[0,0,3911,18421,-146690,-65045,92615,14901]}},
{"code":1192211,"station":"大村(長崎)","phonetic":"おおむら","prefecture":42,"lon":129.962238,"lat":32.911439,"lines":[11922],"next":[1190534,1192210,1192212,1192209],"voronoi":{"pivot":[129.902223,32.907818],"points":[0,0,51333,-23323,42621,38657,-92615,-14901]}},
{"code":1192212,"station":"岩松","phonetic":"いわまつ","prefecture":42,"lon":129.981218,"lat":32.890513,"lines":[11922],"next":[1190524,1190525,1192210,1190527,1190534,1190533,1190529,1190528,1192211],"voronoi":{"pivot":[130.046341,32.954875],"points":[0,0,154,-24095,-3341,-11481,-28636,-43777,-16011,-12602,-10707,-937,-26148,11217,-8096,11295,42621,38657]}},
{"code":9991301,"station":"赤迫","phonetic":"あかさこ","prefecture":42,"lon":129.857948,"lat":32.793732,"lines":[99913,99914],"next":[1190539,9991302,1190537,9991309,1190538],"voronoi":{"pivot":[129.797951,32.772156],"points":[0,0,14455,3175,45456,16399,11030,12553,-1113,497]}},
{"code":9991302,"station":"住吉(長崎)","phonetic":"すみよし","prefecture":42,"lon":129.859836,"lat":32.792073,"lines":[99913,99914],"next":[1190537,9991303,9991301,1190536,1190539],"voronoi":{"pivot":[129.857862,32.791731],"points":[0,0,11030,12553,4731,-1661,2515,-1832,-16351,-9723]}},
{"code":9991304,"station":"千歳町(長崎)","phonetic":"ちとせまち","prefecture":42,"lon":129.860952,"lat":32.789620,"lines":[99913,99914],"next":[9991305,9991303,1190539],"voronoi":{"pivot":[129.859401,32.788039],"points":[0,0,19612,6732,-18934,-4836]}},
{"code":9991305,"station":"若葉町","phonetic":"わかばまち","prefecture":42,"lon":129.861596,"lat":32.787744,"lines":[99913,99914],"next":[9991304,9991306,1190539,9991303,1190536],"voronoi":{"pivot":[129.855853,32.784648],"points":[0,0,3549,3391,19612,6732,4230,1322,2160,-1233]}},
{"code":9991306,"station":"長崎大学","phonetic":"ながさきだいがく","prefecture":42,"lon":129.862282,"lat":32.785759,"lines":[99913,99914],"next":[1190539,1190536,9991307,1190532,9991402,9991305],"voronoi":{"pivot":[129.894212,32.790313],"points":[0,0,489,-5790,-801,-676,-39215,0,1168,802,29551,10212]}},
{"code":9991307,"station":"岩屋橋","phonetic":"いわやばし","prefecture":42,"lon":129.862282,"lat":32.781935,"lines":[99913,99914],"next":[9991308,9991311,9991402,9991306,1190539,9991309],"voronoi":{"pivot":[129.889593,32.779747],"points":[0,0,4307,4099,-39215,0,-239,-88,12108,-4838,6811,-1314]}},
{"code":9991308,"station":"浦上車庫","phonetic":"うらかみしゃこ","prefecture":42,"lon":129.861381,"lat":32.779680,"lines":[99913,99914],"next":[9991307,1190539,9991309],"voronoi":{"pivot":[129.821345,32.776944],"points":[0,0,33101,6814,12108,-4838]}},
{"code":9991309,"station":"大橋(長崎)","phonetic":"おおはし","prefecture":42,"lon":129.861467,"lat":32.777713,"lines":[99913,99914],"next":[9991310,1190538,1190539,9991308,9991311,9991301,9991307],"voronoi":{"pivot":[129.866554,32.778921],"points":[0,0,-45209,-1976,-8938,-1613,-14455,-3175,-40014,-12734,114042,17736,1385,448]}},
{"code":9991310,"station":"平和公園","phonetic":"へいわこうえん","prefecture":42,"lon":129.862132,"lat":32.773437,"lines":[99913,99914],"next":[9991309,1190540,1190538,9991311],"voronoi":{"pivot":[129.857345,32.768781],"points":[0,0,-140213,-21425,40806,12067,114042,17736]}},
{"code":9991311,"station":"原爆資料館","phonetic":"げんばくしりょうかん","prefecture":42,"lon":129.863784,"lat":32.770551,"lines":[99913,99914],"next":[9991403,9991307,9991312,1190540,9991404,9991309,9991310,9991402],"voronoi":{"pivot":[129.873364,32.777606],"points":[0,0,-1385,-448,-14635,-8378,1901,-190,26896,6785,1256,1420,1296,1634,899,1318]}},
{"code":9991312,"station":"大学病院","phonetic":"だいがくびょういん","prefecture":42,"lon":129.864171,"lat":32.769017,"lines":[99913,99914],"next":[9991315,9991313,9991311,9991316,1190540,9991404],"voronoi":{"pivot":[129.859246,32.768590],"points":[0,0,5028,-1341,9980,0,2679,578,4589,1946,4620,5602]}},
{"code":9991314,"station":"茂里町","phonetic":"もりまち","prefecture":42,"lon":129.864557,"lat":32.763965,"lines":[99913,99914],"next":[9991313,9991315,1190540],"voronoi":{"pivot":[129.874202,32.767228],"points":[0,0,-24422,-12201,13575,9440]}},
{"code":9991315,"station":"銭座町","phonetic":"ぜんざまち","prefecture":42,"lon":129.865801,"lat":32.761475,"lines":[99913,99914],"next":[9991312,9991313,1190541,9991610,9991321,1190540,9991316,9991314],"voronoi":{"pivot":[129.874254,32.767249],"points":[0,0,2679,578,-19245,-16430,-10604,-5958,-541,-181,-20847,-4244,24085,14012,24422,12201]}},
{"code":9991316,"station":"宝町(長崎)","phonetic":"たからまち","prefecture":42,"lon":129.868913,"lat":32.757830,"lines":[99913,99914],"next":[9991312,9991404,9991315,9991317,1190541],"voronoi":{"pivot":[129.857688,32.751397],"points":[0,0,19245,16430,4589,1946,-2978,-8631,-13754,-7348]}},
{"code":9991317,"station":"八千代町","phonetic":"やちよまち","prefecture":42,"lon":129.870436,"lat":32.754979,"lines":[99913,99914],"next":[9991318,9991406,1190541,9991316,9991404],"voronoi":{"pivot":[129.864789,32.753795],"points":[0,0,7110,297,3807,2106,2502,3027,335,1918]}},
{"code":9991319,"station":"五島町","phonetic":"ごとうまち","prefecture":42,"lon":129.872217,"lat":32.749411,"lines":[99913],"next":[9991511,9991318,1190541,9991406,9991320],"voronoi":{"pivot":[129.874947,32.747514],"points":[0,0,-1491,3545,-3329,-385,-6620,-3067,11088,-441]}},
{"code":9991320,"station":"大波止","phonetic":"おおはと","prefecture":42,"lon":129.872046,"lat":32.745116,"lines":[99913],"next":[9991321,9991322,9991511,9991323,1190541,9991319],"voronoi":{"pivot":[129.863506,32.747607],"points":[0,0,-1367,-262,11369,-3333,685,883,295,848,106,1423]}},
{"code":9991321,"station":"出島","phonetic":"でじま","prefecture":42,"lon":129.871681,"lat":32.743871,"lines":[99913],"next":[1190541,9991320,9991315,9991609,9991322,9991610],"voronoi":{"pivot":[129.846542,32.745258],"points":[0,0,541,181,15056,1905,11369,-3333,-492,-1603,-4736,-1031]}},
{"code":9991322,"station":"新地中華街","phonetic":"しんちちゅうかがい","prefecture":42,"lon":129.874942,"lat":32.742869,"lines":[99913,99916],"next":[9991320,9991323,9991324,9991321,9991609,9991325],"voronoi":{"pivot":[129.877463,32.737609],"points":[0,0,-4446,4799,492,1603,685,883,2451,-3037,829,-3828]}},
{"code":9991323,"station":"西浜町","phonetic":"にしはまのまち","prefecture":42,"lon":129.876015,"lat":32.743735,"lines":[99913,99916],"next":[9991511,9991322,9991320,9991324],"voronoi":{"pivot":[129.876644,32.741858],"points":[0,0,-2451,3037,295,848,2441,-1894]}},
{"code":9991324,"station":"観光通り","phonetic":"かんこうどおり","prefecture":42,"lon":129.877775,"lat":32.743483,"lines":[99913,99915],"next":[9991511,9991506,9991322,9991323,9991325],"voronoi":{"pivot":[129.877474,32.738029],"points":[0,0,-829,3828,285,1991,1612,1214,1033,-134]}},
{"code":9991325,"station":"思案橋","phonetic":"しあんばし","prefecture":42,"lon":129.880264,"lat":32.742725,"lines":[99913,99915],"next":[9991326,9991506,9991612,9991322,9991609,9991324,9991405],"voronoi":{"pivot":[129.881690,32.746001],"points":[0,0,-2116,-1073,-2101,-6899,-11,-420,55,-196,233,-215,6114,8678]}},
{"code":9991326,"station":"崇福寺","phonetic":"そうふくじ","prefecture":42,"lon":129.882109,"lat":32.741425,"lines":[99913,99915],"next":[9991325,9992113,9991402,9991612,9991209,9991403,9991405,9991401],"voronoi":{"pivot":[130.112835,32.448183],"points":[0,0,-12508,-11974,-222577,300990,6114,8678,2083,380,2586,-1084,1364,-1039,215455,-269485]}},
{"code":9991401,"station":"蛍茶屋","phonetic":"ほたるぢゃや","prefecture":42,"lon":129.894254,"lat":32.751135,"lines":[99914,99915,99916],"next":[9991209,1190532,9991402,1190531,9991326],"voronoi":{"pivot":[129.889898,32.744133],"points":[0,0,11100,34547,55675,-44767,118833,-143913,29847,-115352]}},
{"code":9991402,"station":"新中川町","phonetic":"しんなかがわまち","prefecture":42,"lon":129.890435,"lat":32.752362,"lines":[99914,99915,99916],"next":[1190532,9991307,9991326,9991401,9991306,9991403,9991311],"voronoi":{"pivot":[129.893899,32.783847],"points":[0,0,801,676,6297,-5842,-11100,-34547,-1364,1039,160,33257,899,1318]}},
{"code":9991403,"station":"新大工町","phonetic":"しんんだいくまち","prefecture":42,"lon":129.886701,"lat":32.752380,"lines":[99914,99915,99916],"next":[9991311,9991404,9991405,9991326,9991402],"voronoi":{"pivot":[129.888533,32.745172],"points":[0,0,-2586,1084,-915,1870,2365,28669,1296,1634]}},
{"code":9991404,"station":"諏訪神社","phonetic":"すわじんじゃ","prefecture":42,"lon":129.884083,"lat":32.752596,"lines":[99914,99915,99916],"next":[9991403,9991405,9991316,9991406,9991311,9991317,9991312],"voronoi":{"pivot":[129.881522,32.769773],"points":[0,0,-2978,-8631,-335,-1918,1013,-4817,5811,-6281,2365,28669,-1256,-1420]}},
{"code":9991405,"station":"市民会館","phonetic":"しみんかいかん","prefecture":42,"lon":129.880650,"lat":32.749420,"lines":[99914,99915,99916],"next":[9991506,9991406,9991404,9991403,9991326,9991325],"voronoi":{"pivot":[129.885947,32.746256],"points":[0,0,-915,1870,-5811,6281,-1306,-4902,3775,-3504,2174,-125]}},
{"code":9991406,"station":"桜町(長崎)","phonetic":"さくらまち","prefecture":42,"lon":129.875500,"lat":32.750792,"lines":[99914],"next":[9991405,9991506,9991404,9991317,9991511,9991318,9991319],"voronoi":{"pivot":[129.874971,32.747519],"points":[0,0,2944,1986,1306,4902,-1013,4817,-2502,-3027,-2251,-5139,1491,-3545]}},
{"code":9991506,"station":"めがね橋","phonetic":"めがねばし","prefecture":42,"lon":129.878204,"lat":32.746785,"lines":[99915,99916],"next":[9991405,9991511,9991325,9991406,9991324],"voronoi":{"pivot":[129.878542,32.745062],"points":[0,0,-3570,2457,2944,1986,3775,-3504,-2116,-1073]}},
{"code":9991511,"station":"浜町アーケード","phonetic":"はまのまちあーけーど","prefecture":42,"lon":129.876812,"lat":32.744762,"lines":[99915,99916],"next":[9991506,9991323,9991319,9991324,9991320,9991406],"voronoi":{"pivot":[129.878542,32.745062],"points":[0,0,-1612,-1214,-2441,1894,106,1423,352,348,25,6]}},
{"code":9991609,"station":"メディカルセンター","phonetic":"めでぃかるせんたー","prefecture":42,"lon":129.872410,"lat":32.740523,"lines":[99916],"next":[9991611,9991610,9991321,9991322,9991325,9991612],"voronoi":{"pivot":[129.877463,32.737609],"points":[0,0,-4446,4799,-4736,-1031,5694,-3855,304,-120,3239,11]}},
{"code":9991610,"station":"大浦海岸通り","phonetic":"おおうらかいがんどおり","prefecture":42,"lon":129.870608,"lat":32.737861,"lines":[99916],"next":[9991611,9991315,9991609,9991321,1190540],"voronoi":{"pivot":[129.761473,32.724205],"points":[0,0,112501,13317,-5694,3855,-21738,3881,-20847,-4244]}},
{"code":9991611,"station":"大浦天主堂","phonetic":"おおうらてんしゅどう","prefecture":42,"lon":129.870780,"lat":32.736408,"lines":[99916],"next":[9991610,1190540,9991609,9991612,9992125,1193036,9991133,9991134,5000195,9992121],"voronoi":{"pivot":[128.345741,31.609661],"points":[0,0,-940282,-389845,-1925865,-563793,-370315,122917,2296551,1081158,1236650,579167,1118993,284941,112501,13317,304,-120,-1361548,-1051555]}},
{"code":9991612,"station":"石橋(長崎)","phonetic":"いしばし","prefecture":42,"lon":129.872432,"lat":32.734269,"lines":[99916],"next":[9992121,9992113,9991326,9991611,9992120,9991325,9991609],"voronoi":{"pivot":[129.874279,32.737403],"points":[0,0,-1361548,-1051555,1284557,584839,281568,144293,21472,21229,-222577,300990,-233,215]}}
]