[{"code":1193027,"station":"西頴娃","phonetic":"にしえい","prefecture":46,"lon":130.491351,"lat":31.241025,"lines":[11930],"next":[1193014,1193028,1193013,1193026],"voronoi":{"pivot":[130.461992,31.209446],"points":[0,0,45514,93467,9993,-6406,21873,-28560]}},
{"code":1193028,"station":"御領(鹿児島)","phonetic":"ごりょう","prefecture":46,"lon":130.468747,"lat":31.252032,"lines":[11930],"next":[1193029,1193026,1193030,1193013,1193012,1193027],"voronoi":{"pivot":[130.461992,31.209446],"points":[0,0,-22505,-31022,4794,35674,34391,112408,11219,-6586,17615,-17007]}},
{"code":1193029,"station":"石垣","phonetic":"いしかき","prefecture":46,"lon":130.445227,"lat":31.259228,"lines":[11930],"next":[1193028,1193011,1193031,1193010,1193012,1193030],"voronoi":{"pivot":[130.478672,31.326507],"points":[0,0,-45820,38227,-1352,904,-6880,3287,1067,-25104,18594,-129722]}},
{"code":1193030,"station":"水成川","phonetic":"みずなりかわ","prefecture":46,"lon":130.430695,"lat":31.257145,"lines":[11930],"next":[1193031,1193028,1193026,1193025,1193029],"voronoi":{"pivot":[130.439487,31.178425],"points":[0,0,-7920,-19669,-14724,-24542,8844,209607,18594,-129722]}},
{"code":1193031,"station":"頴娃大川","phonetic":"えいおおかわ","prefecture":46,"lon":130.413394,"lat":31.257875,"lines":[11930],"next":[1193030,1193033,1193032,1193029,1193025,1193010],"voronoi":{"pivot":[130.410149,31.378588],"points":[0,0,-12824,-249644,635,-31872,18883,37142,8844,209607,-1067,25104]}},
{"code":1193032,"station":"松ヶ浦","phonetic":"まつがうら","prefecture":46,"lon":130.394551,"lat":31.258843,"lines":[11930],"next":[1193031,1193033,1193010,1193009],"voronoi":{"pivot":[130.371606,31.405865],"points":[0,0,25719,-276921,12824,249644,-19888,15661]}},
{"code":1193033,"station":"薩摩塩屋","phonetic":"さつましおや","prefecture":46,"lon":130.376128,"lat":31.257132,"lines":[11930],"next":[1193031,1193035,1193032,1193025,1193009,1193034],"voronoi":{"pivot":[130.365026,31.359607],"points":[0,0,5406,47095,1173,-837,25719,-276921,635,-31872,-28904,-78037]}},
{"code":1193034,"station":"白沢(鹿児島)","phonetic":"しらさわ","prefecture":46,"lon":130.356352,"lat":31.256898,"lines":[11930],"next":[1193035,1193025,1193033],"voronoi":{"pivot":[130.143736,30.323282],"points":[0,0,221291,1036325,4029,-340572]}},
{"code":1193035,"station":"薩摩板敷","phonetic":"さつまいたしき","prefecture":46,"lon":130.330993,"lat":31.262313,"lines":[11930],"next":[1193034,5000195,1193009,1193033,1193008,1193025,1193036],"voronoi":{"pivot":[129.478586,28.583585],"points":[0,0,109826,-57737,555324,1797434,221291,1036325,5406,47095,-2282,2218,-6991,5685]}},
{"code":1193036,"station":"枕崎","phonetic":"まくらざき","prefecture":46,"lon":130.299439,"lat":31.272150,"lines":[11930],"next":[9992126,1193008,1190414,5000195,1190407,9991611,9992125,1190404,1193035,1190408,1190405],"voronoi":{"pivot":[130.281311,31.468966],"points":[0,0,35342,-9503,44506,-44858,-882574,-2831020,-3998991,2072438,1925865,563793,1429284,181519,260846,29518,734755,40719,304614,10806,42366,-334]}}
]