[{"code":9992122,"station":"牛ノ浜","phonetic":"うしのはま","prefecture":46,"lon":130.207038,"lat":31.973962,"lines":[99921],"next":[9992123,9992121,9992119,9992124,9992125],"voronoi":{"pivot":[130.127768,31.919878],"points":[0,0,148104,72604,-24932,16806,-1332058,-292522,1200453,200687]}},
{"code":9992123,"station":"薩摩大川","phonetic":"さつまおおかわ","prefecture":46,"lon":130.219072,"lat":31.949414,"lines":[99921],"next":[9992119,9992124,9992122,5000177,9992118],"voronoi":{"pivot":[130.307684,31.944685],"points":[0,0,-179916,-24807,148104,72604,7054,-2983,37811,-27596]}},
{"code":9992124,"station":"西方","phonetic":"にしかた","prefecture":46,"lon":130.223658,"lat":31.916153,"lines":[99921],"next":[9992123,9992125,5000176,5000177,9992122],"voronoi":{"pivot":[130.307684,31.944685],"points":[0,0,-4849,-9828,-23026,-37857,-160474,20453,8433,2425]}},
{"code":9992125,"station":"薩摩高城","phonetic":"さつまたき","prefecture":46,"lon":130.220649,"lat":31.892545,"lines":[99921],"next":[9992121,9991611,9992124,5000176,1193036,9992126,9992122],"voronoi":{"pivot":[130.279809,31.897000],"points":[0,0,-2276,-6342,-1442790,-489324,-1429284,-181519,940282,389845,573141,107106,1200453,200687]}},
{"code":9992126,"station":"草道","phonetic":"くさみち","prefecture":46,"lon":130.233533,"lat":31.854556,"lines":[99921],"next":[1193036,5000176,1190404,1190402,9992127,9992125],"voronoi":{"pivot":[128.834743,31.401335],"points":[0,0,260846,29518,1140038,351552,11339,13453,30582,93841,-15,960]}},
{"code":9992127,"station":"上川内","phonetic":"かみせんだい","prefecture":46,"lon":130.292406,"lat":31.835370,"lines":[99921],"next":[1190402,5000176,1190401,9992126],"voronoi":{"pivot":[130.246966,31.795857],"points":[0,0,38191,13098,29222,26630,-36831,54113]}},
{"code":1190401,"station":"川内(鹿児島)","phonetic":"せんだい","prefecture":46,"lon":130.312130,"lat":31.813726,"lines":[99921,11904,50019,50029],"next":[5000176,9992127,5000179,5000178,1190402],"voronoi":{"pivot":[130.285158,31.808956],"points":[0,0,29222,26630,19187,-4776,14218,-27972,823,-8977]}},
{"code":1190402,"station":"隈之城","phonetic":"くまのじょう","prefecture":46,"lon":130.307092,"lat":31.792550,"lines":[11904],"next":[9992127,9992126,1190404,1190403,5000179,1190401],"voronoi":{"pivot":[130.353398,31.780999],"points":[0,0,-106340,-3841,-11431,5246,11339,13453,38191,13098,63450,-15095]}},
{"code":1190403,"station":"木場茶屋","phonetic":"こばんちゃや","prefecture":46,"lon":130.308046,"lat":31.766138,"lines":[11904],"next":[5000179,1190406,1190404,1190414,1190405,1190402],"voronoi":{"pivot":[130.384251,31.739312],"points":[0,0,-43949,-13687,-24365,1701,-5432,2082,-63447,47750,106340,3841]}},
{"code":1190404,"station":"串木野","phonetic":"くしきの","prefecture":46,"lon":130.274531,"lat":31.721605,"lines":[11904],"next":[9992126,1190414,1193036,1190403,1190402],"voronoi":{"pivot":[130.310506,31.729409],"points":[0,0,-480161,-257837,-734755,-40719,1140038,351552,11431,-5246]}},
{"code":1190414,"station":"神村学園前","phonetic":"かみむらがくえんまえ","prefecture":46,"lon":130.284129,"lat":31.703731,"lines":[11904],"next":[1190405,1193036,1190404,1190403],"voronoi":{"pivot":[130.310506,31.729409],"points":[0,0,-480161,-257837,304614,10806,180979,244949]}},
{"code":1190405,"station":"市来","phonetic":"いちき","prefecture":46,"lon":130.302727,"lat":31.689990,"lines":[11904],"next":[1190414,1190407,1190406,1190403,1193036],"voronoi":{"pivot":[130.134959,31.482377],"points":[0,0,180979,244949,24365,-1701,-40219,-85376,-122759,-158206]}},
{"code":1190406,"station":"湯之元","phonetic":"ゆのもと","prefecture":46,"lon":130.336753,"lat":31.673961,"lines":[11904],"next":[1190408,1190407,5000179,1190403,1190405,5000181],"voronoi":{"pivot":[130.410237,31.731465],"points":[0,0,-25985,7848,-43949,-13687,-40219,-85376,100517,58052,19877,26746]}},
{"code":1190407,"station":"東市来","phonetic":"ひがしいちき","prefecture":46,"lon":130.347609,"lat":31.655164,"lines":[11904],"next":[1190408,1190405,1190406,1193036],"voronoi":{"pivot":[130.400600,31.698302],"points":[0,0,-100517,-58052,-122759,-158206,103987,-13078]}},
{"code":1190408,"station":"伊集院","phonetic":"いじゅういん","prefecture":46,"lon":130.395703,"lat":31.630148,"lines":[11904],"next":[1190407,1190406,1193008,1190409,5000181,1193036],"voronoi":{"pivot":[130.281311,31.468966],"points":[0,0,119289,229336,19877,26746,53008,-9428,-140237,-244548,-16595,-11609]}},
{"code":1190409,"station":"薩摩松元","phonetic":"さつままつもと","prefecture":46,"lon":130.439002,"lat":31.605318,"lines":[11904],"next":[5000181,1190410,1190408,1193008,1190753],"voronoi":{"pivot":[130.394271,31.501600],"points":[0,0,-61023,-30528,140237,244548,18360,765,11410,-20510]}},
{"code":1190410,"station":"上伊集院","phonetic":"かみいじゅういん","prefecture":46,"lon":130.459468,"lat":31.593837,"lines":[11904],"next":[1190753,1193008,9992503,9992501,1193006,1190409,1190413],"voronoi":{"pivot":[130.466821,31.545780],"points":[0,0,-72037,-43988,-513,-193,108984,194275,660,-937,1824,-25285,993,-19323]}},
{"code":5000176,"station":"薩摩白浜","closed":true,"phonetic":"さつましらはま","prefecture":46,"lon":130.322640,"lat":31.855948,"lines":[50019],"next":[1190401,9992126,9992127,5000178,9992125,9992124,5000177],"voronoi":{"pivot":[130.302836,31.934858],"points":[0,0,-23026,-37857,-2276,-6342,15,-960,36831,-54113,19187,-4776,3116,6508]}},
{"code":5000177,"station":"楠元","closed":true,"phonetic":"くすもと","prefecture":46,"lon":130.336167,"lat":31.860642,"lines":[50019],"next":[5000178,9992117,5000184,9992123,5000183,5000176,9992124,9992118],"voronoi":{"pivot":[130.320738,31.961903],"points":[0,0,-13053,-17218,-4849,-9828,33847,-97540,52690,55609,-3602,19157,-20570,55538,-10173,147]}},
{"code":5000178,"station":"吉野山","closed":true,"phonetic":"よしのやま","prefecture":46,"lon":130.360001,"lat":31.838059,"lines":[50019],"next":[5000177,5000176,5000183,5000179,5000180,1190401],"voronoi":{"pivot":[130.333566,31.830809],"points":[0,0,3116,6508,52690,55609,6260,-12867,-10118,-33562,-37730,-43660]}},
{"code":5000179,"station":"樋脇","closed":true,"phonetic":"ひわき","prefecture":46,"lon":130.380863,"lat":31.820030,"lines":[50019],"next":[1190403,1190406,5000180,5000178,5000181,1190401,1190402],"voronoi":{"pivot":[130.384251,31.739312],"points":[0,0,25985,-7848,-1131,21046,-23591,93987,-37730,-43660,823,-8977,4791,-12861]}},
{"code":5000180,"station":"上樋脇","closed":true,"phonetic":"かみひわき","prefecture":46,"lon":130.402114,"lat":31.825364,"lines":[50019],"next":[5000181,5000179,5000183,5000178,5000182],"voronoi":{"pivot":[130.407050,31.870300],"points":[0,0,-11417,9759,-10118,-33562,23591,-93987,9715,100329]}},
{"code":5000181,"station":"入来","closed":true,"phonetic":"いりき","prefecture":46,"lon":130.429945,"lat":31.822669,"lines":[50019],"next":[5000182,1190753,1190752,1190409,5000180,1190408,5000179,1190406],"voronoi":{"pivot":[130.410237,31.731465],"points":[0,0,-1131,21046,9715,100329,116613,-67990,-5880,-10580,-37708,-57885,-18360,-765,-53008,9428]}},
{"code":5000182,"station":"薩摩山崎","closed":true,"phonetic":"さつまやまざき","prefecture":46,"lon":130.450556,"lat":31.858020,"lines":[50019],"next":[5000181,5000183,1190752,5000185,5000189,5000180,1190751],"voronoi":{"pivot":[130.518934,31.860196],"points":[0,0,-17777,9660,-94107,445,11771,-17461,116613,-67990,5414,6549,13383,18603]}},
{"code":5000183,"station":"船木","closed":true,"phonetic":"ふなき","prefecture":46,"lon":130.450670,"lat":31.882169,"lines":[50019],"next":[5000178,5000180,5000182,5000177,5000185,5000184],"voronoi":{"pivot":[130.385771,31.912083],"points":[0,0,3602,-19157,6260,-12867,11417,-9759,94107,-445,-17719,15929]}},
{"code":5000184,"station":"宮之城","closed":true,"phonetic":"みやのじょう","prefecture":46,"lon":130.456916,"lat":31.905365,"lines":[50019],"next":[9992117,5000177,5000185,5000186,5000183],"voronoi":{"pivot":[130.385771,31.912083],"points":[0,0,-20570,55538,9782,6767,92798,-57442,15657,-31162]}},
{"code":5000185,"station":"佐志","closed":true,"phonetic":"さし","prefecture":46,"lon":130.483557,"lat":31.918751,"lines":[50019],"next":[5000186,5000189,5000184,5000182,5000188,5000183,5000187],"voronoi":{"pivot":[130.515664,31.899354],"points":[0,0,3269,-39158,-17777,9660,-17719,15929,-15657,31162,18636,14607,19998,-7933]}},
{"code":5000186,"station":"薩摩湯田","closed":true,"phonetic":"さつまゆだ","prefecture":46,"lon":130.473301,"lat":31.931835,"lines":[50019],"next":[5000187,9992117,5000185,9992116,5000184],"voronoi":{"pivot":[130.374983,31.974388],"points":[0,0,32041,29910,27711,20329,51682,-93074,-18636,-14607]}},
{"code":5000187,"station":"薩摩鶴田","closed":true,"phonetic":"さつまつるだ","prefecture":46,"lon":130.493111,"lat":31.942835,"lines":[50019],"next":[5000186,5000188,5000191,5000185,5000193,9992116],"voronoi":{"pivot":[130.434735,32.024627],"points":[0,0,51682,-93074,19998,-7933,16269,71614,-14746,35014,-29758,34521]}}
]