[{"code":1120208,"station":"院内","phonetic":"いんない","prefecture":5,"lon":140.413800,"lat":39.049706,"lines":[11202],"next":[9921012,1120207,1120209,5000085,5000086],"voronoi":{"pivot":[140.407056,39.121629],"points":[0,0,73942,-187063,-210968,195768,10455,15910,114755,-19353]}},
{"code":1120209,"station":"横堀","phonetic":"よこぼり","prefecture":5,"lon":140.451310,"lat":39.064533,"lines":[11202],"next":[1120210,5000085,1120208,1122120,1120207,1122117,1122121,1122115],"voronoi":{"pivot":[140.648148,38.957000],"points":[0,0,-41827,-20541,-72131,-15522,-39827,-3210,-13366,16840,-73942,187063,15275,-2092,227045,-161527]}},
{"code":1120210,"station":"三関","phonetic":"みつせき","prefecture":5,"lon":140.483796,"lat":39.110196,"lines":[11202],"next":[1120211,1122114,1120209,1120214,1121012,5000085,1122115],"voronoi":{"pivot":[140.649376,38.958010],"points":[0,0,-227045,161527,15961,5492,205755,-12555,13868,-5309,73708,-95803,-21956,-15216]}},
{"code":1120211,"station":"上湯沢","phonetic":"かみゆざわ","prefecture":5,"lon":140.485262,"lat":39.134221,"lines":[11202],"next":[1120210,5000085,1120212,1120214,1120213],"voronoi":{"pivot":[140.575010,39.143513],"points":[0,0,-99841,5976,-36878,-24459,205755,-12555,-61319,28927]}},
{"code":1120212,"station":"湯沢","phonetic":"ゆざわ","prefecture":5,"lon":140.487011,"lat":39.163443,"lines":[11202],"next":[1120211,1120213,5000085],"voronoi":{"pivot":[140.475170,39.149488],"points":[0,0,99841,-5976,-97579,44750]}},
{"code":1120220,"station":"大曲(秋田)","phonetic":"おおまがり","prefecture":5,"lon":140.479628,"lat":39.465712,"lines":[11202,11211],"next":[1121116,1120221,5000083,1120219],"voronoi":{"pivot":[140.445449,39.404690],"points":[0,0,-27108,12259,44327,80820,60341,-46633]}},
{"code":1120221,"station":"神宮寺","phonetic":"じんぐうじ","prefecture":5,"lon":140.426518,"lat":39.494841,"lines":[11202],"next":[1121113,1121114,1120222,1121115,5000083,1120220,1121116],"voronoi":{"pivot":[140.462668,39.497770],"points":[0,0,-44327,-80820,-117476,3251,155884,159754,5976,-13307,1666,-6886,1506,-19278]}},
{"code":1121116,"station":"北大曲","phonetic":"きたおおまがり","prefecture":5,"lon":140.497966,"lat":39.489440,"lines":[11211],"next":[1121115,1120220,1120221,1120219],"voronoi":{"pivot":[140.523008,39.451136],"points":[0,0,-60341,46633,3229,42714,74358,-85748]}},
{"code":1121449,"station":"西目","phonetic":"にしめ","prefecture":5,"lon":140.018518,"lat":39.347536,"lines":[11214],"next":[1121453,1121450,1121454,9921003,1121448,9921004,9921002],"voronoi":{"pivot":[140.040764,39.326578],"points":[0,0,-14432,-40389,-216675,202328,20887,-3863,128806,-39178,45748,-45484,34072,-50379]}},
{"code":1121450,"station":"羽後本荘","phonetic":"うごほんじょう","prefecture":5,"lon":140.057632,"lat":39.386877,"lines":[11214,99210],"next":[9921002,1121449,1121453,9921003,1121451,9921006],"voronoi":{"pivot":[140.028014,39.442011],"points":[0,0,-68663,3465,45748,-45484,65340,-30625,35472,2218,18756,12698]}},
{"code":1121451,"station":"羽後岩谷","phonetic":"うごいわや","prefecture":5,"lon":140.090600,"lat":39.442075,"lines":[11214],"next":[1121452,1121453,9921007,1120223,1121450,9921006],"voronoi":{"pivot":[140.124666,39.384284],"points":[0,0,-96653,57728,33201,17666,170888,-2472,28227,-52718,-95950,-16403]}},
{"code":1121452,"station":"折渡","phonetic":"おりわたり","prefecture":5,"lon":140.091097,"lat":39.476423,"lines":[11214],"next":[1121451,1121454,1120227,1121453,1121455,1120223,1120226],"voronoi":{"pivot":[140.167434,39.554493],"points":[0,0,-2556,744,-30313,-12270,-31855,-16593,-41496,-66696,170888,-2472,-27128,69816]}},
{"code":1121453,"station":"羽後亀田","phonetic":"うごかめだ","prefecture":5,"lon":140.063032,"lat":39.493884,"lines":[11214],"next":[1121451,1121449,1121450,1121452,1121454],"voronoi":{"pivot":[139.830545,39.484655],"points":[0,0,128806,-39178,68663,-3465,33201,17666,41496,66696]}},
{"code":9921002,"station":"薬師堂(秋田)","phonetic":"やくしどう","prefecture":5,"lon":140.048788,"lat":39.368008,"lines":[99210],"next":[1121450,9921003,1121449],"voronoi":{"pivot":[140.005099,39.399993],"points":[0,0,65340,-30625,-31268,-19754]}},
{"code":9921003,"station":"子吉","phonetic":"こよし","prefecture":5,"lon":140.059913,"lat":39.350399,"lines":[99210],"next":[9921006,9921005,1121449,9921002,1121450,9921004],"voronoi":{"pivot":[140.095009,39.355869],"points":[0,0,10902,15716,-35472,-2218,-31268,-19754,1594,-23035,52641,27504]}},
{"code":9921004,"station":"鮎川","phonetic":"あゆかわ","prefecture":5,"lon":140.071254,"lat":39.328693,"lines":[99210],"next":[1121448,9921005,9921008,9921010,1121449,9921003],"voronoi":{"pivot":[140.040764,39.326578],"points":[0,0,-14432,-40389,10896,-29871,20745,15442,8365,10258,27067,72064]}},
{"code":9921005,"station":"黒沢(由利高原鉄道)","phonetic":"くろさわ","prefecture":5,"lon":140.093365,"lat":39.320388,"lines":[99210],"next":[9921007,9921006,9921003,9921004,9921008],"voronoi":{"pivot":[140.098916,39.306185],"points":[0,0,-3907,49685,-1603,-1787,-27067,-72064,32411,23751]}},
{"code":9921006,"station":"曲沢","phonetic":"まがりさわ","prefecture":5,"lon":140.102178,"lat":39.321081,"lines":[99210],"next":[9921003,9921005,9921007,1121451,1121450],"voronoi":{"pivot":[140.164379,39.388084],"points":[0,0,-65464,-81900,-3907,49685,10902,15716,18756,12698]}},
{"code":9921007,"station":"前郷","phonetic":"まえごう","prefecture":5,"lon":140.112727,"lat":39.312649,"lines":[99210],"next":[9921005,1120223,9921008,9921009,5000083,1121451,9921006,9921012],"voronoi":{"pivot":[140.245802,39.309706],"points":[0,0,-89764,-9730,-57289,5793,166,415,65464,81900,95950,16403,531,-439,7347,-87202]}},
{"code":9921008,"station":"久保田(秋田)","phonetic":"くぼた","prefecture":5,"lon":140.111067,"lat":39.296231,"lines":[99210],"next":[9921007,9921010,9921004,9921005,9921009],"voronoi":{"pivot":[140.068952,39.273815],"points":[0,0,-10978,-2054,8365,10258,32411,23751,57289,-5793]}},
{"code":9921009,"station":"西滝沢","phonetic":"にしたきさわ","prefecture":5,"lon":140.116448,"lat":39.278319,"lines":[99210],"next":[9921007,9921012,9921008,9921010],"voronoi":{"pivot":[140.068952,39.273815],"points":[0,0,87087,26162,89764,9730,-79077,-37093]}},
{"code":9921010,"station":"吉沢","phonetic":"よしざわ","prefecture":5,"lon":140.116323,"lat":39.268145,"lines":[99210],"next":[9921012,9921008,1121448,9921011,9921004,9921009],"voronoi":{"pivot":[140.068952,39.273815],"points":[0,0,-10978,-2054,-20745,-15442,-2175,-15244,121396,25389,10276,6150]}},
{"code":9921011,"station":"川辺","phonetic":"かわべ","prefecture":5,"lon":140.120360,"lat":39.248842,"lines":[99210],"next":[9921012,1121445,9921010,1121448],"voronoi":{"pivot":[140.020193,39.184543],"points":[0,0,15283,-39530,120974,121450,-121396,-25389]}},
{"code":9921012,"station":"矢島","phonetic":"やしま","prefecture":5,"lon":140.138970,"lat":39.230305,"lines":[99210],"next":[9921010,1120208,1120205,9921011,1121445,9921009,5000086,5000083,1120207,1121441,9921007,1120206],"voronoi":{"pivot":[140.202793,39.082135],"points":[0,0,-103363,-43394,-49411,53894,-14543,52378,120974,121450,10276,6150,79077,37093,22405,7140,25118,-65614,-12841,-104988,-10455,-15910,-4740,-4439]}},
{"code":5000083,"station":"羽後大森","closed":true,"phonetic":"うごおおもり","prefecture":5,"lon":140.422199,"lat":39.338726,"lines":[50004],"next":[1120222,5000086,9921007,1120223,1120221,1120219,5000084,9921012,1120220,1120218],"voronoi":{"pivot":[140.318204,39.253959],"points":[0,0,-24879,-2726,-25118,65614,-7347,87202,33691,14647,6313,1505,117476,-3251,27108,-12259,33337,-46165,5817,-25833]}},
{"code":5000084,"station":"羽後里見","closed":true,"phonetic":"うごさとみ","prefecture":5,"lon":140.449695,"lat":39.280615,"lines":[50004],"next":[1120216,1120214,5000086,5000083,1120213,1120217,1120218,1120215],"voronoi":{"pivot":[140.502803,39.303796],"points":[0,0,-3612,13543,-14588,15354,-166398,-78734,150009,-20039,12971,8209,9001,11600,11934,33235]}},
{"code":5000085,"station":"羽後山田","closed":true,"phonetic":"うごやまだ","prefecture":5,"lon":140.465031,"lat":39.164725,"lines":[50005],"next":[1120211,1120209,1120213,1120208,1120210,5000086,1120212],"voronoi":{"pivot":[140.470229,39.196571],"points":[0,0,-74989,-69680,11816,-5262,15275,-2092,15961,5492,36878,24459,2262,38774]}},
{"code":5000086,"station":"羽後三輪","closed":true,"phonetic":"うごみわ","prefecture":5,"lon":140.438087,"lat":39.193722,"lines":[50005],"next":[5000083,5000084,9921012,5000085,1120213,1120208],"voronoi":{"pivot":[140.280485,39.146244],"points":[0,0,12841,104988,24879,2726,150009,-20039,2015,-37348,-74989,-69680]}}
]