{
"stations":[
{"code":1120110,"station":"野辺地","phonetic":"のへじ","prefecture":2,"lon":141.119603,"lat":40.855142,"lines":[11203,99206,50002,50036],"next":[5000049,1120111,1120302,1120109]},
{"code":1120302,"station":"北野辺地","phonetic":"きたのへじ","prefecture":2,"lon":141.134115,"lat":40.871077,"lines":[11203],"next":[1120303,1120109,1120110,1120111]},
{"code":1120303,"station":"有戸","phonetic":"ありと","prefecture":2,"lon":141.189264,"lat":40.913949,"lines":[11203],"next":[1120108,1120109,1120302,1120304,1120111,1120107]},
{"code":1120601,"station":"八戸","phonetic":"はちのへ","prefecture":2,"lon":141.431499,"lat":40.509200,"lines":[11206,99206,50022,50036],"next":[9920605,9920606,1120603,1120602,1120102,1120103]},
{"code":1120602,"station":"長苗代","phonetic":"ながなわしろ","prefecture":2,"lon":141.465907,"lat":40.521460,"lines":[11206],"next":[1120102,1120603,1120601]},
{"code":1120603,"station":"本八戸","phonetic":"ほんはちのへ","prefecture":2,"lon":141.488762,"lat":40.516286,"lines":[11206],"next":[1120604,1120601,9920606,1120602,1120102]},
{"code":1120102,"station":"陸奥市川","phonetic":"むついちかわ","prefecture":2,"lon":141.439308,"lat":40.563235,"lines":[99206,50036],"next":[1120607,1120605,1120602,1120604,1120103,1120601,1120603]},
{"code":1120103,"station":"下田","phonetic":"しもだ","prefecture":2,"lon":141.407965,"lat":40.591958,"lines":[99206,50036],"next":[1120102,9920605,1120607,1120104,1120601,1120105]},
{"code":1120104,"station":"向山","phonetic":"むかいやま","prefecture":2,"lon":141.370392,"lat":40.629544,"lines":[99206,50036],"next":[1120105,5000040,9920605,5000039,1120103]},
{"code":1120105,"station":"三沢(青森)","phonetic":"みさわ","prefecture":2,"lon":141.353649,"lat":40.669735,"lines":[99206,50001,50036],"next":[1120104,5000040,1120607,1120106,5000039,1120306,1120304,1120103]},
{"code":1120106,"station":"小川原","phonetic":"こがわら","prefecture":2,"lon":141.299720,"lat":40.709893,"lines":[99206,50036],"next":[1120304,1120107,5000041,5000042,1120105,5000040,5000043]},
{"code":1120107,"station":"上北町","phonetic":"かみきたちょう","prefecture":2,"lon":141.264801,"lat":40.732993,"lines":[99206,50036],"next":[1120106,5000057,5000043,5000045,5000044,5000058,1120303,1120304,1120108]},
{"code":1120108,"station":"乙供","phonetic":"おっとも","prefecture":2,"lon":141.213039,"lat":40.780328,"lines":[99206,50036],"next":[1120303,5000052,1120109,5000053,5000055,5000054,5000050,5000057,1120107]},
{"code":1120109,"station":"千曳","phonetic":"ちびき","prefecture":2,"lon":141.152876,"lat":40.804662,"lines":[99206,50036],"next":[1120303,1120108,5000050,1120302,5000049,1120110]},
{"code":1120111,"station":"狩場沢","phonetic":"かりばさわ","prefecture":2,"lon":141.071274,"lat":40.900335,"lines":[99206,50036],"next":[5000049,1120110,1120303,1120304,1120112,1120302]},
{"code":1120112,"station":"清水川","phonetic":"しみずがわ","prefecture":2,"lon":141.024650,"lat":40.921801,"lines":[99206,50036],"next":[1120114,1120304,1120305,5000049,1120311,1120113,1120111]},
{"code":5000039,"station":"大曲(青森)","closed":true,"phonetic":"おおまがり","prefecture":2,"lon":141.342935,"lat":40.647674,"lines":[50001],"next":[5000040,1120104,1120105]},
{"code":5000040,"station":"柳沢","closed":true,"phonetic":"やなぎさわ","prefecture":2,"lon":141.318743,"lat":40.643133,"lines":[50001],"next":[1120104,1120105,5000041,5000039,9920605,1120106,5000042]},
{"code":5000041,"station":"七百","closed":true,"phonetic":"しちひゃく","prefecture":2,"lon":141.305487,"lat":40.643940,"lines":[50001],"next":[1120106,5000040,5000042]},
{"code":5000042,"station":"古里(青森)","closed":true,"phonetic":"ふるさと","prefecture":2,"lon":141.284083,"lat":40.638626,"lines":[50001],"next":[5000043,5000044,9920605,5000041,1120106,5000040,9920604]},
{"code":5000043,"station":"三農校前","closed":true,"phonetic":"さんのうこうまえ","prefecture":2,"lon":141.267202,"lat":40.636876,"lines":[50001],"next":[5000042,1120107,1120106,5000044]},
{"code":5000044,"station":"高清水","closed":true,"phonetic":"たかしず","prefecture":2,"lon":141.259069,"lat":40.634949,"lines":[50001],"next":[5000045,5000042,1120107,9920604,5000043]},
{"code":5000045,"station":"北里大学前","closed":true,"phonetic":"きたさとだいがくまえ","prefecture":2,"lon":141.235979,"lat":40.628479,"lines":[50001],"next":[5000044,5000058,1120107,5000046,9920604,9920603]},
{"code":5000046,"station":"工業高校前","closed":true,"phonetic":"こうぎょうこうこうまえ","prefecture":2,"lon":141.228941,"lat":40.627344,"lines":[50001],"next":[5000058,5000047,5000045,5000048,9920603]},
{"code":5000047,"station":"ひがし野団地","closed":true,"phonetic":"ひがしのだんち","prefecture":2,"lon":141.224003,"lat":40.626738,"lines":[50001],"next":[5000058,5000048,5000046]},
{"code":5000048,"station":"十和田市","closed":true,"phonetic":"とわだし","prefecture":2,"lon":141.213095,"lat":40.623383,"lines":[50001],"next":[5000047,1121219,5000046,9920603,9920602,5000058]},
{"code":5000049,"station":"西千曳","closed":true,"phonetic":"にしちびき","prefecture":2,"lon":141.131224,"lat":40.810228,"lines":[50002],"next":[1120111,1120110,5000050,1120116,1120109,1120112,1120118,1120114,5000234,5000052,5000051,1120115]},
{"code":5000050,"station":"後平","closed":true,"phonetic":"うしろたい","prefecture":2,"lon":141.150719,"lat":40.791149,"lines":[50002],"next":[1120109,5000049,1120108,5000052,5000051]},
{"code":5000051,"station":"坪","closed":true,"phonetic":"つぼ","prefecture":2,"lon":141.146810,"lat":40.777531,"lines":[50002],"next":[5000052,5000049,5000050]},
{"code":5000052,"station":"坪川","closed":true,"phonetic":"つぼがわ","prefecture":2,"lon":141.147771,"lat":40.768221,"lines":[50002],"next":[1120108,5000234,5000051,5000053,5000049,5000050]},
{"code":5000053,"station":"道ノ上","closed":true,"phonetic":"みちのかみ","prefecture":2,"lon":141.152593,"lat":40.751329,"lines":[50002],"next":[1120108,5000054,5000052,5000234]},
{"code":5000054,"station":"天間林","closed":true,"phonetic":"てんまばやし","prefecture":2,"lon":141.157137,"lat":40.743721,"lines":[50002],"next":[5000053,1120108,5000055,5000234]},
{"code":5000055,"station":"中野(青森)","closed":true,"phonetic":"なかの","prefecture":2,"lon":141.163519,"lat":40.735287,"lines":[50002],"next":[1120108,5000234,5000056,5000054,5000057]},
{"code":5000056,"station":"営農大学校前","closed":true,"phonetic":"えいのうだいがっこうまえ","prefecture":2,"lon":141.158870,"lat":40.721155,"lines":[50002],"next":[5000055,5000234,5000057]},
{"code":5000057,"station":"盛田牧場前","closed":true,"phonetic":"もりたぼくじょうまえ","prefecture":2,"lon":141.168221,"lat":40.713377,"lines":[50002],"next":[1120107,5000058,5000056,5000234,5000055,1120108]},
{"code":5000058,"station":"七戸","closed":true,"phonetic":"しちのへ","prefecture":2,"lon":141.165301,"lat":40.696494,"lines":[50002],"next":[5000047,1120252,5000046,1120119,5000057,5000045,1120253,1120107,1120118,1121219,5000234,5000048]},
{"code":5000234,"station":"七戸十和田","phonetic":"しちのへとわだ","prefecture":2,"lon":141.153957,"lat":40.719782,"lines":[50022],"next":[5000052,5000055,1120118,5000056,5000057,5000049,5000058,5000054,5000053]}
],
"voronoi":{
"points":[
141.126775,40.937426,141.193244,40.851923,141.345078,40.872747,141.374468,40.885015,141.181439,40.768698,141.183416,40.764578,141.232136,40.580884,141.248686,40.514677,141.210094,40.733823,141.215020,40.730525,141.000000,40.806895,141.088907,41.000000,141.321010,40.546803,141.337548,40.609660,141.228328,40.505742,141.318813,40.679243,141.371502,40.750000,141.484687,40.901999,141.286292,40.675490,141.308592,40.585670,141.325328,40.546922,141.475278,40.696821,141.256670,40.517309,141.276201,40.529371,141.000000,40.536256,141.204704,40.670075,141.102502,40.885292,141.049642,40.731075,141.115939,40.750000,141.232829,40.750000,141.250000,40.768777,141.186745,40.759494,141.195380,40.750000,141.326341,40.669365,141.251606,40.684575,141.285710,40.540635,141.133385,40.734695,141.500000,40.714086,141.375399,40.525284,141.382235,40.500000,141.000000,40.724735,141.205362,40.847888,141.500000,40.906654,141.270669,40.500000,141.286642,40.534297,141.493218,40.570501,141.500000,40.581287,141.487708,40.564697,141.391166,40.886070,141.307776,40.541289,141.334081,40.500000,141.441578,40.535325,141.454165,40.500000,141.367582,40.535749,141.314209,40.677931,141.156646,40.706685,141.222164,40.695353,141.153544,40.730738,141.158877,40.711653,141.219647,40.682651,141.232397,40.685698,141.250000,40.684669,141.130190,40.789672,141.177749,40.776020,141.223117,40.685844,141.250000,40.519148,141.250611,40.515362,141.364678,40.650747,141.257976,40.684734,141.271391,40.678760,141.159009,40.750000,141.170195,40.725260,141.150899,40.732369,141.301152,40.750000,141.030294,40.808074,141.391527,40.542558,141.500000,40.660926,141.250000,40.855830,141.180138,40.775713,141.183123,40.792905,141.140079,40.799776,141.150186,40.839095,141.224953,40.687751,141.206608,40.500000,141.408199,40.500000,141.313939,40.544549,141.473062,40.500000,141.174199,40.750000,141.151951,40.840258,141.000000,40.630380,141.119555,41.000000,141.080490,40.765981,141.000000,40.734275,141.039920,40.750000,141.000000,40.787919,141.250000,40.515144,141.250000,40.622878,141.500000,40.512357,141.231795,40.500000,141.157519,41.000000,141.250000,40.950984
],
"groups":[
{"lon":141000,"lat":40500,"size":250,"index":[6,7,8,9,14,7,24,25,27,28,9,29,32,8,27,36,40,27,55,56,57,58,25,59,9,56,60,61,64,65,36,70,57,71,36,72,82,60,83,14,59,6,72,87,89,55,58,71,25,6,72,57,92,93,7,95,59,64,56,82,60,96,71,8,55,58,64,82,14,98]},
{"lon":141000,"lat":40750,"size":250,"index":[0,1,4,5,10,11,26,0,28,4,29,30,31,32,1,41,62,63,70,5,74,26,41,77,78,79,80,81,79,41,87,31,88,1,62,80,80,79,90,0,91,63,91,62,93,91,94,74,63,78,26,88,78,4,74,81,5,31,99,100,81,88]},
{"lon":141250,"lat":40500,"size":250,"index":[12,13,15,16,18,19,20,21,22,23,15,33,34,35,21,37,38,39,22,43,35,44,45,46,47,45,49,50,51,52,53,38,18,54,61,34,65,66,13,67,34,68,69,18,67,21,68,73,75,76,66,22,23,44,33,67,38,84,69,35,19,85,86,47,51,47,85,12,75,51,20,53,95,66,49,85,54,15,96,23,53,75,45,97,12,20,19,54,33,13,68,69,44,49]},
{"lon":141250,"lat":40750,"size":250,"index":[2,3,16,17,30,2,17,42,48,17,3,48,73,48,77,2,100,3]}
]
}
}