{
"stations":[
{"code":1120814,"station":"気仙沼","phonetic":"けせんぬま","prefecture":4,"lon":141.558893,"lat":38.910031,"lines":[11208,11224],"next":[1122422,1120813,1120815,1120816,5000069]},
{"code":1120815,"station":"鹿折唐桑","phonetic":"ししおりからくわ","prefecture":4,"lon":141.580976,"lat":38.915578,"lines":[11208],"next":[1122421,1122422,1122420,5000069,1120814]},
{"code":1120816,"station":"上鹿折","phonetic":"かみししおり","prefecture":4,"lon":141.566810,"lat":38.960160,"lines":[11208],"next":[5000070,1120812,5000069,1120813,1120814,5000266,1120817]},
{"code":1120821,"station":"小友","phonetic":"おとも","prefecture":3,"lon":141.699524,"lat":38.989288,"lines":[11208],"next":[5000267,5000076,5000268,5000266,1122418,9920803]},
{"code":1122411,"station":"歌津","phonetic":"うたつ","prefecture":4,"lon":141.519194,"lat":38.716848,"lines":[11224],"next":[1122410,1122413,1122412,1122414,1122314]},
{"code":1122412,"station":"陸前港","phonetic":"りくぜんみなと","prefecture":4,"lon":141.531007,"lat":38.739189,"lines":[11224],"next":[9920803,1122314,1122413,1122417,1122411]},
{"code":1122413,"station":"蔵内","phonetic":"くらうち","prefecture":4,"lon":141.524974,"lat":38.753577,"lines":[11224],"next":[1122411,1122412,1122414,1122416,1122417]},
{"code":1122414,"station":"陸前小泉","phonetic":"りくぜんこいずみ","prefecture":4,"lon":141.509179,"lat":38.765551,"lines":[11224],"next":[5000080,1122413,1122411,1122415,1122416,1122410]},
{"code":1122415,"station":"本吉","phonetic":"もとよし","prefecture":4,"lon":141.502616,"lat":38.786738,"lines":[11224],"next":[1120810,1120811,1120813,1120809,1122416,1122414,5000080]},
{"code":1122416,"station":"小金沢","phonetic":"こがねざわ","prefecture":4,"lon":141.534022,"lat":38.796448,"lines":[11224],"next":[1122417,5000079,1120813,1122413,1122415,1122414]},
{"code":1122417,"station":"大谷海岸","phonetic":"おおやかいがん","prefecture":4,"lon":141.567139,"lat":38.814269,"lines":[11224],"next":[9920803,1122416,1122412,5000079,1122418,1122419,1122413]},
{"code":1122418,"station":"陸前階上","phonetic":"りくぜんはしかみ","prefecture":4,"lon":141.580275,"lat":38.837427,"lines":[11224],"next":[9920803,5000268,1122419,1122417,1120821]},
{"code":1122419,"station":"最知","phonetic":"さいち","prefecture":4,"lon":141.581274,"lat":38.853382,"lines":[11224],"next":[5000268,1122418,1122417,5000079]},
{"code":1122420,"station":"松岩","phonetic":"まついわ","prefecture":4,"lon":141.583162,"lat":38.873712,"lines":[11224],"next":[1122421,1120815,5000069,5000079,5000268,5000266]},
{"code":1122421,"station":"南気仙沼","phonetic":"みなみけせんぬま","prefecture":4,"lon":141.567313,"lat":38.894817,"lines":[11224],"next":[1122420,1120815,5000079,1122422]},
{"code":1122422,"station":"不動の沢","phonetic":"ふどうのさわ","prefecture":4,"lon":141.562676,"lat":38.898483,"lines":[11224],"next":[5000079,1120815,1122421,1120814,1120813]},
{"code":5000079,"station":"気仙沼市立病院","phonetic":"けせんぬましりつびょういん","prefecture":4,"lon":141.565815,"lat":38.887620,"lines":[11224],"next":[1122422,1122421,1122416,1122420,1122417,1120813,1122419,5000268]},
{"code":5000069,"station":"八幡大橋（東陵高校）","phonetic":"はちまんおおはし（とうりょうこうこう）","prefecture":4,"lon":141.585302,"lat":38.920962,"lines":[11208],"next":[1120816,1122420,1120815,1120814,5000266]},
{"code":5000266,"station":"唐桑大沢","phonetic":"からくわおおさわ","prefecture":4,"lon":141.631505,"lat":38.961772,"lines":[11208],"next":[1120820,5000074,5000070,1120821,5000268,5000267,1122420,1120816,5000069]},
{"code":5000070,"station":"長部","phonetic":"おさべ","prefecture":3,"lon":141.618640,"lat":38.986075,"lines":[11208],"next":[1120816,1120817,5000074,5000266,5000071]},
{"code":5000268,"station":"岩月","phonetic":"いわつき","prefecture":4,"lon":141.584076,"lat":38.862308,"lines":[11224],"next":[1122419,1122418,1120821,1122420,5000266,5000079]}
],
"voronoi":{
"points":[
141.500000,38.774318,141.521592,38.781006,141.667297,38.971125,141.699206,39.000000,141.599392,38.951570,141.649922,38.894362,141.564876,38.932945,141.571223,38.907676,141.504276,38.979068,141.526075,38.940904,141.563018,38.866359,141.683362,38.876004,141.584755,38.989058,141.599176,38.960215,141.754224,38.823584,141.847932,38.750000,142.000000,38.630588,141.741152,39.000000,141.750000,38.997086,141.777551,38.988012,141.500485,39.000000,141.564065,38.934904,141.528722,38.850263,141.534075,38.848329,141.500000,38.972527,141.519500,38.880122,141.561529,38.892267,141.571704,38.766105,141.572954,38.765236,141.707423,38.750000,141.750000,38.725849,142.000000,38.584040,141.647259,38.988438,141.649484,38.986846,141.517305,38.598155,141.552143,38.553572,141.572571,38.906233,141.589583,38.895037,141.653660,38.996974,141.655874,39.000000,141.522160,38.891604,141.560755,38.864726,141.632653,38.842156,141.653315,39.000000,141.594968,39.000000,141.500000,38.850844,141.819309,38.914649,141.507008,38.737585,141.750000,38.609101,141.956334,38.500000,141.526439,38.850222,141.662385,38.978201,141.676049,39.000000,141.640435,39.000000,141.711133,38.862761,141.500000,38.738282,141.501117,38.738512,141.500000,38.614386,141.610682,38.896139,141.509826,38.750000,141.528886,38.775142,141.613931,39.000000,141.536617,38.750000,141.510640,38.855731,141.604614,38.750000,141.750000,38.680034,142.000000,38.559722,141.699428,39.000000,141.750000,38.963995,141.580606,38.888296,141.500000,38.851692,141.882727,39.000000,142.000000,38.899315,141.500000,38.634585,141.500000,38.550575,141.772167,39.000000,141.646898,38.536353,141.750000,38.508038,141.779266,38.500000,141.530639,39.000000,141.750000,38.824229,141.652183,38.986412,141.926931,38.750000,142.000000,38.638213,141.750000,38.827424,141.500000,38.709338
],
"groups":[
{"lon":141500,"lat":38500,"size":250,"index":[29,30,34,35,47,48,55,56,57,34,56,59,47,62,56,47,64,65,73,34,74,35,76,77,35,76,85,76]},
{"lon":141500,"lat":38750,"size":250,"index":[0,1,2,3,4,5,6,7,8,9,10,11,12,13,17,18,20,8,21,4,22,23,9,21,24,8,25,26,27,28,23,29,32,33,36,37,38,39,40,9,41,42,43,38,12,44,45,1,41,10,50,27,51,52,53,32,2,54,23,42,6,58,59,60,37,58,1,60,40,7,61,32,21,6,26,36,62,28,63,25,7,36,51,2,28,64,67,68,69,37,22,41,70,63,25,40,50,22,5,11,10,69,79,12,13,4,63,50,13,33,42,80,81,51,81,38,26,69,11,54,33,81,54,84,58,5,60,27]},
{"lon":141750,"lat":38500,"size":250,"index":[15,16,30,31,48,49,65,66,77,78,82,83]},
{"lon":141750,"lat":38750,"size":250,"index":[14,15,18,19,19,46,68,46,71,72,75,19,80,14,46,82,84,14]}
]
}
}