{
"stations":[
{"code":1190329,"station":"荒尾(熊本)","phonetic":"あらお","prefecture":43,"lon":130.434717,"lat":32.994682,"lines":[11903],"next":[1190332,1190520,1190331,1190328,3600147,1190330]},
{"code":1190330,"station":"南荒尾","phonetic":"みなみあらお","prefecture":43,"lon":130.433012,"lat":32.966029,"lines":[11903],"next":[1190520,1190331,9991216,9991217,1190329]},
{"code":1190331,"station":"長洲","phonetic":"ながす","prefecture":43,"lon":130.455652,"lat":32.935205,"lines":[11903],"next":[9991221,1190330,1190332,1190329,9991220,9991217,9991219,9991218]},
{"code":1190520,"station":"肥前大浦","phonetic":"ひぜんおおうら","prefecture":41,"lon":130.207159,"lat":32.975043,"lines":[11905],"next":[1190521,9991215,3600140,1190330,1190329,1190328,9991216,9991214,1190519,1190522]},
{"code":1190521,"station":"小長井","phonetic":"こながい","prefecture":42,"lon":130.186386,"lat":32.924075,"lines":[11905],"next":[9991212,1190520,1190522,9991214,9991213]},
{"code":1190522,"station":"長里","phonetic":"ながさと","prefecture":42,"lon":130.165484,"lat":32.915260,"lines":[11905],"next":[1190521,9991211,1190519,9991212,1190520,1190523]},
{"code":1190523,"station":"湯江","phonetic":"ゆえ","prefecture":42,"lon":130.140614,"lat":32.904811,"lines":[11905],"next":[9991207,1190524,1190519,9991210,1190522,9991211]},
{"code":1190524,"station":"小江","phonetic":"おえ","prefecture":42,"lon":130.112282,"lat":32.891351,"lines":[11905],"next":[1190523,1192210,1192212,1190525,1192209,1190518,9991207,1192208,1190519,9991206,1190517]},
{"code":1190525,"station":"肥前長田","phonetic":"ひぜんながた","prefecture":42,"lon":130.079971,"lat":32.861773,"lines":[11905],"next":[9991204,1190524,1192212,9991205,9991206,1190526,1190527,9991203]},
{"code":1190526,"station":"東諫早","phonetic":"ひがしいさはや","prefecture":42,"lon":130.061675,"lat":32.852823,"lines":[11905],"next":[9991203,1190527,1190525,9991202]},
{"code":1190527,"station":"諫早","phonetic":"いさはや","prefecture":42,"lon":130.041596,"lat":32.851018,"lines":[11905,11922,99912],"next":[9991202,1190526,1192212,1190528,1190525]},
{"code":1190528,"station":"西諫早","phonetic":"にしいさはや","prefecture":42,"lon":130.021269,"lat":32.839632,"lines":[11905],"next":[1190529,1190531,9991202,1190527,1192212,9991203]},
{"code":9991202,"station":"本諫早","phonetic":"ほんいさはや","prefecture":42,"lon":130.052848,"lat":32.841841,"lines":[99912],"next":[1190527,1190528,9991203,1190526]},
{"code":9991203,"station":"幸","phonetic":"さいわい","prefecture":42,"lon":130.066927,"lat":32.837050,"lines":[99912],"next":[1190531,1190526,9991202,9991204,1190528,1190525]},
{"code":9991204,"station":"小野本町","phonetic":"おのほんまち","prefecture":42,"lon":130.085570,"lat":32.833985,"lines":[99912],"next":[9991209,1190525,9991205,9991206,1190531,9991203,9991208]},
{"code":9991205,"station":"干拓の里","phonetic":"かんたくのさと","prefecture":42,"lon":130.093272,"lat":32.836138,"lines":[99912],"next":[9991204,1190525,9991206]},
{"code":9991206,"station":"森山","phonetic":"もりやま","prefecture":42,"lon":130.113402,"lat":32.834969,"lines":[99912],"next":[1190525,9991204,9991208,9991207,1190524,9991205]},
{"code":9991207,"station":"釜ノ鼻","phonetic":"かまのはな","prefecture":42,"lon":130.135624,"lat":32.833992,"lines":[99912],"next":[1190523,9991210,1190524,9991206,9991208]},
{"code":9991208,"station":"諫早東高校前","phonetic":"いさはやひがしこうこうまえ","prefecture":42,"lon":130.149098,"lat":32.823084,"lines":[99912],"next":[9991209,9991206,9991204,9991207,9991210]},
{"code":9991209,"station":"愛野(長崎)","phonetic":"あいの","prefecture":42,"lon":130.155855,"lat":32.818824,"lines":[99912],"next":[9991401,1190531,9991224,9991204,9992113,1192411,9991210,9991326,9991208,9991211]},
{"code":9991210,"station":"阿母崎","phonetic":"あぼざき","prefecture":42,"lon":130.170196,"lat":32.830073,"lines":[99912],"next":[9991211,9991207,9991209,1190523,9991208]},
{"code":9991211,"station":"吾妻","phonetic":"あづま","prefecture":42,"lon":130.189911,"lat":32.840305,"lines":[99912],"next":[9991210,9991212,9991213,9991224,1190522,9991209,1190523]},
{"code":9991212,"station":"古部","phonetic":"こべ","prefecture":42,"lon":130.213024,"lat":32.856312,"lines":[99912],"next":[1190521,9991211,9991213,1190522]},
{"code":9991213,"station":"大正(長崎)","phonetic":"たいしょう","prefecture":42,"lon":130.225482,"lat":32.860303,"lines":[99912],"next":[9991224,9991220,9991214,9991211,9991212,9991215,1190521]},
{"code":9991214,"station":"西郷","phonetic":"さいごう","prefecture":42,"lon":130.243814,"lat":32.872801,"lines":[99912],"next":[1190521,9991213,9991215,1190520]},
{"code":9991215,"station":"神代町","phonetic":"こうじろまち","prefecture":42,"lon":130.269728,"lat":32.871516,"lines":[99912],"next":[1190520,9991219,9991216,9991217,9991214,9991220,9991213]},
{"code":9991216,"station":"多比良町","phonetic":"たいらまち","prefecture":42,"lon":130.308528,"lat":32.872061,"lines":[99912],"next":[9991215,1190520,9991217,1190330]},
{"code":9991217,"station":"島鉄湯江","phonetic":"しまてつゆえ","prefecture":42,"lon":130.328246,"lat":32.858249,"lines":[99912],"next":[9991215,9991218,9991219,1190331,9991216,1190330]},
{"code":9991218,"station":"大三東","phonetic":"おおみさき","prefecture":42,"lon":130.344659,"lat":32.843734,"lines":[99912],"next":[9991217,9991219,1190331]},
{"code":9991219,"station":"松尾町","phonetic":"まつおまち","prefecture":42,"lon":130.347714,"lat":32.834176,"lines":[99912],"next":[9991215,9991220,9991217,9991218,1190331]},
{"code":9991220,"station":"三会","phonetic":"みえ","prefecture":42,"lon":130.357130,"lat":32.814936,"lines":[99912],"next":[9991213,9991224,9991221,9991215,9991219,1190331]},
{"code":9991221,"station":"島原","phonetic":"しまばら","prefecture":42,"lon":130.370616,"lat":32.790489,"lines":[99912],"next":[9991222,1190331,9991220,1190332,9991224]},
{"code":9991222,"station":"島鉄本社前","phonetic":"しまてつほんしゃまえ","prefecture":42,"lon":130.374233,"lat":32.782198,"lines":[99912],"next":[9991221,9991224,1190332,9991223]},
{"code":9991223,"station":"南島原","phonetic":"みなみしまばら","prefecture":42,"lon":130.375570,"lat":32.775768,"lines":[99912],"next":[1190332,1192406,1192408,9991224,9991222]},
{"code":9991224,"station":"島原外港","phonetic":"しまばらがいこう","prefecture":42,"lon":130.370151,"lat":32.768507,"lines":[99912],"next":[9991213,9991209,1192411,1192408,9991220,9991222,9991211,9991223,9991221]},
{"code":1192410,"station":"波多浦","phonetic":"はたうら","prefecture":43,"lon":130.488117,"lat":32.615524,"lines":[11924],"next":[1192411,1190349,1190347,1192409,1190348,9992102]},
{"code":1192411,"station":"三角","phonetic":"みすみ","prefecture":43,"lon":130.469872,"lat":32.607616,"lines":[11924],"next":[1192410,9991224,9992102,9991209,9992106,1192409,1192408,9992104,9992105,9992108,9992113]}
],
"voronoi":{
"points":[
130.078093,32.989764,130.096122,33.000000,130.189978,32.886370,130.207994,32.893452,130.494611,33.000000,130.499202,32.996719,130.270255,32.776533,130.277656,32.787966,130.213858,32.897047,130.102405,32.741533,130.107743,32.750000,130.158399,32.830347,130.046341,32.954875,130.046495,32.930779,130.452991,32.839427,130.465467,32.826934,130.385499,32.907405,130.481002,32.977551,130.460087,32.655193,130.500000,32.627392,130.243675,32.930443,130.317778,32.829875,130.421854,32.863140,130.385841,32.906839,130.494472,32.982292,130.043154,32.919299,130.000000,32.855338,130.017500,32.766429,130.169452,32.500000,130.207243,32.556186,130.057193,33.000000,130.058168,32.997962,130.000000,32.571881,130.053155,32.500000,130.125941,32.974556,130.147049,32.972528,130.476156,32.751080,130.497655,32.797764,130.229827,32.739285,130.244699,32.715708,130.071256,32.991697,130.038063,32.731618,130.039102,32.750000,130.041026,32.784018,130.363179,32.929101,130.051475,32.977302,130.060001,32.993763,130.366132,32.777159,130.402523,32.750000,130.445784,32.717713,130.000000,32.925569,130.500000,32.996440,130.285050,32.803407,130.073676,32.608349,130.075505,32.590000,130.255012,32.836682,130.259950,32.936278,130.161966,32.870039,130.224266,32.750000,130.320679,32.985403,130.320746,32.987087,130.037495,32.834503,130.051642,32.851849,130.100920,32.793927,130.104659,32.858314,130.450653,32.665193,130.156387,32.966019,130.287984,32.953221,130.289795,32.824336,130.221422,32.750000,130.240522,32.791917,130.250000,32.729017,130.258359,32.750000,130.260734,32.755964,130.156995,32.868071,130.250000,32.932710,130.476962,32.750000,130.500000,32.719152,130.357364,32.779773,130.059917,33.000000,130.250000,32.775058,130.491378,32.803202,130.123212,32.804884,130.154167,32.843121,130.422798,32.689788,130.052212,32.689317,130.078127,32.846943,130.085674,32.848464,130.012965,32.771020,130.486511,33.000000,130.477512,32.500000,130.500000,32.509612,130.000000,32.864094,130.014518,32.875522,130.167936,32.874601,130.084294,32.986810,130.180437,32.878675,130.266058,32.764355,130.323585,32.780488,130.000000,32.951013,130.050253,32.973296,130.000000,32.681441,130.500000,32.798355,130.125785,32.863417,130.140141,32.869259,130.061431,32.843981,130.250000,32.582688,130.000000,32.967886,130.442065,32.845847,130.000000,32.606421,130.085084,32.500000,130.058392,32.997187,130.108474,32.863073,130.500000,32.650509,130.500000,32.563107,130.424810,32.859982,130.000000,32.780029,130.098793,32.500000,130.319632,33.000000,130.027205,32.750000,130.046723,32.906564,130.075109,32.848535,130.080617,33.000000,130.191376,33.000000,130.475173,32.750000,130.000000,32.996178,130.102709,32.743306,130.104938,32.750000,130.250000,32.844034,130.062189,32.750000,130.102473,32.750000,130.000000,32.790282,130.500000,32.987394
],
"groups":[
{"lon":130000,"lat":32500,"size":250,"index":[9,10,28,29,32,33,38,39,41,42,53,54,29,39,58,38,69,38,39,71,53,9,41,85,101,54,29,106,109,110,54,117,119,41,85,53,9,126,126,127,85,129,130,126]},
{"lon":130000,"lat":32750,"size":250,"index":[0,1,2,3,3,8,10,11,12,13,8,20,25,13,26,27,30,31,34,35,40,0,42,43,45,46,50,12,57,58,61,62,63,64,66,20,11,69,3,70,46,40,74,57,20,75,31,79,70,80,82,83,86,87,88,27,92,93,34,94,0,95,94,96,99,100,12,100,100,45,103,104,82,103,43,105,104,74,107,45,87,64,95,104,111,46,112,103,61,43,116,88,96,70,27,119,93,25,120,121,62,105,40,122,35,123,35,66,96,2,125,111,93,61,105,121,57,94,66,2,87,63,13,112,83,74,127,82,8,128,31,111,95,34,129,86,121,86,63,130,25,120,83,11,64,112,120,62,131,88]},
{"lon":130250,"lat":32500,"size":250,"index":[18,19,48,49,65,18,71,72,76,77,84,49,90,91,106,84,65,113,18,114,49,124,84,65]},
{"lon":130250,"lat":32750,"size":250,"index":[4,5,6,7,14,15,16,17,21,22,23,22,14,24,36,37,44,16,47,48,5,51,52,21,55,56,59,60,67,68,60,17,67,59,72,73,75,56,36,76,78,47,80,73,81,37,68,44,89,5,16,23,97,98,55,6,37,102,98,108,59,44,22,115,115,108,118,60,21,23,7,115,73,97,78,15,124,36,108,14,47,81,52,68,7,52,17,24,128,55,15,81,98,78,97,6,56,67,24,132]}
]
}
}