{
"stations":[
{"code":1141551,"station":"高岡","phonetic":"たかおか","prefecture":16,"lon":137.015274,"lat":36.740948,"lines":[99425,11417,11418],"next":[1141714,1141802,9941404,9941401]},
{"code":9941401,"station":"高岡駅","phonetic":"たかおかえき","prefecture":16,"lon":137.014722,"lat":36.742173,"lines":[99414],"next":[9941425,1141556,1141714,9941403,1141551,9941404]},
{"code":1141552,"station":"越中大門","phonetic":"えっちゅうだいもん","prefecture":16,"lon":137.055904,"lat":36.733818,"lines":[99425],"next":[9941419,9941414,1141703,1141702,1141553,1141714,9941421,1141803,9941413,1141802]},
{"code":1141553,"station":"小杉(あいの風とやま鉄道線)","phonetic":"こすぎ","prefecture":16,"lon":137.092767,"lat":36.720947,"lines":[99425],"next":[1141552,9941421,1141554,1141703,1141641,1141642,1141645,9941423,9941424]},
{"code":1141554,"station":"呉羽","phonetic":"くれは","prefecture":16,"lon":137.164874,"lat":36.718845,"lines":[99425],"next":[1141645,1141643,9941509,9941513,9941506,9941507,1141553,9941424,9941320,9941508,9941510]},
{"code":1141555,"station":"富山","phonetic":"とやま","prefecture":16,"lon":137.213262,"lat":36.701604,"lines":[99425,11416,50028,50037],"next":[9941313,9940801,9941322,9941501]},
{"code":9940801,"station":"電鉄富山","phonetic":"でんてつとやま","prefecture":16,"lon":137.214163,"lat":36.700757,"lines":[99408,99410],"next":[9941313,9941312,9941501,1141555,9941502]},
{"code":9941313,"station":"電鉄富山駅・エスタ前","phonetic":"でんてつとやまえき・えすたまえ","prefecture":16,"lon":137.213316,"lat":36.700236,"lines":[99413],"next":[9940801,9941314,1141555,9941322,9941311,9941312]},
{"code":9941322,"station":"富山駅","phonetic":"とやまえき","prefecture":16,"lon":137.212566,"lat":36.701495,"lines":[99413],"next":[9941314,9941313,9941320,9941501,1141555]},
{"code":9941501,"station":"富山駅北","phonetic":"とやまえききた","prefecture":16,"lon":137.214003,"lat":36.702490,"lines":[99415],"next":[9941505,9940801,9941506,9941502,9941322,9941320,1141555]},
{"code":1140502,"station":"東富山","phonetic":"ひがしとやま","prefecture":16,"lon":137.248953,"lat":36.741589,"lines":[99425,50037],"next":[9941508,9941506,9941507,9940804,9941505,9940805,9941513,9940803,9941509,9941512,9941511,1140503,9941510]},
{"code":1140503,"station":"水橋","phonetic":"みずはし","prefecture":16,"lon":137.298404,"lat":36.743454,"lines":[99425,50037],"next":[9941513,9940814,9940806,9940815,9940813,9940805,1140502]},
{"code":1140504,"station":"滑川","phonetic":"なめりかわ","prefecture":16,"lon":137.348666,"lat":36.769318,"lines":[99425,99408,50037],"next":[9940812,9941513,9940817,9940815,9940813]},
{"code":1140505,"station":"東滑川","phonetic":"ひがしなめりかわ","prefecture":16,"lon":137.378050,"lat":36.787987,"lines":[99425,50037],"next":[9940820,9940819,9940818,9940821,9940812]},
{"code":1140506,"station":"魚津","phonetic":"うおづ","prefecture":16,"lon":137.405693,"lat":36.826420,"lines":[99425,50037],"next":[9940821,9940832,9940823,9940828,9940830,9940822,9940829]},
{"code":9940822,"station":"新魚津","phonetic":"しんうおづ","prefecture":16,"lon":137.405459,"lat":36.826570,"lines":[99408],"next":[9940823,9941513,9940821,9940817,1140506,9940818]},
{"code":1140507,"station":"黒部","phonetic":"くろべ","prefecture":16,"lon":137.434393,"lat":36.869322,"lines":[99425,50037],"next":[1140508,9940824,9940826,9940825,9940823]},
{"code":1140508,"station":"生地","phonetic":"いくじ","prefecture":16,"lon":137.426534,"lat":36.906031,"lines":[99425,50037],"next":[1140507,1141919,9940826,9940823,9940824,9940825,9940827,9941513,1140509]},
{"code":1140509,"station":"西入善","phonetic":"にしにゅうぜん","prefecture":16,"lon":137.459298,"lat":36.930124,"lines":[99425,50037],"next":[5000244,1140510,9941807,1141919,9940827,9940828,1140508]},
{"code":1140510,"station":"入善","phonetic":"にゅうぜん","prefecture":16,"lon":137.499000,"lat":36.941296,"lines":[99425,50037],"next":[1140509,1140512,9940831,5000244,9940832,9940830,9941807,1140511]},
{"code":1141637,"station":"楡原","phonetic":"にれはら","prefecture":16,"lon":137.228720,"lat":36.529323,"lines":[11416],"next":[9940910,1141640,9941013,1141638,1141635,1141636]},
{"code":1141638,"station":"笹津","phonetic":"ささづ","prefecture":16,"lon":137.211437,"lat":36.562129,"lines":[11416],"next":[1141640,9941011,1141639,9941013,9941012,1141637,9941010]},
{"code":1141639,"station":"東八尾","phonetic":"ひがしやつお","prefecture":16,"lon":137.174978,"lat":36.589645,"lines":[11416],"next":[1141640,9941010,9941007,9941006,1141638,1141642,1141641,9941009]},
{"code":1141640,"station":"越中八尾","phonetic":"えっちゅうやつお","prefecture":16,"lon":137.138379,"lat":36.591391,"lines":[11416],"next":[1141709,1141713,1141639,1141638,1141708,1141637,1141707,1141635,1141641,1141706,1141705]},
{"code":1141641,"station":"千里(富山)","phonetic":"ちさと","prefecture":16,"lon":137.132396,"lat":36.634678,"lines":[11416],"next":[1141704,1141703,1141642,1141705,1141639,1141553,1141640]},
{"code":1141642,"station":"速星","phonetic":"はやほし","prefecture":16,"lon":137.160428,"lat":36.664135,"lines":[11416],"next":[9941006,1141641,1141645,1141639,9941301,1141553]},
{"code":1141645,"station":"婦中鵜坂","phonetic":"ふちゅううさか","prefecture":16,"lon":137.168922,"lat":36.678140,"lines":[11416],"next":[1141554,1141643,9941304,9941301,1141642,9941319,9941305,1141553]},
{"code":1141643,"station":"西富山","phonetic":"にしとやま","prefecture":16,"lon":137.177029,"lat":36.699331,"lines":[11416],"next":[1141554,1141645,9941319,9941320]},
{"code":1141714,"station":"新高岡","phonetic":"しんたかおか","prefecture":16,"lon":137.012401,"lat":36.726903,"lines":[11417,50028],"next":[1141551,1141552,1141556,1141802,9941401,1141702]},
{"code":1141702,"station":"二塚","phonetic":"ふたつか","prefecture":16,"lon":137.006141,"lat":36.714339,"lines":[11417],"next":[1141552,1141714,1141703,1141556]},
{"code":1141802,"station":"越中中川","phonetic":"えっちゅうなかがわ","prefecture":16,"lon":137.027851,"lat":36.749764,"lines":[11418],"next":[1141803,9941409,1141714,9941408,1141551,9941404,9941407,1141552,9941406,9941405]},
{"code":1141803,"station":"能町","phonetic":"のうまち","prefecture":16,"lon":137.039885,"lat":36.768259,"lines":[11418],"next":[1141802,9941409,9941411,9941410,9941412,1141552,9941413]},
{"code":1141804,"station":"伏木","phonetic":"ふしき","prefecture":16,"lon":137.058530,"lat":36.792306,"lines":[11418],"next":[9941415,1141805,9941416,9941417]},
{"code":1141805,"station":"越中国分","phonetic":"えっちゅうこくぶ","prefecture":16,"lon":137.050729,"lat":36.805361,"lines":[11418],"next":[9941412,9941417,1141806,9941422,1141804,9941415,9941423]},
{"code":1141806,"station":"雨晴","phonetic":"あまはらし","prefecture":16,"lon":137.037583,"lat":36.816484,"lines":[11418],"next":[9941424,1141919,1141805,1141807,9941423,1141808,9941412]},
{"code":1141807,"station":"島尾","phonetic":"しまお","prefecture":16,"lon":137.012690,"lat":36.828423,"lines":[11418],"next":[9941402,1141806,9941412,9941408,1141556,9941407,9941406,9941405,1141808]},
{"code":9940802,"station":"稲荷町(富山)","phonetic":"いなりまち","prefecture":16,"lon":137.231247,"lat":36.696597,"lines":[99408,99410],"next":[5000263,9940839,9941003,9941309,9941311,9941504,9941310,9941503]},
{"code":9940839,"station":"新庄田中","phonetic":"しんじょうたなか","prefecture":16,"lon":137.241417,"lat":36.697972,"lines":[99408],"next":[9941003,9940802,9940803,5000263,9941505,9941504]},
{"code":9940803,"station":"東新庄","phonetic":"ひがししんじょう","prefecture":16,"lon":137.253021,"lat":36.698644,"lines":[99408],"next":[9941008,9941505,9940804,9941003,9940839,1140502,9941004]},
{"code":9940804,"station":"越中荏原","phonetic":"えっちゅうえばら","prefecture":16,"lon":137.266222,"lat":36.698978,"lines":[99408],"next":[9941008,1140502,9940803,9940904,9940805,9941009,9941011,9941010]},
{"code":9940805,"station":"越中三郷","phonetic":"えっちゅうさんごう","prefecture":16,"lon":137.290792,"lat":36.703309,"lines":[99408],"next":[9940806,9940903,1140502,9940804,9940902,9940904,1140503]},
{"code":9940806,"station":"越中舟橋","phonetic":"えっちゅうふなはし","prefecture":16,"lon":137.306632,"lat":36.705725,"lines":[99408],"next":[9940805,1140503,9940813,9940902,9940807,9940808]},
{"code":9940807,"station":"寺田(富山)","phonetic":"てらだ","prefecture":16,"lon":137.319145,"lat":36.698852,"lines":[99408,99409],"next":[9940902,9940806,9940808]},
{"code":9940808,"station":"越中泉","phonetic":"えっちゅういずみ","prefecture":16,"lon":137.327245,"lat":36.699905,"lines":[99408],"next":[9940809,9940902,9940806,9940813,9940807,9940903]},
{"code":9940809,"station":"相ノ木","phonetic":"あいのき","prefecture":16,"lon":137.335472,"lat":36.701963,"lines":[99408],"next":[9940811,9940840,9940808,9940903,9940813]},
{"code":9940840,"station":"新相ノ木","phonetic":"しんあいのき","prefecture":16,"lon":137.342278,"lat":36.703128,"lines":[99408],"next":[9940809,9940903,9940811,9940810]},
{"code":9940810,"station":"上市","phonetic":"かみいち","prefecture":16,"lon":137.357603,"lat":36.704463,"lines":[99408],"next":[9940907,9940811,9940913,9940812,9940903,9940914,9940820,9940905,9940819,9940906,9940840]},
{"code":9940811,"station":"新宮川","phonetic":"しんみやかわ","prefecture":16,"lon":137.351128,"lat":36.717292,"lines":[99408],"next":[9940809,9940810,9940812,9940813,9940840]},
{"code":9940812,"station":"中加積","phonetic":"なかかづみ","prefecture":16,"lon":137.350947,"lat":36.735309,"lines":[99408],"next":[1140504,9940819,9940810,9940811,9940813,9940817,1140505,9940818]},
{"code":9940813,"station":"西加積","phonetic":"にしかづみ","prefecture":16,"lon":137.340139,"lat":36.746405,"lines":[99408],"next":[9940814,9940811,9940815,1140503,9940806,9940809,9940812,1140504,9940808]},
{"code":9940814,"station":"西滑川","phonetic":"にしなめりかわ","prefecture":16,"lon":137.334617,"lat":36.755579,"lines":[99408],"next":[1140503,9940813,9940815]},
{"code":9940815,"station":"中滑川","phonetic":"なかなめりかわ","prefecture":16,"lon":137.339963,"lat":36.761992,"lines":[99408],"next":[9941513,9940814,9940813,1140503,1140504]},
{"code":9940817,"station":"浜加積","phonetic":"はまかづみ","prefecture":16,"lon":137.361411,"lat":36.777430,"lines":[99408],"next":[9941513,1140504,9940812,9940822,9940818]},
{"code":9940818,"station":"早月加積","phonetic":"はやつきかづみ","prefecture":16,"lon":137.372079,"lat":36.784082,"lines":[99408],"next":[9940821,1140505,9940817,9940822,9940812]},
{"code":9940819,"station":"越中中村","phonetic":"えっちゅうなかむら","prefecture":16,"lon":137.382688,"lat":36.790673,"lines":[99408],"next":[9940812,9940820,1140505,9940810]},
{"code":9940820,"station":"西魚津","phonetic":"にしうおづ","prefecture":16,"lon":137.394653,"lat":36.803775,"lines":[99408],"next":[1140505,9940838,9940837,9940819,9940810,9940914,9940821]},
{"code":9940821,"station":"電鉄魚津","phonetic":"でんてつうおづ","prefecture":16,"lon":137.400288,"lat":36.815113,"lines":[99408],"next":[9940837,1140506,9940818,1140505,9940832,9940822,9940820]},
{"code":9940823,"station":"経田","phonetic":"きょうでん","prefecture":16,"lon":137.416203,"lat":36.848846,"lines":[99408],"next":[9940828,9940824,1140508,9940827,9940822,9941513,1140506,9940826,1140507]},
{"code":9940824,"station":"電鉄石田","phonetic":"でんてついしだ","prefecture":16,"lon":137.423194,"lat":36.865928,"lines":[99408],"next":[9940823,1140507,1140508]},
{"code":9940825,"station":"電鉄黒部","phonetic":"でんてつくろべ","prefecture":16,"lon":137.444125,"lat":36.874091,"lines":[99408],"next":[9940826,1140507,1140508]},
{"code":9940826,"station":"東三日市","phonetic":"ひがしみっかいち","prefecture":16,"lon":137.450908,"lat":36.874677,"lines":[99408],"next":[1140508,9940825,1140507,9940827,9940823]},
{"code":9940827,"station":"荻生","phonetic":"おぎゅう","prefecture":16,"lon":137.459221,"lat":36.875038,"lines":[99408],"next":[9940823,9940826,1140509,1140508,9940828]},
{"code":9940828,"station":"長屋","phonetic":"ながや","prefecture":16,"lon":137.470803,"lat":36.873678,"lines":[99408],"next":[9940823,9940829,9940841,5000244,1140506,1140509,9940827]},
{"code":9940841,"station":"新黒部","phonetic":"しんくろべ","prefecture":16,"lon":137.480177,"lat":36.873163,"lines":[99408],"next":[9940828,5000244,9940829]},
{"code":9940829,"station":"舌山","phonetic":"したやま","prefecture":16,"lon":137.485948,"lat":36.871870,"lines":[99408],"next":[9940830,9940828,5000244,9940841,1140506]},
{"code":9940830,"station":"若栗","phonetic":"わかぐり","prefecture":16,"lon":137.493175,"lat":36.871151,"lines":[99408],"next":[9940829,1140510,5000244,9940831,9940832,1140506]},
{"code":9940902,"station":"稚子塚","phonetic":"ちごづか","prefecture":16,"lon":137.317515,"lat":36.686595,"lines":[99409],"next":[9940807,9940903,9940806,9940805,9940808]},
{"code":9940903,"station":"田添","phonetic":"たぞえ","prefecture":16,"lon":137.317768,"lat":36.679759,"lines":[99409],"next":[9940902,9940904,9940805,9940810,9940905,9940809,9940840,9940808]},
{"code":9940904,"station":"五百石","phonetic":"ごひゃくこく","prefecture":16,"lon":137.314097,"lat":36.665361,"lines":[99409],"next":[9940903,9940905,9941011,9940804,9940805]},
{"code":9940905,"station":"榎町","phonetic":"えのきまち","prefecture":16,"lon":137.316519,"lat":36.657559,"lines":[99409],"next":[9941011,9940904,9940906,9941012,9940903,9940810]},
{"code":9940906,"station":"下段","phonetic":"しただん","prefecture":16,"lon":137.317735,"lat":36.647899,"lines":[99409],"next":[9940905,9941012,9940907,9940810]},
{"code":9940907,"station":"釜ヶ淵","phonetic":"かまがふち","prefecture":16,"lon":137.319288,"lat":36.633317,"lines":[99409],"next":[9940913,9940810,9940908,9940906,9941012,9941013]},
{"code":9940908,"station":"沢中山","phonetic":"さわなかやま","prefecture":16,"lon":137.320972,"lat":36.622207,"lines":[99409],"next":[9941014,9940909,9940911,9941013,9940907,9940913,9940910]},
{"code":9940909,"station":"岩峅寺","phonetic":"いわくらじ","prefecture":16,"lon":137.319922,"lat":36.608214,"lines":[99409,99410],"next":[9940908,9941014,9940910]},
{"code":9940910,"station":"横江","phonetic":"よこえ","prefecture":16,"lon":137.335605,"lat":36.582175,"lines":[99409],"next":[9940911,9941014,1141637,9940908,9940909,9941013,1141636]},
{"code":9940911,"station":"千垣","phonetic":"ちがき","prefecture":16,"lon":137.373843,"lat":36.573752,"lines":[99409],"next":[9940910,9940913,1141636,9940908,9940912]},
{"code":9940912,"station":"有峰口","phonetic":"ありみねぐち","prefecture":16,"lon":137.380218,"lat":36.573066,"lines":[99409],"next":[9940913,9940911,1141636]},
{"code":9940913,"station":"本宮(富山)","phonetic":"ほんぐう","prefecture":16,"lon":137.395716,"lat":36.574919,"lines":[99409],"next":[9940907,1141636,9940911,9940810,1141627,9940908,9940912,9940914]},
{"code":9940914,"station":"立山","phonetic":"たてやま","prefecture":16,"lon":137.445234,"lat":36.583253,"lines":[99409],"next":[1140916,9940714,1141627,9941203,9940810,1140915,9940838,9941204,9940820,9940913,1140918]},
{"code":9941003,"station":"不二越","phonetic":"ふじこし","prefecture":16,"lon":137.232453,"lat":36.687848,"lines":[99410],"next":[9940839,9940802,9941307,9940803,9941004,9941306,9941309,9941321,9941308,5000263]},
{"code":9941004,"station":"大泉(富山)","phonetic":"おおいずみ","prefecture":16,"lon":137.228979,"lat":36.677719,"lines":[99410],"next":[9941302,9941305,9941005,9941303,9941007,9941008,9941003,9941304,9941006,9940803,9941306]},
{"code":9941005,"station":"南富山","phonetic":"みなみとやま","prefecture":16,"lon":137.220500,"lat":36.670406,"lines":[99410],"next":[9941302,9941004,9941301,9941006]},
{"code":9941301,"station":"南富山駅前","phonetic":"みなみとやまえきまえ","prefecture":16,"lon":137.220440,"lat":36.670484,"lines":[99413],"next":[9941303,1141645,9941304,1141642,9941005,9941006,9941302]},
{"code":9941006,"station":"朝菜町","phonetic":"あさなまち","prefecture":16,"lon":137.224883,"lat":36.660579,"lines":[99410],"next":[1141642,9941007,1141639,9941005,9941301,9941004]},
{"code":9941007,"station":"上堀","phonetic":"かみほり","prefecture":16,"lon":137.230127,"lat":36.653380,"lines":[99410],"next":[1141639,9941006,9941004,9941008,9941009]},
{"code":9941008,"station":"小杉(富山地方鉄道)","phonetic":"こすぎ","prefecture":16,"lon":137.233164,"lat":36.649433,"lines":[99410],"next":[9941009,9940804,9940803,9941004,9941007]},
{"code":9941009,"station":"布市","phonetic":"ぬのいち","prefecture":16,"lon":137.235455,"lat":36.645178,"lines":[99410],"next":[9941008,9941010,9940804,1141639,9941007]},
{"code":9941010,"station":"開発","phonetic":"かいほつ","prefecture":16,"lon":137.242854,"lat":36.636207,"lines":[99410],"next":[1141639,9941009,1141638,9940804,9941011]},
{"code":9941011,"station":"月岡(富山)","phonetic":"つきおか","prefecture":16,"lon":137.263341,"lat":36.626475,"lines":[99410],"next":[9940905,1141638,9940904,9941012,9940804,9941010]},
{"code":9941012,"station":"大庄","phonetic":"おおしょう","prefecture":16,"lon":137.275618,"lat":36.619565,"lines":[99410],"next":[9940905,9940906,9941011,1141638,9941013,9940907]},
{"code":9941013,"station":"上滝","phonetic":"かみだき","prefecture":16,"lon":137.295564,"lat":36.609622,"lines":[99410],"next":[9940908,1141638,1141637,9941014,9941012,9940910,9940907]},
{"code":9941014,"station":"大川寺","phonetic":"だいせんじ","prefecture":16,"lon":137.308721,"lat":36.608322,"lines":[99410],"next":[9940910,9940908,9940909,9941013]},
{"code":9941302,"station":"大町(富山)","phonetic":"おおまち","prefecture":16,"lon":137.220483,"lat":36.673066,"lines":[99413],"next":[9941004,9941005,9941303,9941301]},
{"code":9941303,"station":"堀川小泉","phonetic":"ほりかわこいずみ","prefecture":16,"lon":137.219281,"lat":36.675647,"lines":[99413],"next":[9941301,9941302,9941304,9941004]},
{"code":9941304,"station":"小泉町(富山)","phonetic":"こいずみちょう","prefecture":16,"lon":137.217779,"lat":36.678745,"lines":[99413],"next":[1141645,9941301,9941305,9941303,9941004]},
{"code":9941305,"station":"西中野","phonetic":"にしなかの","prefecture":16,"lon":137.216663,"lat":36.680844,"lines":[99413],"next":[9941319,9941304,9942203,9941004,9941306,1141645,9941318]},
{"code":9941306,"station":"広貫堂前","phonetic":"こうかんどうまえ","prefecture":16,"lon":137.215934,"lat":36.683357,"lines":[99413],"next":[9941305,9941003,9942203,9941307,9941004]},
{"code":9941307,"station":"上本町","phonetic":"かみほんまち","prefecture":16,"lon":137.215762,"lat":36.686282,"lines":[99413],"next":[9942204,9941003,9942203,9941308,9941306]},
{"code":9941308,"station":"西町","phonetic":"にしちょう","prefecture":16,"lon":137.215676,"lat":36.689001,"lines":[99413,99422],"next":[9942204,9941003,9941321,9941307]},
{"code":9941321,"station":"中町","phonetic":"なかまち","prefecture":16,"lon":137.215722,"lat":36.690306,"lines":[99413],"next":[9942204,9941309,9941003,9941308]},
{"code":9941309,"station":"荒町","phonetic":"あらまち","prefecture":16,"lon":137.215805,"lat":36.691513,"lines":[99413],"next":[9941310,9942202,9940802,9942204,9941321,9941003]},
{"code":9941310,"station":"桜橋(富山)","phonetic":"さくらばし","prefecture":16,"lon":137.215934,"lat":36.694610,"lines":[99413],"next":[9941314,9941309,9942202,9941315,9940802,9941311]},
{"code":9941311,"station":"電気ビル前","phonetic":"でんきびるまえ","prefecture":16,"lon":137.216105,"lat":36.697432,"lines":[99413],"next":[9941312,9940802,9941503,9941314,9941313,9941310]},
{"code":9941312,"station":"地鉄ビル前","phonetic":"ちてつびるまえ","prefecture":16,"lon":137.216105,"lat":36.698584,"lines":[99413],"next":[9940801,9941502,9941311,9941503,9941313]},
{"code":9941314,"station":"新富町(富山)","phonetic":"しんとみちょう","prefecture":16,"lon":137.211256,"lat":36.698860,"lines":[99413],"next":[9941320,9941310,9941315,9941313,9941322,9941319,9941318,9941311]},
{"code":9941315,"station":"県庁前(富山)","phonetic":"けんちょうまえ","prefecture":16,"lon":137.209840,"lat":36.695728,"lines":[99413],"next":[9941314,9941318,9942202,9941310,9941316,9941317]},
{"code":9941316,"station":"丸の内(富山)","phonetic":"まるのうち","prefecture":16,"lon":137.208896,"lat":36.692563,"lines":[99413,99422],"next":[9942202,9942203,9941317,9941315]},
{"code":9941317,"station":"諏訪川原","phonetic":"すわのかわら","prefecture":16,"lon":137.206535,"lat":36.692322,"lines":[99413],"next":[9941318,9941316,9942203,9941315]},
{"code":9941318,"station":"安野屋","phonetic":"やすのや","prefecture":16,"lon":137.204384,"lat":36.692541,"lines":[99413],"next":[9941317,9941315,9941319,9942203,9941314,9941305]},
{"code":9941319,"station":"富山トヨペット本社前（五福末広町）","phonetic":"とやまとよぺっとほんしゃまえ(ごふくすえひろちょう)","prefecture":16,"lon":137.195420,"lat":36.694834,"lines":[99413],"next":[9941305,1141643,9941318,9941314,1141645,9941320]},
{"code":9941320,"station":"大学前(富山)","phonetic":"だいがくまえ","prefecture":16,"lon":137.191129,"lat":36.698688,"lines":[99413],"next":[9941314,1141643,9941506,9941322,9941501,1141554,9941319]},
{"code":9941425,"station":"末広町(富山)","phonetic":"すえひろちょう","prefecture":16,"lon":137.013148,"lat":36.744825,"lines":[99414],"next":[1141556,9941401,9941402,9941403]},
{"code":9941402,"station":"片原町(富山)","phonetic":"かたはらまち","prefecture":16,"lon":137.012838,"lat":36.746389,"lines":[99414],"next":[1141556,1141807,9941425,9941405,9941404,9941403]},
{"code":9941403,"station":"坂下町","phonetic":"さかしたまち","prefecture":16,"lon":137.014585,"lat":36.747367,"lines":[99414],"next":[9941404,9941402,9941401,9941425]},
{"code":9941404,"station":"急患医療センター前","phonetic":"きゅうかんいりょうせんたーまえ","prefecture":16,"lon":137.018739,"lat":36.750685,"lines":[99414],"next":[9941403,9941405,1141802,1141551,9941402,9941401]},
{"code":9941405,"station":"広小路(富山)","phonetic":"ひろこうじ","prefecture":16,"lon":137.020615,"lat":36.752566,"lines":[99414],"next":[9941406,9941404,1141807,9941402,1141802]},
{"code":9941406,"station":"志貴野中学校前","phonetic":"しきのちゅうがっこうまえ","prefecture":16,"lon":137.023759,"lat":36.755648,"lines":[99414],"next":[9941405,9941407,1141807,1141802]},
{"code":9941407,"station":"市民病院前(富山)","phonetic":"しみんびょういんまえ","prefecture":16,"lon":137.026100,"lat":36.758196,"lines":[99414],"next":[9941406,1141802,1141807,9941408]},
{"code":9941408,"station":"江尻","phonetic":"えじり","prefecture":16,"lon":137.030598,"lat":36.762295,"lines":[99414],"next":[1141807,1141802,9941412,9941407,9941409]},
{"code":9941409,"station":"旭ヶ丘(富山)","phonetic":"あさひがおか","prefecture":16,"lon":137.032469,"lat":36.763965,"lines":[99414],"next":[9941410,9941412,1141802,1141803,9941411,9941408]},
{"code":9941410,"station":"荻布","phonetic":"おぎの","prefecture":16,"lon":137.035619,"lat":36.766820,"lines":[99414],"next":[9941409,1141803,9941411]},
{"code":9941411,"station":"新能町","phonetic":"しんのうまち","prefecture":16,"lon":137.037713,"lat":36.770258,"lines":[99414],"next":[9941412,1141803,9941410,9941409]},
{"code":9941412,"station":"米島口","phonetic":"よねじまぐち","prefecture":16,"lon":137.038718,"lat":36.773000,"lines":[99414],"next":[1141805,9941409,9941415,9941411,1141807,9941413,9941414,1141806,1141803,9941408]},
{"code":9941413,"station":"能町口","phonetic":"のうまちぐち","prefecture":16,"lon":137.049031,"lat":36.773239,"lines":[99414],"next":[9941414,9941412,1141552,1141803]},
{"code":9941414,"station":"新吉久","phonetic":"しんよしひさ","prefecture":16,"lon":137.052839,"lat":36.776086,"lines":[99414],"next":[1141552,9941413,9941412,9941418,9941419,9941415]},
{"code":9941415,"station":"吉久","phonetic":"よしひさ","prefecture":16,"lon":137.056369,"lat":36.782018,"lines":[99414],"next":[9941412,9941416,1141804,1141805,9941414,9941418]},
{"code":9941416,"station":"中伏木","phonetic":"なかふしき","prefecture":16,"lon":137.061655,"lat":36.788224,"lines":[99414],"next":[9941418,9941415,9941417,1141804]},
{"code":9941417,"station":"六渡寺","phonetic":"ろくどうじ","prefecture":16,"lon":137.066443,"lat":36.788935,"lines":[99414],"next":[1141805,9941419,9941416,9941422,9941418,1141804]},
{"code":9941418,"station":"庄川口","phonetic":"しょうがわぐち","prefecture":16,"lon":137.070729,"lat":36.784433,"lines":[99414],"next":[9941416,9941414,9941419,9941417,9941415]},
{"code":9941419,"station":"西新湊","phonetic":"にししんみなと","prefecture":16,"lon":137.078499,"lat":36.781236,"lines":[99414],"next":[1141552,9941417,9941421,9941420,9941422,9941414,9941418]},
{"code":9941420,"station":"新町口","phonetic":"しんまちぐち","prefecture":16,"lon":137.084259,"lat":36.778983,"lines":[99414],"next":[9941421,9941419,9941422]},
{"code":9941421,"station":"中新湊","phonetic":"なかしんみなと","prefecture":16,"lon":137.088617,"lat":36.775148,"lines":[99414],"next":[9941420,9941419,1141553,9941423,1141552,9941422]},
{"code":9941422,"station":"東新湊","phonetic":"ひがししんみなと","prefecture":16,"lon":137.099368,"lat":36.777825,"lines":[99414],"next":[9941419,1141805,9941420,9941417,9941421,9941423]},
{"code":9941423,"station":"海王丸","phonetic":"かいおうまる","prefecture":16,"lon":137.105331,"lat":36.776726,"lines":[99414],"next":[9941424,1141806,9941421,1141805,9941422,1141553]},
{"code":9941424,"station":"越ノ潟","phonetic":"こしのかた","prefecture":16,"lon":137.111839,"lat":36.774704,"lines":[99414],"next":[1141806,9941423,9941513,1141554,1141919,1141553]},
{"code":9941502,"station":"インテック本社前","phonetic":"いんてっくほんしゃまえ","prefecture":16,"lon":137.216685,"lat":36.703556,"lines":[99415],"next":[9941503,9941312,9941505,9941501,9940801,9941504]},
{"code":9941503,"station":"奥田中学校前","phonetic":"おくだちゅうがっこうまえ","prefecture":16,"lon":137.223637,"lat":36.703522,"lines":[99415],"next":[9941502,9941504,9941312,9941311,9940802]},
{"code":9941504,"station":"下奥井","phonetic":"しもおくい","prefecture":16,"lon":137.224478,"lat":36.711311,"lines":[99415],"next":[9941505,9941503,9940802,9940839,9941502]},
{"code":9941505,"station":"粟島（大阪屋ショップ前）","phonetic":"あわじま","prefecture":16,"lon":137.224796,"lat":36.719391,"lines":[99415],"next":[9941504,9940803,9941501,1140502,9941502,9941506,9940839]},
{"code":9941506,"station":"越中中島","phonetic":"えっちゅうなかじま","prefecture":16,"lon":137.224844,"lat":36.722121,"lines":[99415],"next":[1140502,9941320,1141554,9941501,9941505,9941507]},
{"code":9941507,"station":"城川原","phonetic":"じょうがわら","prefecture":16,"lon":137.226082,"lat":36.731103,"lines":[99415],"next":[1140502,1141554,9941508,9941506]},
{"code":9941508,"station":"犬島新町","phonetic":"いぬじましんまち","prefecture":16,"lon":137.226620,"lat":36.735445,"lines":[99415],"next":[1140502,9941509,9941507,1141554]},
{"code":9941509,"station":"蓮町","phonetic":"はすまち","prefecture":16,"lon":137.227463,"lat":36.742663,"lines":[99415],"next":[9941508,9941510,1141554,1140502]},
{"code":9941510,"station":"大広田","phonetic":"おおひろた","prefecture":16,"lon":137.228643,"lat":36.748602,"lines":[99415],"next":[9941513,9941509,9941511,1141554,1140502]},
{"code":9941511,"station":"東岩瀬","phonetic":"ひがしいわせ","prefecture":16,"lon":137.230479,"lat":36.751935,"lines":[99415],"next":[9941513,9941512,9941510,1140502]},
{"code":9941512,"station":"競輪場前(富山)","phonetic":"けいりんじょうまえ","prefecture":16,"lon":137.233907,"lat":36.757454,"lines":[99415],"next":[9941511,9941513,1140502]},
{"code":9941513,"station":"岩瀬浜","phonetic":"いわせはま","prefecture":16,"lon":137.234090,"lat":36.761212,"lines":[99415],"next":[9940817,9940815,9941510,1140503,1140504,9941424,1141554,1141919,1140502,9941511,9940822,9940823,9941512,1140508]},
{"code":9942202,"station":"国際会議場前","phonetic":"こくさいかいぎじょうまえ","prefecture":16,"lon":137.211390,"lat":36.691654,"lines":[99422],"next":[9941316,9941309,9941310,9942204,9941315,9942203]},
{"code":9942203,"station":"大手モール","phonetic":"おおてもーる","prefecture":16,"lon":137.211334,"lat":36.689388,"lines":[99422],"next":[9941316,9941307,9941305,9941317,9942204,9941318,9941306,9942202]},
{"code":9942204,"station":"グランドプラザ前","phonetic":"ぐらんどぷらざまえ","prefecture":16,"lon":137.213386,"lat":36.688923,"lines":[99422],"next":[9941307,9942202,9941309,9942203,9941308,9941321]},
{"code":5000244,"station":"黒部宇奈月温泉","phonetic":"くろべうなづきおんせん","prefecture":16,"lon":137.481177,"lat":36.874107,"lines":[50028],"next":[1140509,1140510,9940830,9940828,9940841,9940829]},
{"code":5000263,"station":"栄町(富山)","phonetic":"さかえまち","prefecture":16,"lon":137.233489,"lat":36.692030,"lines":[99410],"next":[9940802,9940839,9941003]}
],
"voronoi":{
"points":[
137.362787,36.658477,137.375000,36.649869,137.378999,36.647050,137.001357,36.789865,137.004312,36.790665,137.191767,36.654706,137.193500,36.666365,137.056343,36.787394,137.063935,36.780927,137.226712,36.671776,137.229509,36.668533,137.174404,36.780999,137.184778,36.875000,137.198186,36.996490,137.320433,36.728497,137.323481,36.725986,137.205108,37.000000,137.250000,36.940345,137.277824,36.903371,137.286491,36.834348,137.353827,36.754354,137.212716,36.702813,137.213014,36.700909,137.286553,36.825875,137.304160,36.786403,137.011512,36.794047,137.030292,36.794537,137.183989,36.775372,137.223936,36.759823,137.160675,36.948634,137.164149,36.954553,137.142082,36.500000,137.147073,36.507265,137.198873,36.722805,137.053832,36.668659,137.081300,36.747328,137.237991,36.737775,137.239683,36.731622,137.192074,36.651811,137.209580,36.690565,137.210737,36.693737,137.000000,36.776740,137.024470,36.751778,137.238282,36.743600,137.238823,36.745167,137.213703,36.691051,137.214506,36.689696,137.022960,36.777221,137.024447,36.775981,137.040845,36.790620,137.043326,36.785763,137.213648,36.693154,137.223964,36.692724,137.169669,36.627274,137.190949,36.631431,137.409941,36.738268,137.418013,36.733640,137.002982,36.736146,137.032209,36.730167,137.325212,36.725507,137.335687,36.683632,137.224271,36.690324,137.224464,36.691204,137.273963,36.726920,137.274255,36.727239,137.296295,36.682387,137.335267,36.683829,137.246037,36.718716,137.246774,36.719717,137.068039,36.766854,137.070197,36.756100,137.259063,36.720882,137.260425,36.667045,137.040283,36.770871,137.016143,36.744809,137.019950,36.744910,137.226648,36.691505,137.236462,36.696323,137.151480,36.696959,137.184936,36.717799,137.324161,36.691948,137.211351,36.684703,137.214577,36.687605,137.191427,36.743213,137.192988,36.737408,137.037355,36.578390,137.045800,36.600652,137.236025,36.595402,137.248343,36.585466,137.214550,36.671873,137.222162,36.671747,137.292853,36.678445,137.335222,36.667642,137.243095,36.724182,137.246164,36.720381,137.278771,36.901402,137.000000,36.574623,137.033736,36.553338,137.224272,36.685315,137.224368,36.684961,137.053862,36.646682,137.056737,36.652159,137.191703,36.630900,137.197190,36.626153,137.286491,36.648873,137.293820,36.637978,137.470378,36.805782,137.481133,36.786791,137.000000,36.789606,137.000000,36.526983,137.031742,36.516728,137.262940,36.569155,137.263309,36.568501,137.223845,36.683316,137.224111,36.684367,137.250000,36.588411,137.270594,36.625000,137.284959,36.650522,137.204573,36.683720,137.208029,36.689374,137.203441,36.721132,137.477135,36.716437,137.493410,36.710365,137.290779,36.625000,137.295147,36.633763,137.063420,36.792813,137.375000,36.646624,137.000000,36.611798,137.282007,36.892918,137.034421,36.728673,137.046544,36.750000,137.046861,36.750558,137.021162,36.744338,137.404459,36.741088,137.258840,36.667684,137.301996,36.875000,137.315562,36.862840,137.362843,36.614822,137.372171,36.625000,137.375000,36.628087,137.381531,36.635213,137.248104,36.683020,137.212216,36.715840,137.240878,36.714712,137.203371,36.700539,137.205852,36.696291,137.386675,36.748793,137.295872,36.723140,137.183041,36.988129,137.039975,36.753673,137.044169,36.752309,137.382674,37.000000,137.454306,36.902588,137.316349,36.750000,137.319599,36.740291,137.115266,36.679046,137.125000,36.669783,137.234987,36.707232,137.065324,36.772673,137.333512,36.875000,137.375000,36.854990,137.412307,36.836996,137.202028,36.701999,137.037974,36.706320,137.049280,36.677437,137.472964,36.827445,137.475577,36.875000,137.475786,36.878816,137.468325,36.902568,137.308363,36.694049,137.335730,36.750000,137.342756,36.754229,137.353498,36.666614,137.213584,36.691163,137.387010,36.642736,137.445670,36.895756,137.453880,36.902138,137.002457,36.736226,137.214133,36.701628,137.215836,36.701785,137.032932,36.755217,137.175641,36.778978,137.000000,36.547818,137.031627,36.525450,137.486784,36.908578,137.495466,36.906275,137.336886,36.844412,137.375000,36.786133,137.398631,36.750000,137.201736,36.677468,137.037608,36.767965,137.041104,36.757603,137.100156,36.748587,137.125000,36.739773,137.129355,36.738228,137.239943,36.666040,137.243134,36.687421,137.250000,36.679409,137.252074,36.675458,137.408689,36.649114,137.412748,36.625000,137.433785,36.500000,137.141754,36.750000,137.320917,36.716905,137.282772,36.886915,137.290355,36.875000,137.367680,36.753512,137.303638,36.625262,137.009312,36.947382,137.020264,36.951576,137.081100,36.798597,137.323313,36.856750,137.193490,36.667177,137.187435,36.753703,137.206071,36.750000,137.461058,37.000000,137.221867,36.698008,137.223612,36.695850,137.220147,36.700632,137.220182,36.707835,137.207484,36.694707,137.284208,36.651806,137.211843,36.700211,137.216665,36.701039,137.000000,36.711319,137.050243,36.635857,137.267947,36.662601,137.276189,36.662273,137.465979,36.811843,137.153469,36.523232,137.157901,36.616146,137.223596,36.695562,137.201837,37.000000,137.012499,36.784456,137.492657,36.753325,137.500000,36.760283,137.207685,36.632970,137.250000,36.655754,137.265134,36.663902,137.337550,36.500000,137.482005,36.785085,137.272460,36.774834,137.099543,36.748725,137.183479,36.685855,137.194337,36.730044,137.002779,36.766408,137.011964,36.750000,137.014280,36.745862,137.482810,36.782611,137.490293,36.764151,137.351933,36.832076,137.361346,36.822177,137.053716,36.753746,137.065090,36.755729,137.000000,36.744292,137.000435,36.743118,137.343128,36.677699,137.353127,36.667211,137.212766,36.694509,137.213068,36.696155,137.211243,36.684549,137.431341,36.887864,137.375000,36.751694,137.381818,36.750000,137.224029,36.687904,137.106748,36.963363,137.125000,36.969288,137.063724,36.902910,137.457001,36.830261,137.459376,36.826361,137.495083,36.829345,137.213474,36.700927,137.214562,36.699159,137.382830,36.637266,137.101359,36.838067,137.119440,36.870005,137.122059,36.875000,137.125000,36.880607,137.212662,36.690489,137.298369,36.570784,137.303726,36.625000,137.303733,36.625070,137.423189,36.886119,137.426558,36.875000,137.433623,36.851688,137.233235,36.706426,137.183225,36.684814,137.193406,36.668653,137.489909,36.875000,137.491364,36.889627,137.224129,36.689356,137.303813,36.625000,137.314393,36.615665,137.209747,36.717105,137.375000,36.833422,137.402159,36.821164,137.201517,36.668948,137.330665,36.893825,137.375000,36.890132,137.266411,36.663173,137.284635,36.550748,137.303899,36.511791,137.095817,36.821643,137.349536,36.708440,137.375000,36.721292,137.385611,36.726648,137.040911,36.790636,137.382244,36.621858,137.396814,36.500000,137.098373,36.875000,137.125000,36.906470,137.002382,36.736642,137.194289,36.730909,137.492866,36.750000,137.495339,36.710808,137.500000,36.905899,137.036645,36.500000,137.075188,36.764281,137.094519,36.813703,137.375000,36.798601,137.403146,36.750000,137.070250,36.756074,137.077924,36.750000,137.375000,36.636079,137.224198,36.676366,137.455058,36.875000,137.328044,36.725209,137.336468,36.716605,137.092214,36.783629,137.098711,36.757535,137.214747,36.604426,137.201135,36.705513,137.043612,36.784458,137.043906,36.771763,137.223505,36.679608,137.100595,36.750000,137.125000,36.828548,137.139432,36.875000,137.330386,36.726093,137.375000,36.726541,137.000000,36.770224,137.201135,36.705535,137.357859,36.752854,137.213107,36.696198,137.213880,36.698008,137.241070,36.749180,137.241935,36.750000,137.250000,36.757649,137.250907,36.758510,137.000000,36.687999,137.250000,36.720023,137.500000,36.839786,137.499996,36.875000,137.500000,36.875037,137.482807,36.871378,137.484506,36.875000,137.500000,36.781450,137.283614,36.875000,137.000000,36.971864,137.022647,36.743809,137.230048,36.750000,137.202960,36.678231,137.382076,36.625000,137.128084,36.694633,137.000000,36.771250,137.021307,36.750000,137.023092,36.748219,137.000000,36.837455,137.036552,36.875000,137.213540,36.697670,137.000000,36.730788,137.437645,36.875000,137.449565,36.850676,137.202082,36.656300,137.125000,36.611599,137.000000,36.942326,137.283519,36.672712,137.198718,36.723740,137.193557,36.668881,137.069863,36.807936,137.474750,36.903878,137.273396,36.750000,137.050338,36.875000,137.250000,36.624820,137.250085,36.625000,137.250000,36.676170,137.127538,36.693661,137.300952,36.689833,137.125000,36.690638,137.354930,36.750000,137.239751,36.750000,137.447463,36.875000,137.250000,36.561489,137.250000,36.583614,137.188845,36.750000,137.314116,36.586975,137.455553,36.832206,137.375000,36.809708,137.440382,36.750000,137.207678,36.614731,137.099423,36.750000,137.369131,36.500000,137.375000,36.554540,137.027919,36.754176,137.000000,36.725240,137.220128,36.625000,137.250000,36.649638,137.048873,36.625000,137.000000,36.598264,137.037064,36.577194,137.023782,36.750000,137.490439,36.763238,137.251363,36.666578,137.500000,36.708034,137.198248,36.625000,137.000000,36.952694,137.479388,36.875000,137.015884,36.750000,137.167264,36.625000,137.375000,36.820612,137.375000,36.767517,137.385923,36.750000,137.250000,36.666514,137.250000,36.665529,137.356504,36.612505,137.317250,36.500000,137.000000,36.659132,137.230392,36.500000,137.250000,36.503145,137.465087,36.875000,137.000000,36.779826,137.250000,36.758554,137.064858,36.783134,137.375000,36.875680,137.376662,36.875000
],
"groups":[
{"lon":137000,"lat":36500,"size":125,"index":[85,86,96,97,109,110,127,85,182,183,110,316,183,97,183,110,86,374,86,407,408,409,97,409,409,85]},
{"lon":137000,"lat":36625,"size":125,"index":[34,35,57,58,74,75,100,101,129,130,57,132,155,156,163,164,177,57,192,193,224,164,225,100,242,192,246,247,254,255,101,155,255,311,322,35,192,335,129,163,349,100,132,359,365,366,370,177,247,74,75,132,58,129,155,388,359,366,400,242,404,163,407,225,366,410,311,177,164,34,417,75,35,242,426,225,311,74,359,58,255,247,34,101]},
{"lon":137000,"lat":36750,"size":125,"index":[3,4,7,8,25,26,41,42,47,48,49,50,69,70,47,73,108,3,7,125,130,131,149,150,50,158,3,180,190,191,69,210,180,149,233,47,245,246,252,253,26,49,274,275,275,276,131,252,210,302,48,190,306,7,26,309,253,70,191,150,317,318,321,322,328,329,332,333,335,336,4,233,340,245,328,318,329,275,318,302,150,131,364,365,367,368,70,321,379,274,25,382,332,253,49,306,125,379,73,333,50,332,321,317,329,400,4,25,403,180,302,274,410,42,245,417,42,403,317,328,233,149,48,191,430,403,8,432,125,432,8,158,333,252,432,210,306,379,158,69,190,73]},
{"lon":137000,"lat":36875,"size":125,"index":[208,209,265,266,267,265,276,277,309,310,358,209,368,267,375,208,382,267,209,265,415,208]},
{"lon":137125,"lat":36500,"size":125,"index":[31,32,87,88,88,115,229,230,32,229,330,87,374,230,87,383,32,392,88,393,399,330,399,405,414,399,230,418,229,330,427,428]},
{"lon":137125,"lat":36625,"size":125,"index":[5,6,9,10,21,22,33,21,36,37,5,38,39,40,43,44,45,46,51,52,53,54,61,62,67,68,76,77,78,79,81,82,83,84,89,90,93,94,98,99,102,103,113,114,118,119,120,94,67,141,142,143,144,145,156,53,157,143,162,144,173,45,178,179,189,118,83,36,193,194,10,195,76,196,141,197,194,202,212,113,214,43,216,217,218,219,145,220,90,9,54,102,222,22,179,223,231,52,21,178,236,237,243,79,79,244,258,259,260,81,82,264,52,62,271,272,272,223,81,278,285,157,286,287,157,77,264,290,293,142,144,259,6,296,39,278,220,119,78,286,312,244,89,324,143,67,331,162,296,334,260,98,223,218,62,76,114,99,341,331,54,38,259,343,120,293,344,216,345,346,286,243,45,61,68,350,344,272,142,219,293,179,360,44,361,260,243,331,102,195,363,194,173,51,343,369,264,98,373,90,278,173,33,341,271,178,377,33,378,162,40,258,363,78,212,6,44,345,324,9,99,385,386,363,287,378,388,386,390,345,377,120,378,189,394,83,196,141,189,361,373,10,36,43,343,231,22,271,290,61,231,217,46,290,405,406,244,377,119,39,103,414,258,51,341,222,219,285,312,93,334,113,418,53,38,373,77,196,84,312,195,422,236,423,334,324,222,369,46,82,296,89,37,93,386,5,118,145,287,212,94,68,361,114,220,40,84,37,369,344,103,236,217,285,218,216]},
{"lon":137125,"lat":36750,"size":125,"index":[11,12,27,28,11,181,202,11,213,214,181,27,336,337,346,347,27,360,28,390,213,394,28,431,181,213]},
{"lon":137125,"lat":36875,"size":125,"index":[12,13,16,17,29,30,30,148,13,232,266,148,277,29,310,29,337,30,148,13]},
{"lon":137250,"lat":36500,"size":125,"index":[111,112,115,116,111,123,137,138,239,137,279,280,291,292,300,301,383,384,392,112,112,300,393,111,395,292,401,402,279,395,424,137,301,425,395,424,428,301,292,424,300,279]},
{"lon":137250,"lat":36625,"size":125,"index":[0,1,14,15,59,60,63,64,65,66,71,72,80,66,91,92,104,105,116,117,104,0,123,124,105,126,134,72,138,139,64,147,147,14,153,154,169,80,154,170,172,0,91,65,197,198,203,15,124,207,221,92,66,60,226,227,237,238,256,257,92,172,280,281,281,291,299,226,303,304,227,221,15,59,207,323,198,134,326,327,338,339,105,124,169,203,117,104,350,71,327,303,257,172,376,91,381,64,384,226,385,198,387,169,338,389,203,80,63,376,406,299,412,134,72,238,154,14,65,387,238,299,422,412,326,338,59,326,423,412,303,257,327,256,221,117,147,387,71,63,207,281,60,256,227,376]},
{"lon":137250,"lat":36750,"size":125,"index":[19,20,23,24,135,136,24,153,159,160,170,171,186,187,205,206,211,186,241,23,250,251,206,262,211,294,19,23,251,319,186,250,20,342,347,348,357,19,24,171,241,381,389,342,348,241,251,397,171,20,250,419,136,420,342,206,431,348,136,211]},
{"lon":137250,"lat":36875,"size":125,"index":[17,18,18,95,95,128,128,135,95,159,204,205,128,204,297,298,204,357,18,297,297,433]},
{"lon":137375,"lat":36500,"size":125,"index":[200,201,307,308,362,307,402,307]},
{"lon":137375,"lat":36625,"size":125,"index":[1,2,55,56,121,122,126,2,133,55,139,140,146,133,2,174,188,133,199,200,199,122,263,146,273,174,140,273,304,305,313,314,320,55,323,273,339,305,140,362,122,314,398,121,314,413,56,121,421,146,174,199,305,56]},
{"lon":137375,"lat":36750,"size":125,"index":[106,107,160,161,165,166,187,188,228,106,234,235,107,240,248,249,161,228,262,263,268,269,240,270,283,284,107,288,294,295,295,248,234,313,319,320,325,268,270,351,270,352,354,355,249,356,371,372,391,372,396,268,397,398,269,228,295,161,249,411,165,354,416,354,106,165,411,234,419,411,420,421,284,396,372,396,269,429,240,248,434,284]},
{"lon":137375,"lat":36875,"size":125,"index":[151,152,166,167,152,168,175,176,184,185,215,184,261,175,282,283,282,261,288,289,298,282,185,315,176,325,352,353,355,289,261,371,168,380,175,391,380,167,289,185,167,416,380,184,429,168,433,434,176,152]}
]
}
}