{
"stations":[
{"code":1133703,"station":"群馬八幡","phonetic":"ぐんまわやた","prefecture":10,"lon":138.957433,"lat":36.337641,"lines":[11337],"next":[9932702,1134103,1134206,1133702,5000243,1133704,9932709,9932710,9932711,1134205]},
{"code":1133704,"station":"安中","phonetic":"あんなか","prefecture":10,"lon":138.914368,"lat":36.331657,"lines":[11337],"next":[1133705,9932713,1133703,9932712,9932711,5000243]},
{"code":1133705,"station":"磯部(群馬)","phonetic":"いそべ","prefecture":10,"lon":138.849650,"lat":36.298397,"lines":[11337],"next":[1133704,9932715,9932718,5000243,9932714,9932713,9932716,9932717,1133706]},
{"code":1133706,"station":"松井田","phonetic":"まついだ","prefecture":10,"lon":138.797705,"lat":36.309151,"lines":[11337],"next":[5000243,9932718,1133707,9932719,1133705]},
{"code":1133707,"station":"西松井田","phonetic":"にしまついだ","prefecture":10,"lon":138.786675,"lat":36.316067,"lines":[11337],"next":[1133708,5000243,9932719,1133706]},
{"code":1133708,"station":"横川(群馬)","phonetic":"よこかわ","prefecture":10,"lon":138.737926,"lat":36.336009,"lines":[11337],"next":[1133707,1133512,9932719,1133509,5000243,1133510,9932720,9940301]},
{"code":9932708,"station":"吉井(群馬)","phonetic":"よしい","prefecture":10,"lon":138.984418,"lat":36.256036,"lines":[99327],"next":[9932707,9932703,9930621,9930625,9932709,1131812,9932702]},
{"code":9932709,"station":"西吉井","phonetic":"にしよしい","prefecture":10,"lon":138.965914,"lat":36.255753,"lines":[99327],"next":[9930625,1133703,9932710,9932708,9932702]},
{"code":9932710,"station":"上州新屋","phonetic":"じょうしゅうにいや","prefecture":10,"lon":138.951776,"lat":36.256036,"lines":[99327],"next":[9932711,1133703,9932709,9930635,9930625]},
{"code":9932711,"station":"上州福島","phonetic":"じょうしゅうふくしま","prefecture":10,"lon":138.929440,"lat":36.256408,"lines":[99327],"next":[9932717,9930635,9932716,9932710,1133704,9932712,1133703]},
{"code":9932712,"station":"東富岡","phonetic":"ひがしとみおか","prefecture":10,"lon":138.901898,"lat":36.260816,"lines":[99327],"next":[9932716,1133704,9932713,9932711]},
{"code":9932713,"station":"上州富岡","phonetic":"じょうしゅうとみおか","prefecture":10,"lon":138.891851,"lat":36.260460,"lines":[99327],"next":[1133704,9932716,9932714,9932712,1133705]},
{"code":9932714,"station":"西富岡","phonetic":"にしとみおか","prefecture":10,"lon":138.882786,"lat":36.260182,"lines":[99327],"next":[9932715,9932713,9932716,1133705]},
{"code":9932715,"station":"上州七日市","phonetic":"じょうしゅうなのかいち","prefecture":10,"lon":138.874536,"lat":36.258666,"lines":[99327],"next":[9932716,1133705,9932714]},
{"code":9932716,"station":"上州一ノ宮","phonetic":"じょうしゅういちのみや","prefecture":10,"lon":138.863924,"lat":36.253053,"lines":[99327],"next":[9932717,9932712,9932715,9932713,9932711,9932714,1133705]},
{"code":9932717,"station":"神農原","phonetic":"かのはら","prefecture":10,"lon":138.843835,"lat":36.242629,"lines":[99327],"next":[9932716,9932718,9932711,9932720,9930635,1133705]},
{"code":9932718,"station":"南蛇井","phonetic":"なんじゃい","prefecture":10,"lon":138.813838,"lat":36.238260,"lines":[99327],"next":[9932717,1133705,9932720,1133706,9932719]},
{"code":9932719,"station":"千平","phonetic":"せんだいら","prefecture":10,"lon":138.798543,"lat":36.230021,"lines":[99327],"next":[1133708,9932720,1133707,9932718,1133706]},
{"code":9932720,"station":"下仁田","phonetic":"しもにた","prefecture":10,"lon":138.786681,"lat":36.210484,"lines":[99327],"next":[1140107,9932717,9932719,9932718,9930635,9940301,1140116,1140117,1140112,1140119,1140106,1133708]},
{"code":1140107,"station":"佐久広瀬","phonetic":"さくひろせ","prefecture":20,"lon":138.519349,"lat":36.003724,"lines":[11401],"next":[9932720,1140105,1140106,1140112,1140111,1140108]},
{"code":9940301,"station":"軽井沢","phonetic":"かるいざわ","prefecture":20,"lon":138.635096,"lat":36.342889,"lines":[99403,50028],"next":[9940302,9940303,1140119,9932720,1133512,1133513,1133708]},
{"code":9940302,"station":"中軽井沢","phonetic":"なかかるいざわ","prefecture":20,"lon":138.593147,"lat":36.347576,"lines":[99403],"next":[9940301,1133517,1133518,1133513,1133516,1133515,9940303]},
{"code":9940303,"station":"信濃追分","phonetic":"しなのおいわけ","prefecture":20,"lon":138.558582,"lat":36.335538,"lines":[99403],"next":[9940301,9940304,1140120,1140119,1133518,9940302]},
{"code":9940304,"station":"御代田","phonetic":"みよた","prefecture":20,"lon":138.506190,"lat":36.318986,"lines":[99403],"next":[1140124,1140120,9940305,1140131,9940303,1133518,1140123]},
{"code":5000243,"station":"安中榛名","phonetic":"あんなかはるな","prefecture":10,"lon":138.849381,"lat":36.362473,"lines":[50028],"next":[1133509,1133707,1134206,1133703,1133706,1133501,1133503,1133705,1133502,1133504,1133708,1133704,1133505]}
],
"voronoi":{
"points":[
138.514155,36.058116,138.534402,36.060516,138.888651,36.456403,138.899689,36.500000,138.921319,36.293915,138.941012,36.297860,138.693286,36.440716,138.744739,36.447870,138.836311,36.189124,138.891093,36.091721,138.901134,36.167794,138.901760,36.155566,138.500000,36.156803,138.579921,36.128904,138.829179,36.330350,138.874038,36.330538,138.914799,36.444544,138.917731,36.440914,138.500000,36.120001,138.507582,36.124656,138.910542,36.101004,138.938099,36.105586,138.639633,36.178449,138.647551,36.125077,138.522821,36.128831,138.979888,36.314184,138.987545,36.317453,138.955956,36.111589,138.977151,36.126095,138.500000,36.046485,138.512712,36.057382,138.558779,36.500000,138.602303,36.446572,139.000000,36.325940,138.974552,36.296025,138.983710,36.291498,138.989113,36.000000,138.993719,36.059589,138.750000,36.446745,138.767213,36.443063,138.841851,36.271023,138.858446,36.276247,138.509092,36.246259,138.520719,36.250000,138.550681,36.259641,138.977922,36.388793,138.922463,36.432977,138.950310,36.419328,138.940504,36.250000,138.941300,36.297761,138.500000,36.188389,138.527199,36.190208,138.745302,36.495795,138.747112,36.500000,139.000000,36.317404,138.886205,36.296620,138.887635,36.250000,138.888675,36.216083,138.949401,36.106614,138.500000,36.288599,138.518785,36.274343,138.771692,36.441734,138.785625,36.383055,138.813090,36.345942,138.990879,36.134120,139.000000,36.130522,138.771485,36.000000,138.818030,36.276495,138.824113,36.272873,138.873802,36.285866,138.880393,36.250000,138.884685,36.226639,138.827445,36.250000,138.958727,36.250000,138.959658,36.296488,138.991432,36.283847,138.998760,36.250000,139.000000,36.244274,138.914291,36.250000,138.558681,36.000000,138.703597,36.041704,138.568376,36.075140,138.654949,36.104603,138.899961,36.173532,138.553941,36.259034,138.568648,36.250000,138.598140,36.231884,138.500000,36.418397,138.503732,36.417961,139.000000,36.142104,138.972376,36.297805,138.737513,36.265445,138.750000,36.295969,138.607621,36.226985,138.638971,36.194351,138.999782,36.362828,139.000000,36.362710,138.500000,36.196624,138.500000,36.270246,138.581736,36.500000,138.604669,36.447107,138.889554,36.300346,138.500000,36.091488,138.619179,36.447659,138.623529,36.500000,138.992590,36.294352,138.500000,36.137516,138.859903,36.464609,138.615528,36.447882,138.872329,36.250000,138.852759,36.250000,138.980340,36.500000,138.500000,36.238843,139.000000,36.295034,138.639220,36.182654,138.691999,36.441160,138.744528,36.500000,138.684776,36.500000,138.546764,36.425114,138.604518,36.259283,138.727557,36.259751,138.823907,36.201252,139.000000,36.362351,138.500000,36.214184,138.895535,36.298454,138.897251,36.250000,138.976212,36.394471,139.000000,36.390798,138.906732,36.449475,138.914425,36.444829,138.603336,36.500000,138.923837,36.500000,138.625369,36.445903,138.743617,36.250000,138.750000,36.246125,138.500000,36.245238,138.679941,36.241256,139.000000,36.472171,138.764994,36.269235,138.787160,36.269470,138.857125,36.500000,138.922323,36.432365,139.000000,36.281002,139.000000,36.432721,138.500000,36.064417,139.000000,36.298633,138.680526,36.250000,138.741314,36.000000,138.605410,36.250000,138.750000,36.267167,138.500000,36.124616,138.500000,36.055430,138.500000,36.174161,138.500000,36.004098,138.780677,36.500000,139.000000,36.053826,138.797647,36.250000,138.975256,36.250000,138.946388,36.500000,138.702453,36.250000
],
"groups":[
{"lon":138500,"lat":36000,"size":250,"index":[0,1,12,13,18,19,22,23,24,13,29,30,42,43,50,51,79,80,81,82,85,86,93,94,97,51,82,80,102,81,106,24,86,93,112,42,94,114,123,86,51,114,114,22,1,81,133,134,135,42,94,136,13,23,23,82,19,24,144,0,136,146,80,147,148,93,150,19,151,30,152,22,153,1,30,0,136,159]},
{"lon":138500,"lat":36250,"size":250,"index":[6,7,31,32,7,38,43,44,52,53,59,60,7,52,84,85,87,88,91,92,98,60,99,100,103,104,108,103,100,108,115,6,116,52,117,115,118,119,120,91,130,108,132,115,88,84,118,32,120,133,146,6,44,84,119,148,91,149,60,44,32,100,103,132,119,132,88,118,159,120]},
{"lon":138750,"lat":36000,"size":250,"index":[8,9,10,11,20,21,27,28,36,37,21,48,56,57,58,27,64,65,66,9,70,71,72,8,27,73,76,77,10,78,83,10,64,89,58,37,109,71,11,20,110,11,57,83,28,64,121,8,125,83,134,121,21,58,37,155,156,121,71,57,157,28,9,20]},
{"lon":138750,"lat":36250,"size":250,"index":[2,3,4,5,14,15,16,17,25,26,26,33,34,35,38,39,40,41,45,25,46,47,48,49,26,54,55,56,39,61,62,63,67,68,69,70,68,72,73,74,75,76,78,4,90,25,92,62,95,96,55,101,35,105,107,2,41,109,40,110,16,111,105,113,41,69,95,122,124,125,126,127,128,129,128,131,124,4,129,16,17,137,138,139,2,128,45,95,140,107,141,5,15,101,49,74,75,142,47,143,105,145,90,34,15,141,61,62,17,46,149,138,67,14,141,46,74,90,47,126,61,107,35,75,39,154,101,124,126,45,138,63,139,156,68,40,69,55,5,49,63,14,34,157,129,158,139,67]}
]
}
}