{
  "code":11205,
  "id":"6d21eb",
  "name":"JR津軽線",
  "name_kana":"じぇいあーるつがるせん",
  "station_size":18,
  "company_code":2,
  "closed":false,
  "color":"#15A2C4",
  "station_list":[
    {"code":1120120,"id":"f1cf2c","name":"青森","original_name":"青森","name_kana":"あおもり","closed":false,"lat":40.828668,"lng":140.734738,"prefecture":2,"lines":[11201,11202,11205,99206],"attr":"cool","postal_code":"038-0012","address":"青森市柳川１丁目","voronoi":{"type":"Feature","geometry":{"type":"Polygon","coordinates":[[[140.754978,40.908964],[140.713641,40.844465],[140.71592,40.763964],[140.758933,40.853392],[140.759897,40.912229],[140.759742,40.912958],[140.754978,40.908964]]]},"properties":{}},"impl":true},
    {"code":1120502,"id":"a10748","name":"油川","original_name":"油川","name_kana":"あぶらかわ","closed":false,"lat":40.857035,"lng":140.690476,"prefecture":2,"lines":[11205],"attr":"cool","postal_code":"038-0058","address":"青森市大字羽白","voronoi":{"type":"Feature","geometry":{"type":"Polygon","coordinates":[[[140.744926,40.905011],[140.656399,40.858333],[140.68308,40.841365],[140.713641,40.844465],[140.754978,40.908964],[140.744926,40.905011]]]},"properties":{}},"impl":true},
    {"code":1120503,"id":"5c7f42","name":"津軽宮田","original_name":"津軽宮田","name_kana":"つがるみやた","closed":false,"lat":40.887184,"lng":140.674579,"prefecture":2,"lines":[11205],"attr":"cool","postal_code":"038-0054","address":"青森市大字奥内","voronoi":{"type":"Feature","geometry":{"type":"Polygon","coordinates":[[[140.60292,40.860641],[140.656399,40.858333],[140.744926,40.905011],[140.61988,40.887689],[140.575815,40.874996],[140.576312,40.87165],[140.60292,40.860641]]]},"properties":{}},"impl":true},
    {"code":1120504,"id":"d06ea4","name":"奥内","original_name":"奥内","name_kana":"おくない","closed":false,"lat":40.903044,"lng":140.672382,"prefecture":2,"lines":[11205],"attr":"cool","postal_code":"038-0052","address":"青森市大字清水","voronoi":{"type":"Feature","geometry":{"type":"Polygon","coordinates":[[[140.769967,40.938937],[140.770814,40.952267],[140.735154,40.940185],[140.61988,40.887689],[140.744926,40.905011],[140.754978,40.908964],[140.759742,40.912958],[140.769967,40.938937]]]},"properties":{}},"impl":true},
    {"code":1120505,"id":"f56599","name":"左堰","original_name":"左堰","name_kana":"ひだりせき","closed":false,"lat":40.917214,"lng":140.665929,"prefecture":2,"lines":[11205],"attr":"cool","postal_code":"030-1273","address":"青森市大字左堰","voronoi":{"type":"Feature","geometry":{"type":"Polygon","coordinates":[[[140.567097,40.902649],[140.735154,40.940185],[140.61988,40.887689],[140.575815,40.874996],[140.567097,40.902649]]]},"properties":{}},"impl":true},
    {"code":1120506,"id":"ddb580","name":"後潟","original_name":"後潟","name_kana":"うしろがた","closed":false,"lat":40.931519,"lng":140.662734,"prefecture":2,"lines":[11205],"attr":"heat","postal_code":"030-1271","address":"青森市大字六枚橋","voronoi":{"type":"Feature","geometry":{"type":"Polygon","coordinates":[[[140.726604,40.965136],[140.566172,40.905724],[140.566741,40.903546],[140.567097,40.902649],[140.735154,40.940185],[140.770814,40.952267],[140.775606,40.975846],[140.726604,40.965136]]]},"properties":{}},"impl":true},
    {"code":1120507,"id":"668e0b","name":"中沢","original_name":"中沢","name_kana":"なかさわ","closed":false,"lat":40.949044,"lng":140.656244,"prefecture":2,"lines":[11205],"attr":"heat","postal_code":"030-1261","address":"青森市大字四戸橋","voronoi":{"type":"Feature","geometry":{"type":"Polygon","coordinates":[[[140.566172,40.905724],[140.726604,40.965136],[140.552398,40.950231],[140.556817,40.931448],[140.566172,40.905724]]]},"properties":{}},"impl":true},
    {"code":1120508,"id":"ffa502","name":"蓬田","original_name":"蓬田","name_kana":"よもぎた","closed":false,"lat":40.969042,"lng":140.654533,"prefecture":2,"lines":[11205],"attr":"heat","postal_code":"030-1212","address":"東津軽郡蓬田村大字阿弥陀川","voronoi":{"type":"Feature","geometry":{"type":"Polygon","coordinates":[[[140.726604,40.965136],[140.775606,40.975846],[140.782087,40.993087],[140.565402,40.96828],[140.549934,40.957476],[140.552398,40.950231],[140.726604,40.965136]]]},"properties":{}},"impl":true},
    {"code":1120509,"id":"3e2cbe","name":"郷沢","original_name":"郷沢","name_kana":"ごうさわ","closed":false,"lat":40.987682,"lng":140.652399,"prefecture":2,"lines":[11205],"attr":"heat","postal_code":"030-1203","address":"東津軽郡蓬田村大字郷沢","voronoi":{"type":"Feature","geometry":{"type":"Polygon","coordinates":[[[140.782087,40.993087],[140.565402,40.96828],[140.58322,40.983755],[140.798531,41.028765],[140.782087,40.993087]]]},"properties":{}},"impl":true},
    {"code":1120510,"id":"27066a","name":"瀬辺地","original_name":"瀬辺地","name_kana":"せへじ","closed":false,"lat":41.007869,"lng":140.648179,"prefecture":2,"lines":[11205],"attr":"heat","postal_code":"030-1202","address":"東津軽郡蓬田村大字瀬辺地","voronoi":{"type":"Feature","geometry":{"type":"Polygon","coordinates":[[[140.58322,40.983755],[140.611411,41.016801],[140.811385,41.053724],[140.810118,41.049982],[140.798531,41.028765],[140.58322,40.983755]]]},"properties":{}},"impl":true},
    {"code":1120511,"id":"50628d","name":"蟹田","original_name":"蟹田","name_kana":"かにた","closed":false,"lat":41.038274,"lng":140.642565,"prefecture":2,"lines":[11205],"attr":"eco","postal_code":"030-1303","address":"東津軽郡外ヶ浜町蟹田","voronoi":{"type":"Feature","geometry":{"type":"Polygon","coordinates":[[[140.7015,41.237324],[140.662481,41.190862],[140.611411,41.016801],[140.811385,41.053724],[140.863498,41.171097],[140.877692,41.211807],[140.814725,41.346864],[140.809635,41.354151],[140.7015,41.237324]]]},"properties":{}},"impl":true},
    {"code":1111801,"id":"ae7081","name":"中小国","original_name":"中小国","name_kana":"なかおぐに","closed":false,"lat":41.051702,"lng":140.596798,"prefecture":2,"lines":[11118,11205],"attr":"cool","postal_code":"030-1305","address":"東津軽郡外ヶ浜町蟹田小国","voronoi":{"type":"Feature","geometry":{"type":"Polygon","coordinates":[[[140.565402,40.96828],[140.58322,40.983755],[140.611411,41.016801],[140.662481,41.190862],[140.611152,41.146148],[140.542771,40.965477],[140.54439,40.962574],[140.549934,40.957476],[140.565402,40.96828]]]},"properties":{}},"impl":true},
    {"code":1120513,"id":"fb4e52","name":"大平","original_name":"大平","name_kana":"おおだい","closed":false,"lat":41.065866,"lng":140.559375,"prefecture":2,"lines":[11205],"attr":"eco","postal_code":"030-1307","address":"東津軽郡外ヶ浜町字蟹田大平","voronoi":{"type":"Feature","geometry":{"type":"Polygon","coordinates":[[[140.542771,40.965477],[140.459995,41.062459],[140.611152,41.146148],[140.542771,40.965477]]]},"properties":{}},"impl":true},
    {"code":1120514,"id":"e37f5b","name":"津軽二股","original_name":"津軽二股","name_kana":"つがるふたまた","closed":false,"lat":41.145937,"lng":140.514231,"prefecture":2,"lines":[11205],"attr":"eco","postal_code":"030-1505","address":"東津軽郡今別町大字大川平","voronoi":{"type":"Feature","geometry":{"type":"Polygon","coordinates":[[[140.428251,41.075354],[140.453973,41.064955],[140.52638,41.160518],[140.474574,41.140599],[140.443901,41.103011],[140.428251,41.075354]]]},"properties":{}},"impl":true},
    {"code":1120515,"id":"dba32e","name":"大川平","original_name":"大川平","name_kana":"おおかわだい","closed":false,"lat":41.163204,"lng":140.507592,"prefecture":2,"lines":[11205],"attr":"eco","postal_code":"030-1505","address":"東津軽郡今別町大字大川平","voronoi":{"type":"Feature","geometry":{"type":"Polygon","coordinates":[[[140.7015,41.237324],[140.52638,41.160518],[140.474574,41.140599],[140.479957,41.15171],[140.733991,41.415068],[140.795353,41.393352],[140.809635,41.354151],[140.7015,41.237324]]]},"properties":{}},"impl":true},
    {"code":1120516,"id":"32f9fc","name":"今別","original_name":"今別","name_kana":"いまべつ","closed":false,"lat":41.179741,"lng":140.490448,"prefecture":2,"lines":[11205],"attr":"eco","postal_code":"030-1502","address":"東津軽郡今別町大字今別","voronoi":{"type":"Feature","geometry":{"type":"Polygon","coordinates":[[[140.479957,41.15171],[140.48807,41.345144],[140.519186,41.402369],[140.696441,41.429862],[140.733991,41.415068],[140.479957,41.15171]]]},"properties":{}},"impl":true},
    {"code":1120517,"id":"51fce4","name":"津軽浜名","original_name":"津軽浜名","name_kana":"つがるはまな","closed":false,"lat":41.180521,"lng":140.47185,"prefecture":2,"lines":[11205],"attr":"eco","postal_code":"030-1501","address":"東津軽郡今別町大字浜名","voronoi":{"type":"Feature","geometry":{"type":"Polygon","coordinates":[[[140.443901,41.103011],[140.474574,41.140599],[140.479957,41.15171],[140.48807,41.345144],[140.486711,41.34295],[140.443901,41.103011]]]},"properties":{}},"impl":true},
    {"code":1120518,"id":"4ecee6","name":"三厩","original_name":"三厩","name_kana":"みんまや","closed":false,"lat":41.185404,"lng":140.444482,"prefecture":2,"lines":[11205],"attr":"eco","postal_code":"030-1737","address":"東津軽郡外ヶ浜町三厩東町","voronoi":{"type":"Feature","geometry":{"type":"Polygon","coordinates":[[[140.486711,41.34295],[140.28924,41.077536],[140.428251,41.075354],[140.443901,41.103011],[140.486711,41.34295]]]},"properties":{}},"impl":true}
  ],
  "impl":true
}