{
  "code":11204,
  "id":"0fd853",
  "name":"JR五能線",
  "name_kana":"じぇいあーるごのうせん",
  "station_size":43,
  "company_code":2,
  "closed":false,
  "color":"#0C7AAD",
  "station_list":[
    {"code":1120241,"id":"a127ac","name":"東能代","original_name":"東能代","name_kana":"ひがしのしろ","closed":false,"lat":40.191579,"lng":140.065746,"prefecture":5,"lines":[11202,11204],"attr":"heat","postal_code":"016-0121","address":"能代市鰄渕","voronoi":{"type":"Feature","geometry":{"type":"Polygon","coordinates":[[[140.035159,40.168032],[140.054565,40.210293],[140.083861,40.233183],[140.09971,40.165198],[140.035159,40.168032]]]},"properties":{}},"extra":false},
    {"code":1120402,"id":"5f15dd","name":"能代","original_name":"能代","name_kana":"のしろ","closed":false,"lat":40.206577,"lng":140.033084,"prefecture":5,"lines":[11204],"attr":"heat","postal_code":"016-0831","address":"秋田県能代市元町14-40","voronoi":{"type":"Feature","geometry":{"type":"Polygon","coordinates":[[[139.82639,40.124198],[139.688529,40.202272],[139.784202,40.234293],[139.988771,40.231063],[140.054565,40.210293],[140.035159,40.168032],[139.885757,40.097627],[139.82639,40.124198]]]},"properties":{}},"extra":false},
    {"code":1120403,"id":"37e013","name":"向能代","original_name":"向能代","name_kana":"むかいのしろ","closed":false,"lat":40.225669,"lng":140.039111,"prefecture":5,"lines":[11204],"attr":"heat","postal_code":"016-0014","address":"能代市落合","voronoi":{"type":"Feature","geometry":{"type":"Polygon","coordinates":[[[139.988771,40.231063],[140.054565,40.210293],[140.083861,40.233183],[140.088344,40.249516],[139.988771,40.231063]]]},"properties":{}},"extra":false},
    {"code":1120404,"id":"3a3570","name":"北能代","original_name":"北能代","name_kana":"きたのしろ","closed":false,"lat":40.254138,"lng":140.033835,"prefecture":5,"lines":[11204],"attr":"heat","postal_code":"016-0016","address":"能代市竹生","voronoi":{"type":"Feature","geometry":{"type":"Polygon","coordinates":[[[139.909841,40.285259],[140.090377,40.252941],[140.088344,40.249516],[139.988771,40.231063],[139.784202,40.234293],[139.859626,40.267803],[139.909841,40.285259]]]},"properties":{}},"extra":false},
    {"code":1120405,"id":"4e774a","name":"鳥形","original_name":"鳥形","name_kana":"とりがた","closed":false,"lat":40.271433,"lng":140.036931,"prefecture":5,"lines":[11204],"attr":"heat","postal_code":"016-0011","address":"能代市坂形","voronoi":{"type":"Feature","geometry":{"type":"Polygon","coordinates":[[[140.090377,40.252941],[139.909841,40.285259],[139.916472,40.288089],[140.113534,40.280905],[140.090377,40.252941]]]},"properties":{}},"extra":false},
    {"code":1120406,"id":"3ac0c5","name":"沢目","original_name":"沢目","name_kana":"さわめ","closed":false,"lat":40.295929,"lng":140.037824,"prefecture":5,"lines":[11204],"attr":"heat","postal_code":"018-2501","address":"山本郡八峰町峰浜水沢","voronoi":{"type":"Feature","geometry":{"type":"Polygon","coordinates":[[[140.124807,40.290786],[140.113534,40.280905],[139.916472,40.288089],[139.937087,40.299466],[140.147909,40.33073],[140.124807,40.290786]]]},"properties":{}},"extra":false},
    {"code":1120407,"id":"cd1680","name":"東八森","original_name":"東八森","name_kana":"ひがしはちもり","closed":false,"lat":40.332086,"lng":140.032462,"prefecture":5,"lines":[11204],"attr":"cool","postal_code":"018-2678","address":"山本郡八峰町八森八森","voronoi":{"type":"Feature","geometry":{"type":"Polygon","coordinates":[[[140.224324,40.425669],[140.222029,40.421769],[140.147909,40.33073],[139.937087,40.299466],[139.968271,40.325026],[139.989625,40.338518],[140.224324,40.425669]]]},"properties":{}},"extra":false},
    {"code":1120408,"id":"99a2f8","name":"八森","original_name":"八森","name_kana":"はちもり","closed":false,"lat":40.37135,"lng":140.017882,"prefecture":5,"lines":[11204],"attr":"cool","postal_code":"018-2641","address":"山本郡八峰町八森中浜","voronoi":{"type":"Feature","geometry":{"type":"Polygon","coordinates":[[[140.224324,40.425669],[139.989625,40.338518],[140.066325,40.478015],[140.107485,40.501075],[140.165836,40.528799],[140.22856,40.510902],[140.233004,40.501411],[140.250832,40.462024],[140.224324,40.425669]]]},"properties":{}},"extra":false},
    {"code":1120409,"id":"f70986","name":"滝ノ間","original_name":"滝ノ間","name_kana":"たきのま","closed":false,"lat":40.379967,"lng":140.00221,"prefecture":5,"lines":[11204],"attr":"cool","postal_code":"018-2623","address":"山本郡八峰町八森滝ノ間","voronoi":{"type":"Feature","geometry":{"type":"Polygon","coordinates":[[[139.968271,40.325026],[140.025297,40.449293],[140.036014,40.463958],[140.066325,40.478015],[139.989625,40.338518],[139.968271,40.325026]]]},"properties":{}},"extra":false},
    {"code":1120410,"id":"a6a45a","name":"あきた白神","original_name":"あきた白神","name_kana":"あきたしらかみ","closed":false,"lat":40.386583,"lng":139.987793,"prefecture":5,"lines":[11204],"attr":"eco","postal_code":"018-2617","address":"山本郡八峰町八森御所の台","voronoi":{"type":"Feature","geometry":{"type":"Polygon","coordinates":[[[140.025297,40.449293],[139.859626,40.267803],[139.909841,40.285259],[139.916472,40.288089],[139.937087,40.299466],[139.968271,40.325026],[140.025297,40.449293]]]},"properties":{}},"extra":false},
    {"code":1120411,"id":"dd6c4a","name":"岩館","original_name":"岩館","name_kana":"いわだて","closed":false,"lat":40.406241,"lng":139.966258,"prefecture":5,"lines":[11204],"attr":"eco","postal_code":"018-2606","address":"山本郡八峰町八森釜の上","voronoi":{"type":"Feature","geometry":{"type":"Polygon","coordinates":[[[139.43749,40.254418],[139.688529,40.202272],[139.784202,40.234293],[139.859626,40.267803],[140.025297,40.449293],[140.036014,40.463958],[139.73933,40.408192],[139.43749,40.254418]]]},"properties":{}},"extra":false},
    {"code":1120412,"id":"1682d8","name":"大間越","original_name":"大間越","name_kana":"おおまごし","closed":false,"lat":40.492407,"lng":139.950062,"prefecture":2,"lines":[11204],"attr":"cool","postal_code":"038-2208","address":"西津軽郡深浦町大間越","voronoi":{"type":"Feature","geometry":{"type":"Polygon","coordinates":[[[140.066325,40.478015],[140.107485,40.501075],[139.862507,40.504041],[139.858184,40.501502],[139.73933,40.408192],[140.036014,40.463958],[140.066325,40.478015]]]},"properties":{}},"extra":false},
    {"code":1120413,"id":"e865bb","name":"白神岳登山口","original_name":"白神岳登山口","name_kana":"しらかみだけとざんぐち","closed":false,"lat":40.513551,"lng":139.950318,"prefecture":2,"lines":[11204],"attr":"cool","postal_code":"038-2207","address":"西津軽郡深浦町黒崎","voronoi":{"type":"Feature","geometry":{"type":"Polygon","coordinates":[[[140.129865,40.556194],[139.871121,40.510604],[139.862507,40.504041],[140.107485,40.501075],[140.165836,40.528799],[140.129865,40.556194]]]},"properties":{}},"extra":false},
    {"code":1120414,"id":"a7a3ad","name":"松神","original_name":"松神","name_kana":"まつかみ","closed":false,"lat":40.534902,"lng":139.946556,"prefecture":2,"lines":[11204],"attr":"cool","postal_code":"038-2206","address":"西津軽郡深浦町松神","voronoi":{"type":"Feature","geometry":{"type":"Polygon","coordinates":[[[139.871121,40.510604],[139.888253,40.527833],[140.096336,40.584991],[140.129865,40.556194],[139.871121,40.510604]]]},"properties":{}},"extra":false},
    {"code":1120415,"id":"72f4bc","name":"十二湖","original_name":"十二湖","name_kana":"じゅうにこ","closed":false,"lat":40.551539,"lng":139.941986,"prefecture":2,"lines":[11204],"attr":"cool","postal_code":"038-2206","address":"西津軽郡深浦町松神","voronoi":{"type":"Feature","geometry":{"type":"Polygon","coordinates":[[[139.888253,40.527833],[139.906449,40.552521],[140.003522,40.606878],[140.023406,40.604675],[140.090535,40.590553],[140.096336,40.584991],[139.888253,40.527833]]]},"properties":{}},"extra":false},
    {"code":1120416,"id":"cb5ff7","name":"陸奥岩崎","original_name":"陸奥岩崎","name_kana":"むついわさき","closed":false,"lat":40.583333,"lng":139.924183,"prefecture":2,"lines":[11204],"attr":"cool","postal_code":"038-2202","address":"西津軽郡深浦町岩崎","voronoi":{"type":"Feature","geometry":{"type":"Polygon","coordinates":[[[139.906449,40.552521],[139.912027,40.609814],[139.922272,40.617135],[139.988732,40.611981],[140.003522,40.606878],[139.906449,40.552521]]]},"properties":{}},"extra":false},
    {"code":1120417,"id":"355b99","name":"陸奥沢辺","original_name":"陸奥沢辺","name_kana":"むつさわべ","closed":false,"lat":40.586175,"lng":139.894991,"prefecture":2,"lines":[11204],"attr":"cool","postal_code":"038-2201","address":"西津軽郡深浦町沢辺","voronoi":{"type":"Feature","geometry":{"type":"Polygon","coordinates":[[[139.858184,40.501502],[139.862507,40.504041],[139.871121,40.510604],[139.888253,40.527833],[139.906449,40.552521],[139.912027,40.609814],[139.888175,40.607587],[139.858184,40.501502]]]},"properties":{}},"extra":false},
    {"code":1120418,"id":"beaae7","name":"ウェスパ椿山","original_name":"ウェスパ椿山","name_kana":"うぇすぱつばきやま","closed":false,"lat":40.592913,"lng":139.871157,"prefecture":2,"lines":[11204],"attr":"cool","postal_code":"038-2327","address":"西津軽郡深浦町大字舮作字鍋石２２６-１","voronoi":{"type":"Feature","geometry":{"type":"Polygon","coordinates":[[[139.886819,40.608312],[139.035552,40.264939],[139.316038,40.256025],[139.43749,40.254418],[139.73933,40.408192],[139.858184,40.501502],[139.888175,40.607587],[139.886819,40.608312]]]},"properties":{}},"extra":false},
    {"code":1120419,"id":"84bc6b","name":"艫作","original_name":"艫作","name_kana":"へなし","closed":false,"lat":40.608534,"lng":139.864856,"prefecture":2,"lines":[11204],"attr":"cool","postal_code":"038-2327","address":"西津軽郡深浦町大字舮作","voronoi":{"type":"Feature","geometry":{"type":"Polygon","coordinates":[[[139.035552,40.264939],[137.001348,40.310483],[136.622625,40.618996],[135.663717,41.500267],[138.249279,41.517593],[139.41741,41.180956],[139.886819,40.608312],[139.035552,40.264939]]]},"properties":{}},"extra":false},
    {"code":1120420,"id":"66069d","name":"横磯","original_name":"横磯","name_kana":"よこいそ","closed":false,"lat":40.629891,"lng":139.89091,"prefecture":2,"lines":[11204],"attr":"cool","postal_code":"038-2325","address":"西津軽郡深浦町大字横磯","voronoi":{"type":"Feature","geometry":{"type":"Polygon","coordinates":[[[139.888175,40.607587],[139.912027,40.609814],[139.922272,40.617135],[139.838621,40.775253],[139.813418,40.811925],[139.460947,41.169496],[139.41741,41.180956],[139.886819,40.608312],[139.888175,40.607587]]]},"properties":{}},"extra":false},
    {"code":1120421,"id":"bc85ab","name":"深浦","original_name":"深浦","name_kana":"ふかうら","closed":false,"lat":40.650239,"lng":139.929372,"prefecture":2,"lines":[11204],"attr":"cool","postal_code":"038-2324","address":"西津軽郡深浦町大字深浦","voronoi":{"type":"Feature","geometry":{"type":"Polygon","coordinates":[[[139.922272,40.617135],[139.838621,40.775253],[139.988732,40.611981],[139.922272,40.617135]]]},"properties":{}},"extra":false},
    {"code":1120422,"id":"8019b8","name":"広戸","original_name":"広戸","name_kana":"ひろと","closed":false,"lat":40.67434,"lng":139.955586,"prefecture":2,"lines":[11204],"attr":"cool","postal_code":"038-2321","address":"西津軽郡深浦町大字広戸","voronoi":{"type":"Feature","geometry":{"type":"Polygon","coordinates":[[[139.813418,40.811925],[139.838621,40.775253],[139.988732,40.611981],[140.003522,40.606878],[140.023406,40.604675],[139.925017,40.727616],[139.867555,40.775448],[139.813418,40.811925]]]},"properties":{}},"extra":false},
    {"code":1120423,"id":"b9fa25","name":"追良瀬","original_name":"追良瀬","name_kana":"おいらせ","closed":false,"lat":40.686114,"lng":139.970298,"prefecture":2,"lines":[11204],"attr":"cool","postal_code":"038-2413","address":"西津軽郡深浦町大字追良瀬","voronoi":{"type":"Feature","geometry":{"type":"Polygon","coordinates":[[[140.083675,40.609804],[140.068398,40.641631],[139.925017,40.727616],[140.023406,40.604675],[140.090535,40.590553],[140.083675,40.609804]]]},"properties":{}},"extra":false},
    {"code":1120424,"id":"26139d","name":"驫木","original_name":"驫木","name_kana":"とどろき","closed":false,"lat":40.707218,"lng":139.982954,"prefecture":2,"lines":[11204],"attr":"cool","postal_code":"038-2412","address":"西津軽郡深浦町大字驫木","voronoi":{"type":"Feature","geometry":{"type":"Polygon","coordinates":[[[139.925017,40.727616],[139.867555,40.775448],[140.051497,40.690488],[140.068398,40.641631],[139.925017,40.727616]]]},"properties":{}},"extra":false},
    {"code":1120425,"id":"8765b1","name":"風合瀬","original_name":"風合瀬","name_kana":"かそせ","closed":false,"lat":40.731826,"lng":139.99432,"prefecture":2,"lines":[11204],"attr":"cool","postal_code":"038-2411","address":"西津軽郡深浦町大字風合瀬","voronoi":{"type":"Feature","geometry":{"type":"Polygon","coordinates":[[[140.051497,40.690488],[140.051238,40.692329],[139.747924,41.125544],[139.460947,41.169496],[139.813418,40.811925],[139.867555,40.775448],[140.051497,40.690488]]]},"properties":{}},"extra":false},
    {"code":1120426,"id":"b35125","name":"大戸瀬","original_name":"大戸瀬","name_kana":"おおどせ","closed":false,"lat":40.759325,"lng":140.033596,"prefecture":2,"lines":[11204],"attr":"cool","postal_code":"038-2505","address":"西津軽郡深浦町大字田野沢","voronoi":{"type":"Feature","geometry":{"type":"Polygon","coordinates":[[[139.747924,41.125544],[139.906627,41.109567],[140.058754,40.72698],[140.051238,40.692329],[139.747924,41.125544]]]},"properties":{}},"extra":false},
    {"code":1120427,"id":"b2f97f","name":"千畳敷","original_name":"千畳敷","name_kana":"せんじょうじき","closed":false,"lat":40.767769,"lng":140.054832,"prefecture":2,"lines":[11204],"attr":"cool","postal_code":"038-2504","address":"西津軽郡深浦町大字北金ケ沢","voronoi":{"type":"Feature","geometry":{"type":"Polygon","coordinates":[[[140.056795,41.099089],[139.906627,41.109567],[140.058754,40.72698],[140.111953,40.825246],[140.125061,41.051611],[140.124754,41.058391],[140.056795,41.099089]]]},"properties":{}},"extra":false},
    {"code":1120428,"id":"acd8c3","name":"北金ヶ沢","original_name":"北金ヶ沢","name_kana":"きたかねがさわ","closed":false,"lat":40.745995,"lng":140.095052,"prefecture":2,"lines":[11204],"attr":"cool","postal_code":"038-2503","address":"青森県西津軽郡深浦町大字関字栃沢92","voronoi":{"type":"Feature","geometry":{"type":"Polygon","coordinates":[[[140.051497,40.690488],[140.051238,40.692329],[140.058754,40.72698],[140.111953,40.825246],[140.118996,40.794923],[140.083675,40.609804],[140.068398,40.641631],[140.051497,40.690488]]]},"properties":{}},"extra":false},
    {"code":1120429,"id":"2fc916","name":"陸奥柳田","original_name":"陸奥柳田","name_kana":"むつやなぎた","closed":false,"lat":40.740616,"lng":140.123243,"prefecture":2,"lines":[11204],"attr":"heat","postal_code":"038-2501","address":"西津軽郡深浦町大字柳田","voronoi":{"type":"Feature","geometry":{"type":"Polygon","coordinates":[[[140.129865,40.556194],[140.096336,40.584991],[140.090535,40.590553],[140.083675,40.609804],[140.118996,40.794923],[140.23574,40.578571],[140.245837,40.550195],[140.237126,40.529827],[140.22856,40.510902],[140.165836,40.528799],[140.129865,40.556194]]]},"properties":{}},"extra":false},
    {"code":1120430,"id":"865d88","name":"陸奥赤石","original_name":"陸奥赤石","name_kana":"むつあかいし","closed":false,"lat":40.76156,"lng":140.162057,"prefecture":2,"lines":[11204],"attr":"heat","postal_code":"038-2731","address":"西津軽郡鰺ヶ沢町赤石町","voronoi":{"type":"Feature","geometry":{"type":"Polygon","coordinates":[[[140.125061,41.051611],[140.111953,40.825246],[140.118996,40.794923],[140.23574,40.578571],[140.125061,41.051611]]]},"properties":{}},"extra":false},
    {"code":1120431,"id":"9f2df5","name":"鰺ヶ沢","original_name":"鰺ヶ沢","name_kana":"あじがさわ","closed":false,"lat":40.775255,"lng":140.220589,"prefecture":2,"lines":[11204],"attr":"heat","postal_code":"038-2761","address":"青森県西津軽郡鰺ヶ沢町大字舞戸町字下富田36-2","voronoi":{"type":"Feature","geometry":{"type":"Polygon","coordinates":[[[140.245837,40.550195],[140.272462,40.586385],[140.209913,41.010606],[140.181772,41.043325],[140.124754,41.058391],[140.125061,41.051611],[140.23574,40.578571],[140.245837,40.550195]]]},"properties":{}},"extra":false},
    {"code":1120432,"id":"eec91d","name":"鳴沢","original_name":"鳴沢","name_kana":"なるさわ","closed":false,"lat":40.782189,"lng":140.267617,"prefecture":2,"lines":[11204],"attr":"heat","postal_code":"038-2701","address":"西津軽郡鰺ヶ沢町北浮田町","voronoi":{"type":"Feature","geometry":{"type":"Polygon","coordinates":[[[140.30259,40.665624],[140.253179,40.967912],[140.240197,40.981857],[140.209913,41.010606],[140.272462,40.586385],[140.30229,40.618024],[140.30259,40.665624]]]},"properties":{}},"extra":false},
    {"code":1120433,"id":"9a6550","name":"越水","original_name":"越水","name_kana":"こしみず","closed":false,"lat":40.787258,"lng":140.298628,"prefecture":2,"lines":[11204],"attr":"heat","postal_code":"038-2818","address":"つがる市森田町大館","voronoi":{"type":"Feature","geometry":{"type":"Polygon","coordinates":[[[140.324735,40.903006],[140.253179,40.967912],[140.30259,40.665624],[140.330449,40.869544],[140.324735,40.903006]]]},"properties":{}},"extra":false},
    {"code":1120434,"id":"c3f0ce","name":"陸奥森田","original_name":"陸奥森田","name_kana":"むつもりた","closed":false,"lat":40.781738,"lng":140.339033,"prefecture":2,"lines":[11204],"attr":"heat","postal_code":"038-2817","address":"つがる市森田町床舞","voronoi":{"type":"Feature","geometry":{"type":"Polygon","coordinates":[[[140.3354,40.857911],[140.330449,40.869544],[140.30259,40.665624],[140.30229,40.618024],[140.329749,40.636825],[140.335815,40.64564],[140.367521,40.714017],[140.3354,40.857911]]]},"properties":{}},"extra":false},
    {"code":1120435,"id":"25bbe9","name":"中田(青森)","original_name":"中田","name_kana":"なかた","closed":false,"lat":40.787424,"lng":140.364505,"prefecture":2,"lines":[11204],"attr":"heat","postal_code":"038-2814","address":"つがる市森田町中田","voronoi":{"type":"Feature","geometry":{"type":"Polygon","coordinates":[[[140.386759,40.741382],[140.396254,40.76387],[140.3354,40.857911],[140.367521,40.714017],[140.386759,40.741382]]]},"properties":{}},"extra":false},
    {"code":1120436,"id":"bc03d3","name":"木造","original_name":"木造","name_kana":"きづくり","closed":false,"lat":40.802482,"lng":140.387775,"prefecture":2,"lines":[11204],"attr":"eco","postal_code":"038-3158","address":"つがる市木造房松","voronoi":{"type":"Feature","geometry":{"type":"Polygon","coordinates":[[[140.396254,40.76387],[140.3354,40.857911],[140.330449,40.869544],[140.324735,40.903006],[140.351938,40.893207],[140.379588,40.880729],[140.40557,40.865613],[140.411718,40.859233],[140.411959,40.858123],[140.412189,40.856184],[140.41967,40.788622],[140.396254,40.76387]]]},"properties":{}},"extra":false},
    {"code":1120437,"id":"504892","name":"五所川原","original_name":"五所川原","name_kana":"ごしょがわら","closed":false,"lat":40.809124,"lng":140.44776,"prefecture":2,"lines":[11204],"attr":"eco","postal_code":"037-0063","address":"五所川原市字大町","voronoi":{"type":"Feature","geometry":{"type":"Polygon","coordinates":[[[140.412189,40.856184],[140.474233,40.775416],[140.41967,40.788622],[140.412189,40.856184]]]},"properties":{}},"extra":false},
    {"code":1120438,"id":"ca724d","name":"陸奥鶴田","original_name":"陸奥鶴田","name_kana":"むつつるだ","closed":false,"lat":40.757544,"lng":140.435276,"prefecture":2,"lines":[11204],"attr":"eco","postal_code":"038-3503","address":"北津軽郡鶴田町大字鶴田","voronoi":{"type":"Feature","geometry":{"type":"Polygon","coordinates":[[[140.386759,40.741382],[140.396254,40.76387],[140.41967,40.788622],[140.474233,40.775416],[140.479252,40.774144],[140.507907,40.754556],[140.386759,40.741382]]]},"properties":{}},"extra":false},
    {"code":1120439,"id":"83d731","name":"鶴泊","original_name":"鶴泊","name_kana":"つるどまり","closed":false,"lat":40.736026,"lng":140.437616,"prefecture":2,"lines":[11204],"attr":"eco","postal_code":"038-3522","address":"北津軽郡鶴田町大字鶴泊","voronoi":{"type":"Feature","geometry":{"type":"Polygon","coordinates":[[[140.335815,40.64564],[140.367521,40.714017],[140.386759,40.741382],[140.507907,40.754556],[140.509374,40.753847],[140.335815,40.64564]]]},"properties":{}},"extra":false},
    {"code":1120440,"id":"7b0efb","name":"板柳","original_name":"板柳","name_kana":"いたやなぎ","closed":false,"lat":40.69726,"lng":140.461785,"prefecture":2,"lines":[11204],"attr":"eco","postal_code":"038-3661","address":"北津軽郡板柳町大字福野田","voronoi":{"type":"Feature","geometry":{"type":"Polygon","coordinates":[[[140.335815,40.64564],[140.329749,40.636825],[140.401589,40.641257],[140.420439,40.643259],[140.515925,40.724408],[140.518211,40.731402],[140.516863,40.743769],[140.512295,40.753447],[140.509374,40.753847],[140.335815,40.64564]]]},"properties":{}},"extra":false},
    {"code":1120441,"id":"09ecff","name":"林崎","original_name":"林崎","name_kana":"はやしざき","closed":false,"lat":40.675355,"lng":140.480401,"prefecture":2,"lines":[11204],"attr":"eco","postal_code":"038-3806","address":"南津軽郡藤崎町大字林崎","voronoi":{"type":"Feature","geometry":{"type":"Polygon","coordinates":[[[140.515925,40.724408],[140.420439,40.643259],[140.4598,40.639025],[140.462228,40.639798],[140.512941,40.685328],[140.515925,40.724408]]]},"properties":{}},"extra":false},
    {"code":1120442,"id":"f5e3fa","name":"藤崎(青森)","original_name":"藤崎","name_kana":"ふじさき","closed":false,"lat":40.654047,"lng":140.499531,"prefecture":2,"lines":[11204],"attr":"eco","postal_code":"038-3802","address":"南津軽郡藤崎町大字藤崎","voronoi":{"type":"Feature","geometry":{"type":"Polygon","coordinates":[[[140.462228,40.639798],[140.506105,40.637232],[140.517721,40.672551],[140.512941,40.685328],[140.462228,40.639798]]]},"properties":{}},"extra":false},
    {"code":1120260,"id":"4cc983","name":"川部","original_name":"川部","name_kana":"かわべ","closed":false,"lat":40.646862,"lng":140.521376,"prefecture":2,"lines":[11202,11204,10201,99223],"attr":"eco","postal_code":"038-1141","address":"南津軽郡田舎館村大字川部","voronoi":{"type":"Feature","geometry":{"type":"Polygon","coordinates":[[[140.517721,40.672551],[140.506105,40.637232],[140.527905,40.61697],[140.533014,40.616841],[140.535817,40.617624],[140.542723,40.624223],[140.542732,40.624271],[140.536483,40.654942],[140.517721,40.672551]]]},"properties":{}},"extra":false}
  ],
  "extra":false
}