{
  "code":11206,
  "id":25,
  "name":"JR八戸線",
  "name_kana":"じぇいあーるはちのへせん",
  "station_size":24,
  "company_code":2,
  "closed":false,
  "color":"#E93920",
  "station_list":[
    {"code":100421,"id":467,"name":"八戸","original_name":"八戸","name_kana":"はちのへ","closed":false,"lat":40.5092,"lng":141.431499,"prefecture":2,"lines":[1004,11201,11206,99206,11233,99235],"attr":"eco","postal_code":"039-1101","address":"八戸市尻内町","voronoi":{"type":"Feature","geometry":{"type":"Polygon","coordinates":[[[141.413695,40.495763],[141.46735,40.454404],[141.46572,40.46757],[141.444782,40.526333],[141.415566,40.503029],[141.413695,40.495763]]]},"properties":{}},"extra":false},
    {"code":1120602,"id":619,"name":"長苗代","original_name":"長苗代","name_kana":"ながなわしろ","closed":false,"lat":40.52146,"lng":141.465907,"prefecture":2,"lines":[11206],"attr":"eco","postal_code":"039-1103","address":"八戸市大字長苗代","voronoi":{"type":"Feature","geometry":{"type":"Polygon","coordinates":[[[141.4437,40.536676],[141.487708,40.564697],[141.46572,40.46757],[141.444782,40.526333],[141.4437,40.536676]]]},"properties":{}},"extra":false},
    {"code":1120603,"id":620,"name":"本八戸","original_name":"本八戸","name_kana":"ほんはちのへ","closed":false,"lat":40.516286,"lng":141.488762,"prefecture":2,"lines":[11206],"attr":"eco","postal_code":"031-0075","address":"八戸市内丸１","voronoi":{"type":"Feature","geometry":{"type":"Polygon","coordinates":[[[141.518982,40.349623],[141.46735,40.454404],[141.46572,40.46757],[141.487708,40.564697],[141.493218,40.570501],[141.518982,40.349623]]]},"properties":{}},"extra":false},
    {"code":1120604,"id":621,"name":"小中野","original_name":"小中野","name_kana":"こなかの","closed":false,"lat":40.518767,"lng":141.510032,"prefecture":2,"lines":[11206],"attr":"eco","postal_code":"031-0802","address":"八戸市大字小中野町","voronoi":{"type":"Feature","geometry":{"type":"Polygon","coordinates":[[[141.538909,40.393811],[141.530333,40.47688],[141.502247,40.584861],[141.493218,40.570501],[141.518982,40.349623],[141.521796,40.342866],[141.538909,40.393811]]]},"properties":{}},"extra":false},
    {"code":1120605,"id":622,"name":"陸奥湊","original_name":"陸奥湊","name_kana":"むつみなと","closed":false,"lat":40.52335,"lng":141.527652,"prefecture":2,"lines":[11206],"attr":"eco","postal_code":"031-0812","address":"八戸市大字湊町","voronoi":{"type":"Feature","geometry":{"type":"Polygon","coordinates":[[[141.517837,40.619391],[141.502247,40.584861],[141.530333,40.47688],[141.536729,40.544747],[141.517837,40.619391]]]},"properties":{}},"extra":false},
    {"code":1120606,"id":623,"name":"白銀","original_name":"白銀","name_kana":"しろがね","closed":false,"lat":40.522031,"lng":141.541648,"prefecture":2,"lines":[11206],"attr":"eco","postal_code":"031-0821","address":"八戸市大字白銀","voronoi":{"type":"Feature","geometry":{"type":"Polygon","coordinates":[[[141.538909,40.393811],[141.530333,40.47688],[141.536729,40.544747],[141.56485,40.499402],[141.559484,40.449018],[141.55403,40.425251],[141.538909,40.393811]]]},"properties":{}},"extra":false},
    {"code":1120607,"id":624,"name":"鮫","original_name":"鮫","name_kana":"さめ","closed":false,"lat":40.530244,"lng":141.554891,"prefecture":2,"lines":[11206],"attr":"heat","postal_code":"031-0841","address":"八戸市大字鮫町","voronoi":{"type":"Feature","geometry":{"type":"Polygon","coordinates":[[[141.56485,40.499402],[141.740126,40.981229],[141.708321,40.966507],[141.564651,40.759235],[141.543123,40.707982],[141.517837,40.619391],[141.536729,40.544747],[141.56485,40.499402]]]},"properties":{}},"extra":false},
    {"code":1120609,"id":625,"name":"陸奥白浜","original_name":"陸奥白浜","name_kana":"むつしらはま","closed":false,"lat":40.516636,"lng":141.592299,"prefecture":2,"lines":[11206],"attr":"heat","postal_code":"031-0841","address":"八戸市大字鮫町","voronoi":{"type":"Feature","geometry":{"type":"Polygon","coordinates":[[[141.559484,40.449018],[141.56485,40.499402],[141.740126,40.981229],[141.981091,41.104957],[141.559484,40.449018]]]},"properties":{}},"extra":false},
    {"code":1120610,"id":626,"name":"種差海岸","original_name":"種差海岸","name_kana":"たねさしかいがん","closed":false,"lat":40.506951,"lng":141.607367,"prefecture":2,"lines":[11206],"attr":"heat","postal_code":"031-0841","address":"八戸市大字鮫町","voronoi":{"type":"Feature","geometry":{"type":"Polygon","coordinates":[[[141.56793,40.438721],[141.55403,40.425251],[141.559484,40.449018],[141.981091,41.104957],[142.026896,41.129217],[142.127971,41.177685],[141.56793,40.438721]]]},"properties":{}},"extra":false},
    {"code":1120611,"id":627,"name":"大久喜","original_name":"大久喜","name_kana":"おおくき","closed":false,"lat":40.495135,"lng":141.622958,"prefecture":2,"lines":[11206],"attr":"cool","postal_code":"031-0841","address":"八戸市大字鮫町","voronoi":{"type":"Feature","geometry":{"type":"Polygon","coordinates":[[[141.767969,40.611972],[141.675336,40.519568],[141.56793,40.438721],[142.127971,41.177685],[142.297433,41.26136],[142.3203,41.245307],[141.891209,40.747114],[141.767969,40.611972]]]},"properties":{}},"extra":false},
    {"code":1120612,"id":628,"name":"金浜","original_name":"金浜","name_kana":"かねはま","closed":false,"lat":40.475994,"lng":141.637366,"prefecture":2,"lines":[11206],"attr":"cool","postal_code":"031-0843","address":"八戸市大字金浜字金浜","voronoi":{"type":"Feature","geometry":{"type":"Polygon","coordinates":[[[141.56793,40.438721],[141.675336,40.519568],[141.522819,40.28569],[141.522003,40.287475],[141.521796,40.342866],[141.538909,40.393811],[141.55403,40.425251],[141.56793,40.438721]]]},"properties":{}},"extra":false},
    {"code":1120613,"id":629,"name":"大蛇","original_name":"大蛇","name_kana":"おおじゃ","closed":false,"lat":40.467251,"lng":141.650773,"prefecture":2,"lines":[11206],"attr":"cool","postal_code":"039-1201","address":"三戸郡階上町大字道仏","voronoi":{"type":"Feature","geometry":{"type":"Polygon","coordinates":[[[141.522819,40.28569],[141.675336,40.519568],[141.767969,40.611972],[141.524817,40.280869],[141.522819,40.28569]]]},"properties":{}},"extra":false},
    {"code":1120614,"id":630,"name":"階上","original_name":"階上","name_kana":"はしかみ","closed":false,"lat":40.456834,"lng":141.664958,"prefecture":2,"lines":[11206],"attr":"cool","postal_code":"039-1201","address":"三戸郡階上町大字道仏","voronoi":{"type":"Feature","geometry":{"type":"Polygon","coordinates":[[[141.767969,40.611972],[141.524817,40.280869],[141.527988,40.272284],[141.601436,40.352768],[141.891209,40.747114],[141.767969,40.611972]]]},"properties":{}},"extra":false},
    {"code":1120615,"id":631,"name":"角の浜","original_name":"角の浜","name_kana":"かどのはま","closed":false,"lat":40.444478,"lng":141.681773,"prefecture":3,"lines":[11206],"attr":"cool","postal_code":"028-7911","address":"九戸郡洋野町種市第３９地割角浜","voronoi":{"type":"Feature","geometry":{"type":"Polygon","coordinates":[[[141.601436,40.352768],[141.891209,40.747114],[142.3203,41.245307],[142.447836,41.162808],[141.954506,40.678666],[141.601436,40.352768]]]},"properties":{}},"extra":false},
    {"code":1120616,"id":632,"name":"平内","original_name":"平内","name_kana":"ひらない","closed":false,"lat":40.42552,"lng":141.699272,"prefecture":3,"lines":[11206],"attr":"cool","postal_code":"028-7900","address":"九戸郡洋野町種市第３６地割","voronoi":{"type":"Feature","geometry":{"type":"Polygon","coordinates":[[[141.619098,40.324999],[141.564656,40.281725],[141.528989,40.268405],[141.527988,40.272284],[141.601436,40.352768],[141.954506,40.678666],[141.619098,40.324999]]]},"properties":{}},"extra":false},
    {"code":1120617,"id":633,"name":"種市","original_name":"種市","name_kana":"たねいち","closed":false,"lat":40.410384,"lng":141.715232,"prefecture":3,"lines":[11206],"attr":"cool","postal_code":"028-7900","address":"九戸郡洋野町種市第２３地割","voronoi":{"type":"Feature","geometry":{"type":"Polygon","coordinates":[[[141.619098,40.324999],[141.961331,40.552145],[142.606549,41.062015],[142.504795,41.127774],[142.447836,41.162808],[141.954506,40.678666],[141.619098,40.324999]]]},"properties":{}},"extra":false},
    {"code":1120618,"id":634,"name":"玉川(岩手)","original_name":"玉川","name_kana":"たまがわ","closed":false,"lat":40.380424,"lng":141.735117,"prefecture":3,"lines":[11206],"attr":"cool","postal_code":"028-7900","address":"九戸郡洋野町種市第１３地割","voronoi":{"type":"Feature","geometry":{"type":"Polygon","coordinates":[[[141.564656,40.281725],[141.619098,40.324999],[141.961331,40.552145],[141.955535,40.546936],[141.650413,40.300064],[141.564656,40.281725]]]},"properties":{}},"extra":false},
    {"code":1120619,"id":635,"name":"宿戸","original_name":"宿戸","name_kana":"しゅくのへ","closed":false,"lat":40.366129,"lng":141.746683,"prefecture":3,"lines":[11206],"attr":"cool","postal_code":"028-7900","address":"九戸郡洋野町種市第７地割","voronoi":{"type":"Feature","geometry":{"type":"Polygon","coordinates":[[[141.650413,40.300064],[141.955535,40.546936],[141.71849,40.319192],[141.697999,40.306375],[141.650413,40.300064]]]},"properties":{}},"extra":false},
    {"code":1120620,"id":636,"name":"陸中八木","original_name":"陸中八木","name_kana":"りくちゅうやぎ","closed":false,"lat":40.345485,"lng":141.766517,"prefecture":3,"lines":[11206],"attr":"cool","postal_code":"028-7900","address":"九戸郡洋野町種市第１地割","voronoi":{"type":"Feature","geometry":{"type":"Polygon","coordinates":[[[142.766996,40.963937],[142.865802,40.899112],[141.82923,40.352778],[141.71849,40.319192],[141.955535,40.546936],[141.961331,40.552145],[142.606549,41.062015],[142.674908,41.021384],[142.766996,40.963937]]]},"properties":{}},"extra":false},
    {"code":1120621,"id":637,"name":"有家","original_name":"有家","name_kana":"うげ","closed":false,"lat":40.324007,"lng":141.773031,"prefecture":3,"lines":[11206],"attr":"eco","postal_code":"028-7905","address":"九戸郡洋野町有家","voronoi":{"type":"Feature","geometry":{"type":"Polygon","coordinates":[[[141.697999,40.306375],[141.71849,40.319192],[141.82923,40.352778],[141.755324,40.294974],[141.697999,40.306375]]]},"properties":{}},"extra":false},
    {"code":1120622,"id":638,"name":"陸中中野","original_name":"陸中中野","name_kana":"りくちゅうなかの","closed":false,"lat":40.305165,"lng":141.787768,"prefecture":3,"lines":[11206],"attr":"eco","postal_code":"028-7906","address":"九戸郡洋野町中野","voronoi":{"type":"Feature","geometry":{"type":"Polygon","coordinates":[[[142.865802,40.899112],[141.82923,40.352778],[141.755324,40.294974],[141.81559,40.25755],[142.12659,40.27076],[143.180421,40.639466],[143.240456,40.663111],[142.865802,40.899112]]]},"properties":{}},"extra":false},
    {"code":1120623,"id":639,"name":"侍浜","original_name":"侍浜","name_kana":"さむらいはま","closed":false,"lat":40.261375,"lng":141.760575,"prefecture":3,"lines":[11206],"attr":"eco","postal_code":"028-7801","address":"久慈市侍浜町字堀切","voronoi":{"type":"Feature","geometry":{"type":"Polygon","coordinates":[[[141.697999,40.306375],[141.650413,40.300064],[141.564656,40.281725],[141.528989,40.268405],[141.526999,40.253778],[141.527417,40.250002],[141.538805,40.192904],[141.759948,40.225042],[141.81559,40.25755],[141.755324,40.294974],[141.697999,40.306375]]]},"properties":{}},"extra":false},
    {"code":1120624,"id":640,"name":"陸中夏井","original_name":"陸中夏井","name_kana":"りくちゅうなつい","closed":false,"lat":40.207747,"lng":141.791906,"prefecture":3,"lines":[11206],"attr":"heat","postal_code":"028-0001","address":"久慈市夏井町字大崎","voronoi":{"type":"Feature","geometry":{"type":"Polygon","coordinates":[[[141.759948,40.225042],[141.806486,40.168693],[141.823687,40.167322],[142.064859,40.238606],[142.12659,40.27076],[141.81559,40.25755],[141.759948,40.225042]]]},"properties":{}},"extra":false},
    {"code":1120625,"id":641,"name":"久慈","original_name":"久慈","name_kana":"くじ","closed":false,"lat":40.190391,"lng":141.770891,"prefecture":3,"lines":[11206,99207,99208,10203],"attr":"heat","postal_code":"028-0061","address":"久慈市中央３","voronoi":{"type":"Feature","geometry":{"type":"Polygon","coordinates":[[[141.759948,40.225042],[141.538805,40.192904],[141.542668,40.100346],[141.806486,40.168693],[141.759948,40.225042]]]},"properties":{}},"extra":false}
  ],
  "extra":false
}