{
  "code":11212,
  "id":31,
  "name":"JR花輪線(十和田八幡平四季彩ライン)",
  "name_kana":"じぇいあーるはなわせん(とわだはちまんたいしきさいらいん)",
  "name_formal":"JR花輪線",
  "station_size":27,
  "company_code":2,
  "closed":false,
  "color":"#FF0000",
  "station_list":[
    {"code":1121201,"id":732,"name":"好摩","original_name":"好摩","name_kana":"こうま","closed":false,"lat":39.874037,"lng":141.173685,"prefecture":3,"lines":[11212,99205,11233],"attr":"heat","postal_code":"028-4125","address":"盛岡市玉山区好摩","voronoi":{"type":"Feature","geometry":{"type":"Polygon","coordinates":[[[141.172744,39.904274],[141.138489,39.866947],[141.235101,39.819676],[141.244436,39.821837],[141.274229,39.845981],[141.172744,39.904274]]]},"properties":{}},"extra":false},
    {"code":1121202,"id":733,"name":"東大更","original_name":"東大更","name_kana":"ひがしおおぶけ","closed":false,"lat":39.902621,"lng":141.142537,"prefecture":3,"lines":[11212],"attr":"heat","postal_code":"028-7111","address":"八幡平市大更","voronoi":{"type":"Feature","geometry":{"type":"Polygon","coordinates":[[[141.172744,39.904274],[141.156596,39.961332],[141.150135,39.969689],[141.132493,39.948771],[141.109307,39.861803],[141.138489,39.866947],[141.172744,39.904274]]]},"properties":{}},"extra":false},
    {"code":1121203,"id":734,"name":"大更","original_name":"大更","name_kana":"おおぶけ","closed":false,"lat":39.913746,"lng":141.100808,"prefecture":3,"lines":[11212,99226],"attr":"heat","postal_code":"028-7111","address":"八幡平市大更","voronoi":{"type":"Feature","geometry":{"type":"Polygon","coordinates":[[[141.094796,39.933041],[141.062982,39.847033],[141.060066,39.828848],[141.062133,39.829723],[141.109307,39.861803],[141.132493,39.948771],[141.094796,39.933041]]]},"properties":{}},"extra":false},
    {"code":1121204,"id":735,"name":"平館","original_name":"平館","name_kana":"たいらだて","closed":false,"lat":39.950886,"lng":141.08531,"prefecture":3,"lines":[11212],"attr":"heat","postal_code":"028-7405","address":"八幡平市平舘","voronoi":{"type":"Feature","geometry":{"type":"Polygon","coordinates":[[[141.072116,39.939099],[141.094796,39.933041],[141.132493,39.948771],[141.150135,39.969689],[141.146683,40.018712],[141.145118,40.02315],[141.131471,40.040083],[141.113861,40.03575],[141.072116,39.939099]]]},"properties":{}},"extra":false},
    {"code":1121205,"id":736,"name":"北森","original_name":"北森","name_kana":"きたもり","closed":false,"lat":39.956785,"lng":141.071652,"prefecture":3,"lines":[11212],"attr":"heat","postal_code":"028-7305","address":"八幡平市松尾","voronoi":{"type":"Feature","geometry":{"type":"Polygon","coordinates":[[[141.072116,39.939099],[141.062754,39.937464],[141.050185,39.946099],[141.088622,40.031728],[141.113861,40.03575],[141.072116,39.939099]]]},"properties":{}},"extra":false},
    {"code":1121206,"id":737,"name":"松尾八幡平","original_name":"松尾八幡平","name_kana":"まつおはちまんたい","closed":false,"lat":39.969241,"lng":141.043903,"prefecture":3,"lines":[11212],"attr":"heat","postal_code":"028-7305","address":"八幡平市松尾","voronoi":{"type":"Feature","geometry":{"type":"Polygon","coordinates":[[[140.995663,39.964099],[141.01071,39.942735],[141.050185,39.946099],[141.088622,40.031728],[141.07559,40.032265],[141.066383,40.030271],[141.048972,40.021489],[140.995663,39.964099]]]},"properties":{}},"extra":false},
    {"code":1121207,"id":738,"name":"安比高原","original_name":"安比高原","name_kana":"あっぴこうげん","closed":false,"lat":40.012587,"lng":140.997239,"prefecture":3,"lines":[11212],"attr":"heat","postal_code":"028-7305","address":"八幡平市松尾前森官有地","voronoi":{"type":"Feature","geometry":{"type":"Polygon","coordinates":[[[140.995663,39.964099],[140.87616,39.993484],[140.922793,40.045056],[141.048972,40.021489],[140.995663,39.964099]]]},"properties":{}},"extra":false},
    {"code":1121208,"id":739,"name":"赤坂田","original_name":"赤坂田","name_kana":"あかさかた","closed":false,"lat":40.048464,"lng":141.00394,"prefecture":3,"lines":[11212],"attr":"cool","postal_code":"028-7554","address":"八幡平市赤坂田","voronoi":{"type":"Feature","geometry":{"type":"Polygon","coordinates":[[[140.922793,40.045056],[140.936334,40.069346],[140.967038,40.089482],[141.066383,40.030271],[141.048972,40.021489],[140.922793,40.045056]]]},"properties":{}},"extra":false},
    {"code":1121209,"id":740,"name":"小屋の畑","original_name":"小屋の畑","name_kana":"こやのはた","closed":false,"lat":40.076539,"lng":141.020673,"prefecture":3,"lines":[11212],"attr":"cool","postal_code":"028-7544","address":"八幡平市保戸坂","voronoi":{"type":"Feature","geometry":{"type":"Polygon","coordinates":[[[141.032663,40.090174],[141.07559,40.032265],[141.066383,40.030271],[140.967038,40.089482],[140.97719,40.101791],[141.032663,40.090174]]]},"properties":{}},"extra":false},
    {"code":1121210,"id":741,"name":"荒屋新町","original_name":"荒屋新町","name_kana":"あらやしんまち","closed":false,"lat":40.097682,"lng":141.049196,"prefecture":3,"lines":[11212],"attr":"cool","postal_code":"028-7534","address":"八幡平市荒屋新町","voronoi":{"type":"Feature","geometry":{"type":"Polygon","coordinates":[[[141.032663,40.090174],[141.07559,40.032265],[141.088622,40.031728],[141.113861,40.03575],[141.131471,40.040083],[141.150332,40.147588],[141.14204,40.216307],[141.109685,40.263559],[141.032663,40.090174]]]},"properties":{}},"extra":false},
    {"code":1121211,"id":742,"name":"横間","original_name":"横間","name_kana":"よこま","closed":false,"lat":40.107475,"lng":141.027151,"prefecture":3,"lines":[11212],"attr":"eco","postal_code":"028-7536","address":"八幡平市打田内","voronoi":{"type":"Feature","geometry":{"type":"Polygon","coordinates":[[[141.032663,40.090174],[140.97719,40.101791],[141.063883,40.325327],[141.08285,40.309147],[141.109685,40.263559],[141.032663,40.090174]]]},"properties":{}},"extra":false},
    {"code":1121212,"id":743,"name":"田山","original_name":"田山","name_kana":"たやま","closed":false,"lat":40.139674,"lng":140.944126,"prefecture":3,"lines":[11212],"attr":"eco","postal_code":"028-7615","address":"八幡平市石名坂","voronoi":{"type":"Feature","geometry":{"type":"Polygon","coordinates":[[[141.003513,40.402852],[140.975049,40.372159],[140.881118,40.211081],[140.936334,40.069346],[140.967038,40.089482],[140.97719,40.101791],[141.063883,40.325327],[141.003513,40.402852]]]},"properties":{}},"extra":false},
    {"code":1121213,"id":744,"name":"兄畑","original_name":"兄畑","name_kana":"あにはた","closed":false,"lat":40.115869,"lng":140.88302,"prefecture":3,"lines":[11212],"attr":"eco","postal_code":"028-7625","address":"八幡平市沖ノ平","voronoi":{"type":"Feature","geometry":{"type":"Polygon","coordinates":[[[140.83991,39.976505],[140.87616,39.993484],[140.922793,40.045056],[140.936334,40.069346],[140.881118,40.211081],[140.874891,40.205927],[140.83991,39.976505]]]},"properties":{}},"extra":false},
    {"code":1121214,"id":745,"name":"湯瀬温泉","original_name":"湯瀬温泉","name_kana":"ゆぜおんせん","closed":false,"lat":40.122384,"lng":140.840292,"prefecture":5,"lines":[11212],"attr":"cool","postal_code":"018-5141","address":"鹿角市八幡平湯瀬","voronoi":{"type":"Feature","geometry":{"type":"Polygon","coordinates":[[[140.83991,39.976505],[140.77146,39.930996],[140.730189,39.971606],[140.855462,40.190382],[140.857152,40.192569],[140.870739,40.203921],[140.874891,40.205927],[140.83991,39.976505]]]},"properties":{}},"extra":false},
    {"code":1121215,"id":746,"name":"八幡平","original_name":"八幡平","name_kana":"はちまんたい","closed":false,"lat":40.142881,"lng":140.804496,"prefecture":5,"lines":[11212],"attr":"cool","postal_code":"018-5141","address":"鹿角市八幡平小山","voronoi":{"type":"Feature","geometry":{"type":"Polygon","coordinates":[[[140.676918,40.065016],[140.662151,40.028607],[140.669011,40.01974],[140.730189,39.971606],[140.855462,40.190382],[140.676918,40.065016]]]},"properties":{}},"extra":false},
    {"code":1121216,"id":747,"name":"陸中大里","original_name":"陸中大里","name_kana":"りくちゅうおおさと","closed":false,"lat":40.158574,"lng":140.793477,"prefecture":5,"lines":[11212],"attr":"cool","postal_code":"018-5141","address":"鹿角市八幡平長田","voronoi":{"type":"Feature","geometry":{"type":"Polygon","coordinates":[[[140.857152,40.192569],[140.725568,40.155625],[140.706444,40.131573],[140.67715,40.065711],[140.676918,40.065016],[140.855462,40.190382],[140.857152,40.192569]]]},"properties":{}},"extra":false},
    {"code":1121217,"id":748,"name":"鹿角花輪","original_name":"鹿角花輪","name_kana":"かづのはなわ","closed":false,"lat":40.188453,"lng":140.785088,"prefecture":5,"lines":[11212],"attr":"heat","postal_code":"018-5201","address":"鹿角市花輪下中島","voronoi":{"type":"Feature","geometry":{"type":"Polygon","coordinates":[[[140.857152,40.192569],[140.725568,40.155625],[140.738391,40.182759],[140.762958,40.211191],[140.870739,40.203921],[140.857152,40.192569]]]},"properties":{}},"extra":false},
    {"code":1121218,"id":749,"name":"柴平","original_name":"柴平","name_kana":"しばひら","closed":false,"lat":40.230751,"lng":140.787941,"prefecture":5,"lines":[11212],"attr":"heat","postal_code":"018-5201","address":"鹿角市花輪鶴田","voronoi":{"type":"Feature","geometry":{"type":"Polygon","coordinates":[[[140.881118,40.211081],[140.874891,40.205927],[140.870739,40.203921],[140.762958,40.211191],[140.762563,40.232004],[140.955448,40.363232],[140.975049,40.372159],[140.881118,40.211081]]]},"properties":{}},"extra":false},
    {"code":1121219,"id":750,"name":"十和田南","original_name":"十和田南","name_kana":"とわだみなみ","closed":false,"lat":40.256069,"lng":140.770716,"prefecture":5,"lines":[11212],"attr":"heat","postal_code":"018-5336","address":"鹿角市十和田錦木","voronoi":{"type":"Feature","geometry":{"type":"Polygon","coordinates":[[[140.733197,40.269397],[140.762563,40.232004],[140.955448,40.363232],[140.743081,40.284358],[140.733197,40.269397]]]},"properties":{}},"extra":false},
    {"code":1121220,"id":751,"name":"末広","original_name":"末広","name_kana":"すえひろ","closed":false,"lat":40.229788,"lng":140.737251,"prefecture":5,"lines":[11212],"attr":"heat","postal_code":"018-5337","address":"鹿角市十和田末広","voronoi":{"type":"Feature","geometry":{"type":"Polygon","coordinates":[[[140.762563,40.232004],[140.762958,40.211191],[140.738391,40.182759],[140.715617,40.257604],[140.715666,40.261499],[140.733197,40.269397],[140.762563,40.232004]]]},"properties":{}},"extra":false},
    {"code":1121221,"id":752,"name":"土深井","original_name":"土深井","name_kana":"どぶかい","closed":false,"lat":40.222452,"lng":140.713142,"prefecture":5,"lines":[11212],"attr":"heat","postal_code":"018-5337","address":"鹿角市十和田末広土深井字下向","voronoi":{"type":"Feature","geometry":{"type":"Polygon","coordinates":[[[140.738391,40.182759],[140.715617,40.257604],[140.693609,40.202226],[140.706444,40.131573],[140.725568,40.155625],[140.738391,40.182759]]]},"properties":{}},"extra":false},
    {"code":1121222,"id":753,"name":"沢尻","original_name":"沢尻","name_kana":"さわじり","closed":false,"lat":40.230342,"lng":140.693288,"prefecture":5,"lines":[11212],"attr":"heat","postal_code":"018-5601","address":"大館市十二所","voronoi":{"type":"Feature","geometry":{"type":"Polygon","coordinates":[[[140.661847,40.251846],[140.694399,40.261115],[140.711626,40.262264],[140.715666,40.261499],[140.715617,40.257604],[140.693609,40.202226],[140.661847,40.251846]]]},"properties":{}},"extra":false},
    {"code":1121223,"id":754,"name":"十二所","original_name":"十二所","name_kana":"じゅうにしょ","closed":false,"lat":40.21429,"lng":140.668211,"prefecture":5,"lines":[11212],"attr":"heat","postal_code":"018-5601","address":"大館市十二所","voronoi":{"type":"Feature","geometry":{"type":"Polygon","coordinates":[[[140.661847,40.251846],[140.65089,40.253213],[140.647587,40.251891],[140.67715,40.065711],[140.706444,40.131573],[140.693609,40.202226],[140.661847,40.251846]]]},"properties":{}},"extra":false},
    {"code":1121224,"id":755,"name":"大滝温泉","original_name":"大滝温泉","name_kana":"おおたきおんせん","closed":false,"lat":40.209751,"lng":140.639625,"prefecture":5,"lines":[11212],"attr":"heat","postal_code":"018-5601","address":"大館市十二所上川代","voronoi":{"type":"Feature","geometry":{"type":"Polygon","coordinates":[[[140.614011,40.246936],[140.565652,40.080263],[140.575464,40.065593],[140.662151,40.028607],[140.676918,40.065016],[140.67715,40.065711],[140.647587,40.251891],[140.623388,40.251013],[140.614011,40.246936]]]},"properties":{}},"extra":false},
    {"code":1121225,"id":756,"name":"扇田","original_name":"扇田","name_kana":"おうぎた","closed":false,"lat":40.229235,"lng":140.572472,"prefecture":5,"lines":[11212],"attr":"eco","postal_code":"018-5701","address":"大館市比内町扇田","voronoi":{"type":"Feature","geometry":{"type":"Polygon","coordinates":[[[140.517483,40.225383],[140.486629,40.175775],[140.56482,40.081029],[140.565652,40.080263],[140.614011,40.246936],[140.59439,40.257036],[140.58703,40.258912],[140.517483,40.225383]]]},"properties":{}},"extra":false},
    {"code":1121226,"id":757,"name":"東大館","original_name":"東大館","name_kana":"ひがしおおだて","closed":false,"lat":40.266005,"lng":140.554745,"prefecture":5,"lines":[11212],"attr":"eco","postal_code":"017-0846","address":"大館市常盤木町","voronoi":{"type":"Feature","geometry":{"type":"Polygon","coordinates":[[[140.517483,40.225383],[140.527009,40.278602],[140.573837,40.276059],[140.58703,40.258912],[140.517483,40.225383]]]},"properties":{}},"extra":false},
    {"code":1120250,"id":535,"name":"大館","original_name":"大館","name_kana":"おおだて","closed":false,"lat":40.288122,"lng":140.555946,"prefecture":5,"lines":[11202,11212,99228,99229],"attr":"cool","postal_code":"017-0044","address":"大館市御成町１丁目","voronoi":{"type":"Feature","geometry":{"type":"Polygon","coordinates":[[[140.524368,40.291976],[140.527009,40.278602],[140.573837,40.276059],[140.570751,40.302359],[140.524368,40.291976]]]},"properties":{}},"extra":false}
  ],
  "extra":false
}