{
  "code":11219,
  "id":"85eecb",
  "name":"JR米坂線",
  "name_kana":"じぇいあーるよねさかせん",
  "station_size":20,
  "company_code":2,
  "closed":false,
  "color":"#9E7EB9",
  "station_list":[
    {"code":1121609,"id":"e85f49","name":"米沢","original_name":"米沢","name_kana":"よねざわ","closed":false,"lat":37.909478,"lng":140.128209,"prefecture":6,"lines":[11216,11219],"attr":"eco","postal_code":"992-0027","address":"米沢市駅前１丁目","voronoi":{"type":"Feature","geometry":{"type":"Polygon","coordinates":[[[140.19831,37.911625],[140.111208,37.939517],[140.107472,37.918734],[140.130714,37.884404],[140.19831,37.911625]]]},"properties":{}}},
    {"code":1121902,"id":"f58f91","name":"南米沢","original_name":"南米沢","name_kana":"みなみよねざわ","closed":false,"lat":37.896043,"lng":140.108364,"prefecture":6,"lines":[11219],"attr":"cool","postal_code":"992-0037","address":"米沢市本町１丁目","voronoi":{"type":"Feature","geometry":{"type":"Polygon","coordinates":[[[140.107472,37.918734],[140.002213,37.801985],[140.030426,37.763489],[140.130714,37.884404],[140.107472,37.918734]]]},"properties":{}}},
    {"code":1121903,"id":"0d1c19","name":"西米沢","original_name":"西米沢","name_kana":"にしよねざわ","closed":false,"lat":37.917279,"lng":140.08481,"prefecture":6,"lines":[11219],"attr":"cool","postal_code":"992-0056","address":"米沢市直江町","voronoi":{"type":"Feature","geometry":{"type":"Polygon","coordinates":[[[140.111208,37.939517],[140.110286,37.940962],[139.965956,37.889887],[139.945666,37.863356],[140.002213,37.801985],[140.107472,37.918734],[140.111208,37.939517]]]},"properties":{}}},
    {"code":1121904,"id":"0ac08b","name":"成島(山形)","original_name":"成島","name_kana":"なるしま","closed":false,"lat":37.94335,"lng":140.075584,"prefecture":6,"lines":[11219],"attr":"cool","postal_code":"992-0083","address":"米沢市広幡町成島","voronoi":{"type":"Feature","geometry":{"type":"Polygon","coordinates":[[[139.965956,37.889887],[139.989951,37.92998],[140.106045,37.967379],[140.110286,37.940962],[139.965956,37.889887]]]},"properties":{}}},
    {"code":1121905,"id":"5cabc7","name":"中郡(山形)","original_name":"中郡","name_kana":"ちゅうぐん","closed":false,"lat":37.969109,"lng":140.067286,"prefecture":6,"lines":[11219],"attr":"cool","postal_code":"999-0144","address":"東置賜郡川西町大字時田","voronoi":{"type":"Feature","geometry":{"type":"Polygon","coordinates":[[[139.989951,37.92998],[140.106045,37.967379],[140.109275,37.98356],[140.103171,38.006056],[140.09839,38.007724],[140.096245,38.007142],[140.000726,37.956762],[139.989951,37.92998]]]},"properties":{}}},
    {"code":1121906,"id":"2ea069","name":"羽前小松","original_name":"羽前小松","name_kana":"うぜんこまつ","closed":false,"lat":38.004721,"lng":140.048503,"prefecture":6,"lines":[11219],"attr":"cool","postal_code":"999-0121","address":"東置賜郡川西町大字上小松","voronoi":{"type":"Feature","geometry":{"type":"Polygon","coordinates":[[[140.000726,37.956762],[140.003682,37.993361],[140.020438,38.020143],[140.096245,38.007142],[140.000726,37.956762]]]},"properties":{}}},
    {"code":1121907,"id":"c46cd7","name":"犬川","original_name":"犬川","name_kana":"いぬかわ","closed":false,"lat":38.025333,"lng":140.052038,"prefecture":6,"lines":[11219],"attr":"cool","postal_code":"999-0133","address":"東置賜郡川西町大字小松","voronoi":{"type":"Feature","geometry":{"type":"Polygon","coordinates":[[[140.09839,38.007724],[140.096245,38.007142],[140.020438,38.020143],[140.023836,38.034895],[140.053576,38.042403],[140.082773,38.030198],[140.09839,38.007724]]]},"properties":{}}},
    {"code":1121908,"id":"7b6359","name":"今泉","original_name":"今泉","name_kana":"いまいずみ","closed":false,"lat":38.056697,"lng":140.04412,"prefecture":6,"lines":[11219,99211,11234],"attr":"eco","postal_code":"993-0033","address":"長井市今泉","voronoi":{"type":"Feature","geometry":{"type":"Polygon","coordinates":[[[140.023912,38.057297],[140.021768,38.040599],[140.023836,38.034895],[140.053576,38.042403],[140.055824,38.080593],[140.023912,38.057297]]]},"properties":{}}},
    {"code":1121909,"id":"1f63eb","name":"萩生","original_name":"萩生","name_kana":"はぎゅう","closed":false,"lat":38.06182,"lng":140.004207,"prefecture":6,"lines":[11219],"attr":"eco","postal_code":"999-0602","address":"西置賜郡飯豊町大字萩生","voronoi":{"type":"Feature","geometry":{"type":"Polygon","coordinates":[[[139.98613,38.1056],[139.930467,38.136063],[139.913634,38.143549],[139.928857,38.083017],[139.935103,38.077659],[140.021768,38.040599],[140.023912,38.057297],[140.002039,38.094406],[139.998047,38.097791],[139.98613,38.1056]]]},"properties":{}}},
    {"code":1121910,"id":"5950b9","name":"羽前椿","original_name":"羽前椿","name_kana":"うぜんつばき","closed":false,"lat":38.038636,"lng":139.994293,"prefecture":6,"lines":[11219],"attr":"eco","postal_code":"999-0604","address":"西置賜郡飯豊町大字椿","voronoi":{"type":"Feature","geometry":{"type":"Polygon","coordinates":[[[139.935103,38.077659],[140.021768,38.040599],[140.023836,38.034895],[140.020438,38.020143],[140.003682,37.993361],[139.935103,38.077659]]]},"properties":{}}},
    {"code":1121911,"id":"e2897d","name":"手ノ子","original_name":"手ノ子","name_kana":"てのこ","closed":false,"lat":38.011766,"lng":139.961264,"prefecture":6,"lines":[11219],"attr":"eco","postal_code":"999-1111","address":"西置賜郡飯豊町大字手ノ子","voronoi":{"type":"Feature","geometry":{"type":"Polygon","coordinates":[[[140.003682,37.993361],[139.935103,38.077659],[139.928857,38.083017],[139.889989,37.879253],[139.945666,37.863356],[139.965956,37.889887],[139.989951,37.92998],[140.000726,37.956762],[140.003682,37.993361]]]},"properties":{}}},
    {"code":1121912,"id":"c7ef15","name":"羽前沼沢","original_name":"羽前沼沢","name_kana":"うぜんぬまざわ","closed":false,"lat":38.028698,"lng":139.872497,"prefecture":6,"lines":[11219],"attr":"eco","postal_code":"999-1505","address":"西置賜郡小国町大字百子沢","voronoi":{"type":"Feature","geometry":{"type":"Polygon","coordinates":[[[139.889989,37.879253],[139.797405,37.876762],[139.813002,37.962769],[139.902188,38.161723],[139.913634,38.143549],[139.928857,38.083017],[139.889989,37.879253]]]},"properties":{}}},
    {"code":1121913,"id":"45107a","name":"伊佐領","original_name":"伊佐領","name_kana":"いさりょう","closed":false,"lat":38.05105,"lng":139.822635,"prefecture":6,"lines":[11219],"attr":"heat","postal_code":"999-1322","address":"西置賜郡小国町大字伊佐領","voronoi":{"type":"Feature","geometry":{"type":"Polygon","coordinates":[[[139.902188,38.161723],[139.89278,38.1867],[139.867151,38.243269],[139.825312,38.328102],[139.793661,38.106961],[139.813002,37.962769],[139.902188,38.161723]]]},"properties":{}}},
    {"code":1121914,"id":"f1e37b","name":"羽前松岡","original_name":"羽前松岡","name_kana":"うぜんまつおか","closed":false,"lat":38.045391,"lng":139.780445,"prefecture":6,"lines":[11219],"attr":"heat","postal_code":"999-1324","address":"西置賜郡小国町大字松岡","voronoi":{"type":"Feature","geometry":{"type":"Polygon","coordinates":[[[139.793661,38.106961],[139.698919,37.928019],[139.686401,37.858601],[139.702658,37.850975],[139.747807,37.861065],[139.797405,37.876762],[139.813002,37.962769],[139.793661,38.106961]]]},"properties":{}}},
    {"code":1121915,"id":"6c8a64","name":"小国","original_name":"小国","name_kana":"おぐに","closed":false,"lat":38.061422,"lng":139.750167,"prefecture":6,"lines":[11219],"attr":"heat","postal_code":"999-1352","address":"西置賜郡小国町大字岩井沢","voronoi":{"type":"Feature","geometry":{"type":"Polygon","coordinates":[[[139.723222,38.324376],[139.781947,38.356237],[139.811034,38.370379],[139.825312,38.328102],[139.793661,38.106961],[139.698919,37.928019],[139.72198,38.323541],[139.723222,38.324376]]]},"properties":{}}},
    {"code":1121916,"id":"b8b640","name":"越後金丸","original_name":"越後金丸","name_kana":"えちごかなまる","closed":false,"lat":38.066474,"lng":139.663521,"prefecture":15,"lines":[11219],"attr":"cool","postal_code":"959-3228","address":"岩船郡関川村大字金丸","voronoi":{"type":"Feature","geometry":{"type":"Polygon","coordinates":[[[139.698919,37.928019],[139.686401,37.858601],[139.684957,37.858821],[139.657283,37.865071],[139.630605,37.87465],[139.623624,37.880971],[139.664194,38.274719],[139.683246,38.29959],[139.69451,38.309226],[139.703317,38.315066],[139.72198,38.323541],[139.698919,37.928019]]]},"properties":{}}},
    {"code":1121917,"id":"0ea2ca","name":"越後片貝","original_name":"越後片貝","name_kana":"えちごかたかい","closed":false,"lat":38.070712,"lng":139.62239,"prefecture":15,"lines":[11219],"attr":"cool","postal_code":"959-3226","address":"岩船郡関川村大字片貝","voronoi":{"type":"Feature","geometry":{"type":"Polygon","coordinates":[[[139.54668,37.936677],[139.645125,38.254378],[139.664194,38.274719],[139.623624,37.880971],[139.54668,37.936677]]]},"properties":{}}},
    {"code":1121918,"id":"20a6ec","name":"越後下関","original_name":"越後下関","name_kana":"えちごしもせき","closed":false,"lat":38.090037,"lng":139.560024,"prefecture":15,"lines":[11219],"attr":"heat","postal_code":"959-3265","address":"岩船郡関川村大字下関","voronoi":{"type":"Feature","geometry":{"type":"Polygon","coordinates":[[[139.561652,38.192187],[139.508096,37.960936],[139.535643,37.941512],[139.54668,37.936677],[139.645125,38.254378],[139.561652,38.192187]]]},"properties":{}}},
    {"code":1121919,"id":"ef3a5d","name":"越後大島","original_name":"越後大島","name_kana":"えちごおおしま","closed":false,"lat":38.099721,"lng":139.518209,"prefecture":15,"lines":[11219],"attr":"heat","postal_code":"959-3241","address":"岩船郡関川村大字大島","voronoi":{"type":"Feature","geometry":{"type":"Polygon","coordinates":[[[139.474039,38.079952],[139.485037,38.120652],[139.523302,38.165655],[139.560591,38.191702],[139.561652,38.192187],[139.508096,37.960936],[139.504647,37.962642],[139.504434,37.963012],[139.477106,38.02847],[139.474039,38.079952]]]},"properties":{}}},
    {"code":1121412,"id":"aa8ef4","name":"坂町","original_name":"坂町","name_kana":"さかまち","closed":false,"lat":38.119277,"lng":139.445838,"prefecture":15,"lines":[11214,11219],"attr":"heat","postal_code":"959-3132","address":"村上市坂町","voronoi":{"type":"Feature","geometry":{"type":"Polygon","coordinates":[[[139.374061,38.168316],[139.342133,38.175172],[139.474039,38.079952],[139.485037,38.120652],[139.374061,38.168316]]]},"properties":{}}}
  ],
  "extra":false
}