{
  "code":11221,
  "id":"9c74cc",
  "name":"JR陸羽東線(奥の細道湯けむりライン)",
  "name_kana":"じぇいあーるりくうとうせん(おくのほそみちゆけむりらいん)",
  "name_formal":"JR陸羽東線",
  "station_size":27,
  "company_code":2,
  "closed":false,
  "color":"#888888",
  "station_list":[
    {"code":1123156,"id":"ce05a9","name":"小牛田","original_name":"小牛田","name_kana":"こごた","closed":false,"lat":38.541111,"lng":141.064355,"prefecture":4,"lines":[11231,11221,11223],"attr":"eco","postal_code":"987-0001","address":"遠田郡美里町藤ケ崎","voronoi":{"type":"Feature","geometry":{"type":"Polygon","coordinates":[[[141.076169,38.570113],[141.08485,38.532397],[141.025336,38.509997],[141.051505,38.567679],[141.076169,38.570113]]]},"properties":{}},"extra":false},
    {"code":1122102,"id":"dc3a53","name":"北浦(宮城)","original_name":"北浦","name_kana":"きたうら","closed":false,"lat":38.55985,"lng":141.02305,"prefecture":4,"lines":[11221],"attr":"eco","postal_code":"987-0000","address":"遠田郡美里町北浦","voronoi":{"type":"Feature","geometry":{"type":"Polygon","coordinates":[[[141.0195,38.599213],[140.990986,38.472308],[141.025336,38.509997],[141.051505,38.567679],[141.0195,38.599213]]]},"properties":{}},"extra":false},
    {"code":1122103,"id":"5d04df","name":"陸前谷地","original_name":"陸前谷地","name_kana":"りくぜんやち","closed":false,"lat":38.565152,"lng":140.999453,"prefecture":4,"lines":[11221],"attr":"eco","postal_code":"987-0000","address":"遠田郡美里町北浦","voronoi":{"type":"Feature","geometry":{"type":"Polygon","coordinates":[[[140.990986,38.472308],[141.0195,38.599213],[140.997609,38.641075],[140.961776,38.453739],[140.981486,38.461439],[140.984872,38.463541],[140.990986,38.472308]]]},"properties":{}},"extra":false},
    {"code":100412,"id":"b1d78f","name":"古川","original_name":"古川","name_kana":"ふるかわ","closed":false,"lat":38.571192,"lng":140.967876,"prefecture":4,"lines":[1004,11221],"attr":"eco","postal_code":"989-6162","address":"大崎市古川駅前大通り１丁目","voronoi":{"type":"Feature","geometry":{"type":"Polygon","coordinates":[[[140.997609,38.641075],[140.961776,38.453739],[140.952771,38.448707],[140.947341,38.44833],[140.955118,38.635065],[140.955947,38.636771],[140.978437,38.666699],[140.997006,38.643266],[140.997609,38.641075]]]},"properties":{}},"extra":false},
    {"code":1122105,"id":"40b223","name":"塚目","original_name":"塚目","name_kana":"つかのめ","closed":false,"lat":38.572474,"lng":140.937093,"prefecture":4,"lines":[11221],"attr":"eco","postal_code":"989-6225","address":"大崎市古川塚目字金皿","voronoi":{"type":"Feature","geometry":{"type":"Polygon","coordinates":[[[140.899,38.450066],[140.925563,38.444068],[140.947341,38.44833],[140.955118,38.635065],[140.91836,38.590629],[140.899,38.450066]]]},"properties":{}},"extra":false},
    {"code":1122106,"id":"80da01","name":"西古川","original_name":"西古川","name_kana":"にしふるかわ","closed":false,"lat":38.578214,"lng":140.895416,"prefecture":4,"lines":[11221],"attr":"eco","postal_code":"989-6214","address":"大崎市古川新堀字旭町","voronoi":{"type":"Feature","geometry":{"type":"Polygon","coordinates":[[[140.899,38.450066],[140.762148,38.457911],[140.728734,38.483518],[140.694259,38.51832],[140.718595,38.555608],[140.819869,38.594885],[140.823782,38.596146],[140.91836,38.590629],[140.899,38.450066]]]},"properties":{}},"extra":false},
    {"code":1122107,"id":"08ff71","name":"東大崎","original_name":"東大崎","name_kana":"ひがしおおさき","closed":false,"lat":38.605627,"lng":140.897015,"prefecture":4,"lines":[11221],"attr":"eco","postal_code":"989-6227","address":"大崎市古川大崎伏見余在下","voronoi":{"type":"Feature","geometry":{"type":"Polygon","coordinates":[[[140.826265,38.597497],[140.823782,38.596146],[140.91836,38.590629],[140.955118,38.635065],[140.955947,38.636771],[140.826265,38.597497]]]},"properties":{}},"extra":false},
    {"code":1122108,"id":"39a911","name":"西大崎","original_name":"西大崎","name_kana":"にしおおさき","closed":false,"lat":38.629986,"lng":140.889638,"prefecture":4,"lines":[11221],"attr":"eco","postal_code":"989-6412","address":"大崎市岩出山下野目字小泉","voronoi":{"type":"Feature","geometry":{"type":"Polygon","coordinates":[[[140.972163,38.702628],[140.961239,38.706246],[140.826265,38.597497],[140.955947,38.636771],[140.978437,38.666699],[140.973888,38.69999],[140.972163,38.702628]]]},"properties":{}},"extra":false},
    {"code":1122109,"id":"120926","name":"岩出山","original_name":"岩出山","name_kana":"いわでやま","closed":false,"lat":38.652508,"lng":140.871492,"prefecture":4,"lines":[11221],"attr":"cool","postal_code":"989-6415","address":"大崎市岩出山字東川原","voronoi":{"type":"Feature","geometry":{"type":"Polygon","coordinates":[[[140.826265,38.597497],[140.823782,38.596146],[140.819869,38.594885],[140.882905,38.674109],[140.959309,38.707198],[140.961239,38.706246],[140.826265,38.597497]]]},"properties":{}},"extra":false},
    {"code":1122110,"id":"1d50d8","name":"有備館","original_name":"有備館","name_kana":"ゆうびかん","closed":false,"lat":38.658135,"lng":140.86442,"prefecture":4,"lines":[11221],"attr":"cool","postal_code":"989-6433","address":"大崎市岩出山上川原町９-１","voronoi":{"type":"Feature","geometry":{"type":"Polygon","coordinates":[[[140.819869,38.594885],[140.718595,38.555608],[140.735491,38.604078],[140.764073,38.634986],[140.800203,38.655384],[140.882905,38.674109],[140.819869,38.594885]]]},"properties":{}},"extra":false},
    {"code":1122111,"id":"830238","name":"上野目","original_name":"上野目","name_kana":"かみのめ","closed":false,"lat":38.680563,"lng":140.859342,"prefecture":4,"lines":[11221],"attr":"cool","postal_code":"989-6404","address":"大崎市岩出山下一栗字熊野堂","voronoi":{"type":"Feature","geometry":{"type":"Polygon","coordinates":[[[140.949592,38.713944],[140.959309,38.707198],[140.882905,38.674109],[140.800203,38.655384],[140.897363,38.7362],[140.933047,38.722597],[140.949592,38.713944]]]},"properties":{}},"extra":false},
    {"code":1122112,"id":"286d24","name":"池月","original_name":"池月","name_kana":"いけづき","closed":false,"lat":38.708948,"lng":140.835732,"prefecture":4,"lines":[11221],"attr":"cool","postal_code":"989-6405","address":"大崎市岩出山池月字下宮白山","voronoi":{"type":"Feature","geometry":{"type":"Polygon","coordinates":[[[140.800203,38.655384],[140.764073,38.634986],[140.83656,38.781632],[140.897363,38.7362],[140.800203,38.655384]]]},"properties":{}},"extra":false},
    {"code":1122113,"id":"873f6e","name":"川渡温泉","original_name":"川渡温泉","name_kana":"かわたびおんせん","closed":false,"lat":38.736834,"lng":140.779317,"prefecture":4,"lines":[11221],"attr":"heat","postal_code":"989-6712","address":"大崎市鳴子温泉字田中","voronoi":{"type":"Feature","geometry":{"type":"Polygon","coordinates":[[[140.734771,38.611873],[140.735491,38.604078],[140.764073,38.634986],[140.83656,38.781632],[140.784248,38.881769],[140.735135,38.615496],[140.734771,38.611873]]]},"properties":{}},"extra":false},
    {"code":1122114,"id":"92e45e","name":"鳴子御殿湯","original_name":"鳴子御殿湯","name_kana":"なるこごてんゆ","closed":false,"lat":38.744612,"lng":140.737148,"prefecture":4,"lines":[11221],"attr":"heat","postal_code":"989-6811","address":"大崎市鳴子温泉字鷲ノ巣","voronoi":{"type":"Feature","geometry":{"type":"Polygon","coordinates":[[[140.784248,38.881769],[140.735135,38.615496],[140.709667,38.996147],[140.731623,39.011362],[140.739236,39.0119],[140.784248,38.881769]]]},"properties":{}},"extra":false},
    {"code":1122115,"id":"44f4d5","name":"鳴子温泉","original_name":"鳴子温泉","name_kana":"なるこおんせん","closed":false,"lat":38.743193,"lng":140.715939,"prefecture":4,"lines":[11221],"attr":"heat","postal_code":"989-6823","address":"大崎市鳴子温泉湯元","voronoi":{"type":"Feature","geometry":{"type":"Polygon","coordinates":[[[140.735135,38.615496],[140.734771,38.611873],[140.657281,38.834839],[140.648148,38.957],[140.649376,38.95801],[140.709667,38.996147],[140.735135,38.615496]]]},"properties":{}},"extra":false},
    {"code":1122116,"id":"5c54ed","name":"中山平温泉","original_name":"中山平温泉","name_kana":"なかやまだいらおんせん","closed":false,"lat":38.726568,"lng":140.668103,"prefecture":4,"lines":[11221],"attr":"heat","postal_code":"989-6832","address":"大崎市鳴子温泉星沼","voronoi":{"type":"Feature","geometry":{"type":"Polygon","coordinates":[[[140.694259,38.51832],[140.718595,38.555608],[140.735491,38.604078],[140.734771,38.611873],[140.657281,38.834839],[140.608094,38.530518],[140.656429,38.521617],[140.694259,38.51832]]]},"properties":{}},"extra":false},
    {"code":1122117,"id":"29c842","name":"堺田","original_name":"堺田","name_kana":"さかいだ","closed":false,"lat":38.73549,"lng":140.612902,"prefecture":6,"lines":[11221],"attr":"eco","postal_code":"999-6106","address":"最上郡最上町大字堺田","voronoi":{"type":"Feature","geometry":{"type":"Polygon","coordinates":[[[140.606321,38.936458],[140.588513,38.853642],[140.580429,38.76704],[140.600177,38.530877],[140.608094,38.530518],[140.657281,38.834839],[140.648148,38.957],[140.606321,38.936458]]]},"properties":{}},"extra":false},
    {"code":1122118,"id":"691373","name":"赤倉温泉","original_name":"赤倉温泉","name_kana":"あかくらおんせん","closed":false,"lat":38.730535,"lng":140.553647,"prefecture":6,"lines":[11221],"attr":"heat","postal_code":"999-6105","address":"最上郡最上町富澤","voronoi":{"type":"Feature","geometry":{"type":"Polygon","coordinates":[[[140.594904,38.530347],[140.583664,38.540358],[140.479553,38.663916],[140.494732,38.685371],[140.580429,38.76704],[140.600177,38.530877],[140.594904,38.530347]]]},"properties":{}},"extra":false},
    {"code":1122119,"id":"bfcbd9","name":"立小路","original_name":"立小路","name_kana":"たちこうじ","closed":false,"lat":38.742045,"lng":140.542678,"prefecture":6,"lines":[11221],"attr":"heat","postal_code":"999-6100","address":"最上郡最上町立小路","voronoi":{"type":"Feature","geometry":{"type":"Polygon","coordinates":[[[140.588513,38.853642],[140.494732,38.685371],[140.580429,38.76704],[140.588513,38.853642]]]},"properties":{}},"extra":false},
    {"code":1122120,"id":"327d0a","name":"最上","original_name":"最上","name_kana":"もがみ","closed":false,"lat":38.755959,"lng":140.517712,"prefecture":6,"lines":[11221],"attr":"heat","postal_code":"999-6101","address":"最上郡最上町大字向町","voronoi":{"type":"Feature","geometry":{"type":"Polygon","coordinates":[[[140.494732,38.685371],[140.588513,38.853642],[140.606321,38.936458],[140.53419,38.920936],[140.474598,38.667666],[140.479553,38.663916],[140.494732,38.685371]]]},"properties":{}},"extra":false},
    {"code":1122121,"id":"a1a660","name":"大堀","original_name":"大堀","name_kana":"おおほり","closed":false,"lat":38.76592,"lng":140.475377,"prefecture":6,"lines":[11221],"attr":"heat","postal_code":"999-6212","address":"最上郡最上町字志茂","voronoi":{"type":"Feature","geometry":{"type":"Polygon","coordinates":[[[140.474598,38.667666],[140.468741,38.670315],[140.458603,38.899739],[140.494364,38.917727],[140.53419,38.920936],[140.474598,38.667666]]]},"properties":{}},"extra":false},
    {"code":1122122,"id":"cbf05e","name":"鵜杉","original_name":"鵜杉","name_kana":"うすぎ","closed":false,"lat":38.764962,"lng":140.453698,"prefecture":6,"lines":[11221],"attr":"heat","postal_code":"999-6212","address":"最上郡最上町志茂字鵜杉","voronoi":{"type":"Feature","geometry":{"type":"Polygon","coordinates":[[[140.462865,38.672206],[140.460901,38.675254],[140.40671,38.864622],[140.411987,38.880821],[140.458603,38.899739],[140.468741,38.670315],[140.462865,38.672206]]]},"properties":{}},"extra":false},
    {"code":1122123,"id":"9c5f5a","name":"瀬見温泉","original_name":"瀬見温泉","name_kana":"せみおんせん","closed":false,"lat":38.755192,"lng":140.419557,"prefecture":6,"lines":[11221],"attr":"heat","postal_code":"999-6211","address":"最上郡最上町字瀬見","voronoi":{"type":"Feature","geometry":{"type":"Polygon","coordinates":[[[140.363867,38.775143],[140.364351,38.78261],[140.40671,38.864622],[140.460901,38.675254],[140.363867,38.775143]]]},"properties":{}},"extra":false},
    {"code":1122124,"id":"7bf7bd","name":"東長沢","original_name":"東長沢","name_kana":"ひがしながさわ","closed":false,"lat":38.718898,"lng":140.382195,"prefecture":6,"lines":[11221],"attr":"heat","postal_code":"999-4605","address":"最上郡舟形町長沢字巾","voronoi":{"type":"Feature","geometry":{"type":"Polygon","coordinates":[[[140.462865,38.672206],[140.432945,38.667299],[140.429926,38.667669],[140.39349,38.679795],[140.351771,38.754053],[140.363867,38.775143],[140.460901,38.675254],[140.462865,38.672206]]]},"properties":{}},"extra":false},
    {"code":1122125,"id":"218838","name":"長沢","original_name":"長沢","name_kana":"ながさわ","closed":false,"lat":38.709782,"lng":140.365969,"prefecture":6,"lines":[11221],"attr":"heat","postal_code":"999-4605","address":"最上郡舟形町長沢字巾","voronoi":{"type":"Feature","geometry":{"type":"Polygon","coordinates":[[[140.338914,38.706564],[140.349647,38.751642],[140.351771,38.754053],[140.39349,38.679795],[140.347157,38.684004],[140.338914,38.706564]]]},"properties":{}},"extra":false},
    {"code":1122126,"id":"da179d","name":"南新庄","original_name":"南新庄","name_kana":"みなみしんじょう","closed":false,"lat":38.721629,"lng":140.316212,"prefecture":6,"lines":[11221],"attr":"heat","postal_code":"996-0041","address":"新庄市大字鳥越","voronoi":{"type":"Feature","geometry":{"type":"Polygon","coordinates":[[[140.338914,38.706564],[140.267735,38.706695],[140.279194,38.734175],[140.349647,38.751642],[140.338914,38.706564]]]},"properties":{}},"extra":false},
    {"code":1120201,"id":"aedfc6","name":"新庄","original_name":"新庄","name_kana":"しんじょう","closed":false,"lat":38.76256,"lng":140.306064,"prefecture":6,"lines":[11202,11216,11220,11221],"attr":"eco","postal_code":"996-0024","address":"新庄市多門町","voronoi":{"type":"Feature","geometry":{"type":"Polygon","coordinates":[[[140.349647,38.751642],[140.351771,38.754053],[140.363867,38.775143],[140.364351,38.78261],[140.269289,38.790291],[140.279194,38.734175],[140.349647,38.751642]]]},"properties":{}},"extra":false}
  ],
  "extra":false
}