{
  "code":11222,
  "id":"8ad2ff",
  "name":"JR仙石線",
  "name_kana":"じぇいあーるせんせきせん",
  "station_size":32,
  "company_code":2,
  "closed":false,
  "color":"#00AAEE",
  "station_list":[
    {"code":1122201,"id":"73f4d2","name":"あおば通","original_name":"あおば通","name_kana":"あおばどおり","closed":false,"lat":38.260749,"lng":140.878514,"prefecture":4,"lines":[11222],"attr":"eco","postal_code":"980-0021","address":"仙台市青葉区中央３丁目２番１号","voronoi":{"type":"Feature","geometry":{"type":"Polygon","coordinates":[[[140.876211,38.255306],[140.880867,38.26307],[140.881781,38.267681],[140.875446,38.25976],[140.876174,38.255295],[140.876211,38.255306]]]},"properties":{}}},
    {"code":100411,"id":"2c0bce","name":"仙台(JR)","original_name":"仙台","name_kana":"せんだい","closed":false,"lat":38.260027,"lng":140.882158,"prefecture":4,"lines":[1004,11231,11217,11222,11230,11232],"attr":"eco","postal_code":"980-0021","address":"仙台市青葉区中央一丁目1-1","voronoi":{"type":"Feature","geometry":{"type":"Polygon","coordinates":[[[140.882448,38.255823],[140.881268,38.255989],[140.880867,38.26307],[140.881781,38.267681],[140.882473,38.26919],[140.887929,38.267714],[140.882448,38.255823]]]},"properties":{}}},
    {"code":1122203,"id":"d63fde","name":"榴ヶ岡","original_name":"榴ヶ岡","name_kana":"つつじがおか","closed":false,"lat":38.258792,"lng":140.893782,"prefecture":4,"lines":[11222],"attr":"eco","postal_code":"983-0852","address":"仙台市宮城野区榴岡五丁目11-1","voronoi":{"type":"Feature","geometry":{"type":"Polygon","coordinates":[[[140.897255,38.270648],[140.889283,38.267643],[140.889997,38.255275],[140.900049,38.254325],[140.900511,38.254943],[140.897255,38.270648]]]},"properties":{}}},
    {"code":1122204,"id":"044341","name":"宮城野原","original_name":"宮城野原","name_kana":"みやぎのはら","closed":false,"lat":38.26115,"lng":140.905155,"prefecture":4,"lines":[11222],"attr":"eco","postal_code":"983-0045","address":"仙台市宮城野区宮城野２丁目","voronoi":{"type":"Feature","geometry":{"type":"Polygon","coordinates":[[[140.897255,38.270648],[140.899429,38.273123],[140.913539,38.257227],[140.912759,38.255955],[140.900511,38.254943],[140.897255,38.270648]]]},"properties":{}}},
    {"code":1122205,"id":"b10b30","name":"陸前原ノ町","original_name":"陸前原ノ町","name_kana":"りくぜんはらのまち","closed":false,"lat":38.266017,"lng":140.910638,"prefecture":4,"lines":[11222],"attr":"eco","postal_code":"983-0842","address":"仙台市宮城野区五輪２","voronoi":{"type":"Feature","geometry":{"type":"Polygon","coordinates":[[[140.903627,38.282014],[140.899429,38.273123],[140.913539,38.257227],[140.917232,38.259826],[140.912638,38.273801],[140.903627,38.282014]]]},"properties":{}}},
    {"code":1122206,"id":"2a36fa","name":"苦竹","original_name":"苦竹","name_kana":"にがたけ","closed":false,"lat":38.268722,"lng":140.918867,"prefecture":4,"lines":[11222],"attr":"eco","postal_code":"983-0036","address":"仙台市宮城野区苦竹１丁目","voronoi":{"type":"Feature","geometry":{"type":"Polygon","coordinates":[[[140.92709,38.27132],[140.912638,38.273801],[140.917232,38.259826],[140.928567,38.261122],[140.929698,38.262185],[140.92709,38.27132]]]},"properties":{}}},
    {"code":1122207,"id":"b6b17b","name":"小鶴新田","original_name":"小鶴新田","name_kana":"こづるしんでん","closed":false,"lat":38.273455,"lng":140.935446,"prefecture":4,"lines":[11222],"attr":"eco","postal_code":"983-0036","address":"仙台市宮城野区原町苦竹字北谷地４７","voronoi":{"type":"Feature","geometry":{"type":"Polygon","coordinates":[[[140.929698,38.262185],[140.92709,38.27132],[140.932081,38.296202],[140.94604,38.286406],[140.94764,38.262273],[140.929698,38.262185]]]},"properties":{}}},
    {"code":1122208,"id":"910c1b","name":"福田町","original_name":"福田町","name_kana":"ふくだまち","closed":false,"lat":38.274967,"lng":140.958252,"prefecture":4,"lines":[11222],"attr":"eco","postal_code":"983-0023","address":"仙台市宮城野区福田町１","voronoi":{"type":"Feature","geometry":{"type":"Polygon","coordinates":[[[140.948447,38.26151],[140.960241,38.257733],[140.965366,38.289128],[140.94604,38.286406],[140.94764,38.262273],[140.948447,38.26151]]]},"properties":{}}},
    {"code":1122209,"id":"ea4799","name":"陸前高砂","original_name":"陸前高砂","name_kana":"りくぜんたかさご","closed":false,"lat":38.27344,"lng":140.967607,"prefecture":4,"lines":[11222],"attr":"eco","postal_code":"983-0005","address":"仙台市宮城野区福室前田","voronoi":{"type":"Feature","geometry":{"type":"Polygon","coordinates":[[[140.960241,38.257733],[140.965366,38.289128],[140.966383,38.289611],[140.972301,38.286994],[140.993824,38.235411],[140.960241,38.257733]]]},"properties":{}}},
    {"code":1122210,"id":"fe39ce","name":"中野栄","original_name":"中野栄","name_kana":"なかのさかえ","closed":false,"lat":38.280796,"lng":140.985236,"prefecture":4,"lines":[11222],"attr":"eco","postal_code":"983-0011","address":"仙台市宮城野区栄４","voronoi":{"type":"Feature","geometry":{"type":"Polygon","coordinates":[[[141.057953,38.170051],[140.993824,38.235411],[140.972301,38.286994],[140.987397,38.291868],[140.99378,38.289055],[141.057953,38.170051]]]},"properties":{}}},
    {"code":1122211,"id":"041564","name":"多賀城","original_name":"多賀城","name_kana":"たがじょう","closed":false,"lat":38.291656,"lng":141.005375,"prefecture":4,"lines":[11222],"attr":"eco","postal_code":"985-0873","address":"多賀城市中央２","voronoi":{"type":"Feature","geometry":{"type":"Polygon","coordinates":[[[140.99378,38.289055],[141.003977,38.301436],[141.007359,38.300646],[141.154417,38.201169],[141.222008,38.087954],[141.058914,38.168886],[141.057953,38.170051],[140.99378,38.289055]]]},"properties":{}}},
    {"code":1122212,"id":"ac55fb","name":"下馬","original_name":"下馬","name_kana":"げば","closed":false,"lat":38.305833,"lng":141.014965,"prefecture":4,"lines":[11222],"attr":"eco","postal_code":"985-0835","address":"多賀城市下馬２","voronoi":{"type":"Feature","geometry":{"type":"Polygon","coordinates":[[[141.150916,38.207747],[141.154417,38.201169],[141.007359,38.300646],[141.014101,38.310352],[141.060974,38.283841],[141.150916,38.207747]]]},"properties":{}}},
    {"code":1122213,"id":"d8dd51","name":"西塩釜","original_name":"西塩釜","name_kana":"にししおがま","closed":false,"lat":38.31194,"lng":141.018419,"prefecture":4,"lines":[11222],"attr":"eco","postal_code":"985-0024","address":"塩竈市錦町","voronoi":{"type":"Feature","geometry":{"type":"Polygon","coordinates":[[[141.051647,38.292905],[141.011176,38.321343],[141.014101,38.310352],[141.060974,38.283841],[141.051647,38.292905]]]},"properties":{}}},
    {"code":1122214,"id":"1870bd","name":"本塩釜","original_name":"本塩釜","name_kana":"ほんしおがま","closed":false,"lat":38.317715,"lng":141.022477,"prefecture":4,"lines":[11222],"attr":"eco","postal_code":"985-0002","address":"塩竈市海岸通","voronoi":{"type":"Feature","geometry":{"type":"Polygon","coordinates":[[[141.011176,38.321343],[141.005612,38.33018],[141.009389,38.342321],[141.051647,38.292905],[141.011176,38.321343]]]},"properties":{}}},
    {"code":1122215,"id":"f96400","name":"東塩釜","original_name":"東塩釜","name_kana":"ひがししおがま","closed":false,"lat":38.325572,"lng":141.031665,"prefecture":4,"lines":[11222],"attr":"eco","postal_code":"985-0004","address":"塩竈市藤倉３","voronoi":{"type":"Feature","geometry":{"type":"Polygon","coordinates":[[[141.116226,38.287143],[141.150916,38.207747],[141.060974,38.283841],[141.051647,38.292905],[141.009389,38.342321],[141.009942,38.348968],[141.100334,38.312513],[141.103394,38.310599],[141.116226,38.287143]]]},"properties":{}}},
    {"code":1122216,"id":"0a546c","name":"陸前浜田","original_name":"陸前浜田","name_kana":"りくぜんはまだ","closed":false,"lat":38.350747,"lng":141.041818,"prefecture":4,"lines":[11222],"attr":"heat","postal_code":"981-0100","address":"宮城郡利府町浜田","voronoi":{"type":"Feature","geometry":{"type":"Polygon","coordinates":[[[141.100334,38.312513],[141.013919,38.393694],[140.988628,38.406269],[141.009942,38.348968],[141.100334,38.312513]]]},"properties":{}}},
    {"code":1122217,"id":"6aff4a","name":"松島海岸","original_name":"松島海岸","name_kana":"まつしまかいがん","closed":false,"lat":38.368529,"lng":141.058523,"prefecture":4,"lines":[11222],"attr":"heat","postal_code":"981-0200","address":"宮城郡松島町浪打浜","voronoi":{"type":"Feature","geometry":{"type":"Polygon","coordinates":[[[141.100735,38.328481],[141.103394,38.310599],[141.100334,38.312513],[141.013919,38.393694],[141.042271,38.387327],[141.075799,38.365318],[141.091325,38.349011],[141.09718,38.338219],[141.100735,38.328481]]]},"properties":{}}},
    {"code":1122218,"id":"344444","name":"高城町","original_name":"高城町","name_kana":"たかぎまち","closed":false,"lat":38.382731,"lng":141.07344,"prefecture":4,"lines":[11222,11232],"attr":"heat","postal_code":"981-0215","address":"宮城郡松島町高城字元釜家","voronoi":{"type":"Feature","geometry":{"type":"Polygon","coordinates":[[[141.091325,38.349011],[141.075799,38.365318],[141.066895,38.38871],[141.080499,38.396553],[141.091325,38.349011]]]},"properties":{}}},
    {"code":1122219,"id":"905726","name":"手樽","original_name":"手樽","name_kana":"てたる","closed":false,"lat":38.38715,"lng":141.092846,"prefecture":4,"lines":[11222],"attr":"heat","postal_code":"981-0211","address":"宮城郡松島町手樽","voronoi":{"type":"Feature","geometry":{"type":"Polygon","coordinates":[[[141.101547,38.412618],[141.084964,38.408718],[141.080499,38.396553],[141.091325,38.349011],[141.09718,38.338219],[141.101547,38.412618]]]},"properties":{}}},
    {"code":1122220,"id":"af299c","name":"陸前富山","original_name":"陸前富山","name_kana":"りくぜんとみやま","closed":false,"lat":38.386307,"lng":141.107208,"prefecture":4,"lines":[11222],"attr":"heat","postal_code":"981-0211","address":"宮城郡松島町手樽早川","voronoi":{"type":"Feature","geometry":{"type":"Polygon","coordinates":[[[141.100735,38.328481],[141.09718,38.338219],[141.101547,38.412618],[141.133799,38.430301],[141.100735,38.328481]]]},"properties":{}}},
    {"code":1122221,"id":"c40e01","name":"陸前大塚","original_name":"陸前大塚","name_kana":"りくぜんおおつか","closed":false,"lat":38.379078,"lng":141.12947,"prefecture":4,"lines":[11222],"attr":"heat","postal_code":"981-0414","address":"東松島市大塚","voronoi":{"type":"Feature","geometry":{"type":"Polygon","coordinates":[[[141.13527,38.431621],[141.133799,38.430301],[141.100735,38.328481],[141.103394,38.310599],[141.116226,38.287143],[141.143317,38.401947],[141.143341,38.410242],[141.13527,38.431621]]]},"properties":{}}},
    {"code":1122222,"id":"3e6ae0","name":"東名","original_name":"東名","name_kana":"とうな","closed":false,"lat":38.3753,"lng":141.14548,"prefecture":4,"lines":[11222],"attr":"heat","postal_code":"981-0414","address":"東松島市大塚北林下","voronoi":{"type":"Feature","geometry":{"type":"Polygon","coordinates":[[[141.116226,38.287143],[141.150916,38.207747],[141.154417,38.201169],[141.222008,38.087954],[141.252853,38.059871],[141.143317,38.401947],[141.116226,38.287143]]]},"properties":{}}},
    {"code":1122223,"id":"684572","name":"野蒜","original_name":"野蒜","name_kana":"のびる","closed":false,"lat":38.379,"lng":141.157035,"prefecture":4,"lines":[11222,11232],"attr":"heat","postal_code":"981-0411","address":"東松島市野蒜","voronoi":{"type":"Feature","geometry":{"type":"Polygon","coordinates":[[[141.207652,38.344827],[141.295387,38.225617],[141.341874,37.989977],[141.312434,38.003608],[141.252853,38.059871],[141.143317,38.401947],[141.143341,38.410242],[141.207652,38.344827]]]},"properties":{}}},
    {"code":1122224,"id":"1bda10","name":"陸前小野","original_name":"陸前小野","name_kana":"りくぜんおの","closed":false,"lat":38.396018,"lng":141.174345,"prefecture":4,"lines":[11222,11232],"attr":"cool","postal_code":"981-0301","address":"東松島市牛網上江戸原","voronoi":{"type":"Feature","geometry":{"type":"Polygon","coordinates":[[[141.15649,38.455101],[141.207652,38.344827],[141.143341,38.410242],[141.13527,38.431621],[141.137053,38.436234],[141.15649,38.455101]]]},"properties":{}}},
    {"code":1122225,"id":"619072","name":"鹿妻","original_name":"鹿妻","name_kana":"かづま","closed":false,"lat":38.403315,"lng":141.190073,"prefecture":4,"lines":[11222],"attr":"cool","postal_code":"981-0500","address":"東松島市矢本","voronoi":{"type":"Feature","geometry":{"type":"Polygon","coordinates":[[[141.295387,38.225617],[141.207652,38.344827],[141.15649,38.455101],[141.158497,38.45769],[141.254688,38.350495],[141.268135,38.327963],[141.27932,38.304303],[141.292234,38.258601],[141.295387,38.225617]]]},"properties":{}}},
    {"code":1122226,"id":"55665f","name":"矢本","original_name":"矢本","name_kana":"やもと","closed":false,"lat":38.420432,"lng":141.209148,"prefecture":4,"lines":[11222,11232],"attr":"cool","postal_code":"981-0503","address":"東松島市矢本河戸","voronoi":{"type":"Feature","geometry":{"type":"Polygon","coordinates":[[[141.192097,38.464753],[141.159367,38.459472],[141.158497,38.45769],[141.254688,38.350495],[141.246023,38.371949],[141.192097,38.464753]]]},"properties":{}}},
    {"code":1122227,"id":"9a8a42","name":"東矢本","original_name":"東矢本","name_kana":"ひがしやもと","closed":false,"lat":38.427993,"lng":141.22216,"prefecture":4,"lines":[11222],"attr":"cool","postal_code":"981-0503","address":"東松島市矢本下浦","voronoi":{"type":"Feature","geometry":{"type":"Polygon","coordinates":[[[141.246023,38.371949],[141.192097,38.464753],[141.205739,38.46926],[141.221158,38.465412],[141.246023,38.371949]]]},"properties":{}}},
    {"code":1122228,"id":"e75857","name":"陸前赤井","original_name":"陸前赤井","name_kana":"りくぜんあかい","closed":false,"lat":38.432442,"lng":141.238883,"prefecture":4,"lines":[11222,11232],"attr":"cool","postal_code":"981-0501","address":"東松島市赤井字川前","voronoi":{"type":"Feature","geometry":{"type":"Polygon","coordinates":[[[141.243653,38.465158],[141.221158,38.465412],[141.246023,38.371949],[141.254688,38.350495],[141.268135,38.327963],[141.243653,38.465158]]]},"properties":{}}},
    {"code":1122232,"id":"1f877f","name":"石巻あゆみ野","original_name":"石巻あゆみ野","name_kana":"いしのまきあゆみの","closed":false,"lat":38.436111,"lng":141.259444,"prefecture":4,"lines":[11222],"attr":"cool","postal_code":"986-0853","address":"石巻市門脇","open_date":"2016-03-26","voronoi":{"type":"Feature","geometry":{"type":"Polygon","coordinates":[[[141.27932,38.304303],[141.279804,38.3335],[141.279143,38.345609],[141.266112,38.458213],[141.255217,38.46857],[141.254847,38.468745],[141.243653,38.465158],[141.268135,38.327963],[141.27932,38.304303]]]},"properties":{}}},
    {"code":1122229,"id":"d68ce7","name":"蛇田","original_name":"蛇田","name_kana":"へびた","closed":false,"lat":38.438218,"lng":141.277652,"prefecture":4,"lines":[11222,11232],"attr":"cool","postal_code":"986-0861","address":"石巻市蛇田字下谷地","voronoi":{"type":"Feature","geometry":{"type":"Polygon","coordinates":[[[141.266112,38.458213],[141.279143,38.345609],[141.283872,38.451694],[141.266112,38.458213]]]},"properties":{}}},
    {"code":1122230,"id":"bcf34b","name":"陸前山下","original_name":"陸前山下","name_kana":"りくぜんやました","closed":false,"lat":38.437718,"lng":141.288868,"prefecture":4,"lines":[11222,11232],"attr":"cool","postal_code":"986-0877","address":"石巻市錦町","voronoi":{"type":"Feature","geometry":{"type":"Polygon","coordinates":[[[141.298707,38.452229],[141.279804,38.3335],[141.279143,38.345609],[141.283872,38.451694],[141.298707,38.452229]]]},"properties":{}}},
    {"code":1122231,"id":"c80a8d","name":"石巻","original_name":"石巻","name_kana":"いしのまき","closed":false,"lat":38.43538,"lng":141.303553,"prefecture":4,"lines":[11222,11223,11232],"attr":"cool","postal_code":"986-0826","address":"石巻市鋳銭場","voronoi":{"type":"Feature","geometry":{"type":"Polygon","coordinates":[[[141.292234,38.258601],[141.27932,38.304303],[141.279804,38.3335],[141.298707,38.452229],[141.313028,38.459576],[141.329524,38.40838],[141.292234,38.258601]]]},"properties":{}}}
  ],
  "extra":false
}