{
  "code":11226,
  "id":"bf4f66",
  "name":"JR磐越西線(森と水とロマンの鉄道)",
  "name_kana":"じぇいあーるばんえつさいせん(もりとみずとろまんのてつどう)",
  "station_size":28,
  "company_code":2,
  "closed":false,
  "color":"#CB7B35",
  "station_list":[
    {"code":1122515,"id":"97ca27","name":"会津若松","original_name":"会津若松","name_kana":"あいづわかまつ","closed":false,"lat":37.508824,"lng":139.930159,"prefecture":7,"lines":[11225,11226,11227],"attr":"heat","postal_code":"965-0041","address":"会津若松市駅前町","voronoi":{"type":"Feature","geometry":{"type":"Polygon","coordinates":[[[140.016835,37.461241],[140.019482,37.453789],[140.018156,37.453764],[139.957078,37.472938],[139.936599,37.487304],[139.909496,37.527176],[139.916998,37.530192],[139.967008,37.526252],[140.016835,37.461241]]]},"properties":{}},"impl":true},
    {"code":1122602,"id":"effbc1","name":"堂島","original_name":"堂島","name_kana":"どうじま","closed":false,"lat":37.554723,"lng":139.911706,"prefecture":7,"lines":[11226],"attr":"heat","postal_code":"969-3481","address":"会津若松市河東町郡山","voronoi":{"type":"Feature","geometry":{"type":"Polygon","coordinates":[[[139.923601,37.580416],[139.870128,37.544493],[139.874296,37.526654],[139.876103,37.52265],[139.909496,37.527176],[139.916998,37.530192],[139.927031,37.569746],[139.923601,37.580416]]]},"properties":{}},"impl":true},
    {"code":1122603,"id":"a79b03","name":"笈川","original_name":"笈川","name_kana":"おいかわ","closed":false,"lat":37.579117,"lng":139.895318,"prefecture":7,"lines":[11226],"attr":"heat","postal_code":"969-3500","address":"河沼郡湯川村字松川","voronoi":{"type":"Feature","geometry":{"type":"Polygon","coordinates":[[[139.93019,37.607975],[139.858273,37.568368],[139.861544,37.5576],[139.870128,37.544493],[139.923601,37.580416],[139.93019,37.607975]]]},"properties":{}},"impl":true},
    {"code":1122604,"id":"c072ec","name":"塩川","original_name":"塩川","name_kana":"しおかわ","closed":false,"lat":37.59393,"lng":139.88716,"prefecture":7,"lines":[11226],"attr":"heat","postal_code":"969-3523","address":"喜多方市塩川町石橋","voronoi":{"type":"Feature","geometry":{"type":"Polygon","coordinates":[[[139.843903,37.593704],[139.858273,37.568368],[139.93019,37.607975],[139.935262,37.619255],[139.843903,37.593704]]]},"properties":{}},"impl":true},
    {"code":1122605,"id":"8e5567","name":"姥堂","original_name":"姥堂","name_kana":"うばどう","closed":false,"lat":37.615952,"lng":139.881001,"prefecture":7,"lines":[11226],"attr":"heat","postal_code":"969-3531","address":"喜多方市塩川町新井田谷地","voronoi":{"type":"Feature","geometry":{"type":"Polygon","coordinates":[[[139.935262,37.619255],[139.952255,37.642344],[139.845442,37.616692],[139.828597,37.609072],[139.843903,37.593704],[139.935262,37.619255]]]},"properties":{}},"impl":true},
    {"code":1122606,"id":"15016f","name":"会津豊川","original_name":"会津豊川","name_kana":"あいづとよかわ","closed":false,"lat":37.633499,"lng":139.876787,"prefecture":7,"lines":[11226],"attr":"heat","postal_code":"966-0912","address":"喜多方市豊川町一井字三百刈","voronoi":{"type":"Feature","geometry":{"type":"Polygon","coordinates":[[[139.952255,37.642344],[139.845442,37.616692],[139.889425,37.652354],[139.976342,37.668018],[139.952255,37.642344]]]},"properties":{}},"impl":true},
    {"code":1122607,"id":"2532c3","name":"喜多方","original_name":"喜多方","name_kana":"きたかた","closed":false,"lat":37.643886,"lng":139.868365,"prefecture":7,"lines":[11226,10212],"attr":"heat","postal_code":"966-0846","address":"喜多方市字町田下","voronoi":{"type":"Feature","geometry":{"type":"Polygon","coordinates":[[[139.828597,37.609072],[139.845442,37.616692],[139.889425,37.652354],[139.82909,37.659672],[139.816676,37.658456],[139.81863,37.615744],[139.820907,37.613204],[139.828597,37.609072]]]},"properties":{}},"impl":true},
    {"code":1122608,"id":"c331ff","name":"山都","original_name":"山都","name_kana":"やまと","closed":false,"lat":37.639228,"lng":139.766534,"prefecture":7,"lines":[11226],"attr":"eco","postal_code":"969-4131","address":"喜多方市山都町広野字西原","voronoi":{"type":"Feature","geometry":{"type":"Polygon","coordinates":[[[139.816676,37.658456],[139.81863,37.615744],[139.758351,37.599602],[139.696981,37.725707],[139.710268,37.804359],[139.808191,37.677555],[139.816676,37.658456]]]},"properties":{}},"impl":true},
    {"code":1122609,"id":"cdc2a2","name":"荻野","original_name":"荻野","name_kana":"おぎの","closed":false,"lat":37.617613,"lng":139.722119,"prefecture":7,"lines":[11226],"attr":"eco","postal_code":"969-4301","address":"喜多方市高郷町上郷字馬場頭","voronoi":{"type":"Feature","geometry":{"type":"Polygon","coordinates":[[[139.696981,37.725707],[139.68417,37.694698],[139.684124,37.694154],[139.71675,37.578005],[139.726038,37.578205],[139.753177,37.592833],[139.758351,37.599602],[139.696981,37.725707]]]},"properties":{}},"impl":true},
    {"code":1122610,"id":"665e46","name":"尾登","original_name":"尾登","name_kana":"おのぼり","closed":false,"lat":37.609024,"lng":139.691542,"prefecture":7,"lines":[11226],"attr":"eco","postal_code":"969-4401","address":"耶麻郡西会津町登世島","voronoi":{"type":"Feature","geometry":{"type":"Polygon","coordinates":[[[139.662196,37.615196],[139.682612,37.562345],[139.71675,37.578005],[139.684124,37.694154],[139.662196,37.615196]]]},"properties":{}},"impl":true},
    {"code":1122611,"id":"4b876a","name":"野沢","original_name":"野沢","name_kana":"のざわ","closed":false,"lat":37.590898,"lng":139.64462,"prefecture":7,"lines":[11226],"attr":"cool","postal_code":"969-4406","address":"耶麻郡西会津町野沢","voronoi":{"type":"Feature","geometry":{"type":"Polygon","coordinates":[[[139.548222,37.579308],[139.662196,37.615196],[139.682612,37.562345],[139.676313,37.552795],[139.663947,37.541963],[139.641695,37.534168],[139.618643,37.530623],[139.601563,37.537828],[139.548222,37.579308]]]},"properties":{}},"impl":true},
    {"code":1122612,"id":"521e44","name":"上野尻","original_name":"上野尻","name_kana":"かみのじり","closed":false,"lat":37.625041,"lng":139.633869,"prefecture":7,"lines":[11226],"attr":"cool","postal_code":"969-4512","address":"耶麻郡西会津町上野尻","voronoi":{"type":"Feature","geometry":{"type":"Polygon","coordinates":[[[139.68417,37.694698],[139.54876,37.594391],[139.53886,37.58413],[139.548222,37.579308],[139.662196,37.615196],[139.684124,37.694154],[139.68417,37.694698]]]},"properties":{}},"impl":true},
    {"code":1122613,"id":"b2029b","name":"徳沢","original_name":"徳沢","name_kana":"とくさわ","closed":false,"lat":37.666876,"lng":139.602879,"prefecture":7,"lines":[11226],"attr":"cool","postal_code":"969-4511","address":"耶麻郡西会津町大字群岡字徳沢","voronoi":{"type":"Feature","geometry":{"type":"Polygon","coordinates":[[[139.696981,37.725707],[139.68417,37.694698],[139.54876,37.594391],[139.684957,37.858821],[139.686401,37.858601],[139.702658,37.850975],[139.710268,37.804359],[139.696981,37.725707]]]},"properties":{}},"impl":true},
    {"code":1122614,"id":"fc6e78","name":"豊実","original_name":"豊実","name_kana":"とよみ","closed":false,"lat":37.680541,"lng":139.576348,"prefecture":15,"lines":[11226],"attr":"cool","postal_code":"959-4304","address":"東蒲原郡阿賀町豊実","voronoi":{"type":"Feature","geometry":{"type":"Polygon","coordinates":[[[139.512083,37.586247],[139.519366,37.632837],[139.657283,37.865071],[139.684957,37.858821],[139.54876,37.594391],[139.53886,37.58413],[139.512083,37.586247]]]},"properties":{}},"impl":true},
    {"code":1122615,"id":"2420ca","name":"日出谷","original_name":"日出谷","name_kana":"ひでや","closed":false,"lat":37.705699,"lng":139.533985,"prefecture":15,"lines":[11226],"attr":"cool","postal_code":"959-4303","address":"東蒲原郡阿賀町日出谷","voronoi":{"type":"Feature","geometry":{"type":"Polygon","coordinates":[[[139.630605,37.87465],[139.494236,37.768767],[139.519366,37.632837],[139.657283,37.865071],[139.630605,37.87465]]]},"properties":{}},"impl":true},
    {"code":1122616,"id":"587766","name":"鹿瀬","original_name":"鹿瀬","name_kana":"かのせ","closed":false,"lat":37.695656,"lng":139.479663,"prefecture":15,"lines":[11226],"attr":"cool","postal_code":"959-4301","address":"東蒲原郡阿賀町向鹿瀬","voronoi":{"type":"Feature","geometry":{"type":"Polygon","coordinates":[[[139.494236,37.768767],[139.448731,37.75565],[139.48899,37.580722],[139.511641,37.586079],[139.512083,37.586247],[139.519366,37.632837],[139.494236,37.768767]]]},"properties":{}},"impl":true},
    {"code":1122617,"id":"46dc15","name":"津川","original_name":"津川","name_kana":"つがわ","closed":false,"lat":37.68817,"lng":139.447136,"prefecture":15,"lines":[11226],"attr":"cool","postal_code":"959-4400","address":"東蒲原郡阿賀町","voronoi":{"type":"Feature","geometry":{"type":"Polygon","coordinates":[[[139.369019,37.550913],[139.431788,37.755127],[139.448731,37.75565],[139.48899,37.580722],[139.430033,37.557346],[139.381447,37.54703],[139.369019,37.550913]]]},"properties":{}},"impl":true},
    {"code":1122618,"id":"88b924","name":"三川(新潟)","original_name":"三川","name_kana":"みかわ","closed":false,"lat":37.70835,"lng":139.381482,"prefecture":15,"lines":[11226],"attr":"cool","postal_code":"959-4400","address":"東蒲原郡阿賀町","voronoi":{"type":"Feature","geometry":{"type":"Polygon","coordinates":[[[139.387113,37.779113],[139.38572,37.779408],[139.324654,37.554633],[139.369019,37.550913],[139.431788,37.755127],[139.387113,37.779113]]]},"properties":{}},"impl":true},
    {"code":1122619,"id":"5afc2e","name":"五十島","original_name":"五十島","name_kana":"いがしま","closed":false,"lat":37.715974,"lng":139.353419,"prefecture":15,"lines":[11226],"attr":"cool","postal_code":"959-4614","address":"東蒲原郡阿賀町五十島","voronoi":{"type":"Feature","geometry":{"type":"Polygon","coordinates":[[[139.288041,37.554442],[139.279343,37.584847],[139.309536,37.683967],[139.375603,37.78386],[139.38572,37.779408],[139.324654,37.554633],[139.288041,37.554442]]]},"properties":{}},"impl":true},
    {"code":1122620,"id":"14da81","name":"東下条","original_name":"東下条","name_kana":"ひがしげじょう","closed":false,"lat":37.736876,"lng":139.321815,"prefecture":15,"lines":[11226],"attr":"cool","postal_code":"959-4634","address":"東蒲原郡阿賀町熊渡","voronoi":{"type":"Feature","geometry":{"type":"Polygon","coordinates":[[[139.30182,37.811122],[139.309536,37.683967],[139.375603,37.78386],[139.32757,37.822947],[139.313868,37.818514],[139.30182,37.811122]]]},"properties":{}},"impl":true},
    {"code":1122621,"id":"93acf6","name":"咲花","original_name":"咲花","name_kana":"さきはな","closed":false,"lat":37.735003,"lng":139.29095,"prefecture":15,"lines":[11226],"attr":"cool","postal_code":"959-1615","address":"五泉市大字佐取","voronoi":{"type":"Feature","geometry":{"type":"Polygon","coordinates":[[[139.309536,37.683967],[139.279343,37.584847],[139.275934,37.591129],[139.26601,37.621077],[139.281384,37.803712],[139.30182,37.811122],[139.309536,37.683967]]]},"properties":{}},"impl":true},
    {"code":1122622,"id":"12d390","name":"馬下","original_name":"馬下","name_kana":"まおろし","closed":false,"lat":37.737569,"lng":139.260466,"prefecture":15,"lines":[11226],"attr":"heat","postal_code":"959-1614","address":"五泉市大字馬下","voronoi":{"type":"Feature","geometry":{"type":"Polygon","coordinates":[[[139.275015,37.802909],[139.230952,37.783696],[139.264394,37.62441],[139.26601,37.621077],[139.281384,37.803712],[139.275015,37.802909]]]},"properties":{}},"impl":true},
    {"code":1122623,"id":"f1d9c1","name":"猿和田","original_name":"猿和田","name_kana":"さるわだ","closed":false,"lat":37.729594,"lng":139.222481,"prefecture":15,"lines":[11226],"attr":"heat","postal_code":"959-1643","address":"五泉市大字土堀","voronoi":{"type":"Feature","geometry":{"type":"Polygon","coordinates":[[[139.219387,37.78313],[139.230952,37.783696],[139.264394,37.62441],[139.201369,37.711995],[139.200299,37.724532],[139.204811,37.764847],[139.206921,37.771317],[139.212185,37.779517],[139.219387,37.78313]]]},"properties":{}},"impl":true},
    {"code":1122624,"id":"edc65a","name":"五泉","original_name":"五泉","name_kana":"ごせん","closed":false,"lat":37.734373,"lng":139.179785,"prefecture":15,"lines":[11226,99430],"attr":"heat","postal_code":"959-1823","address":"五泉市駅前１","voronoi":{"type":"Feature","geometry":{"type":"Polygon","coordinates":[[[139.165834,37.733359],[139.200299,37.724532],[139.204811,37.764847],[139.165834,37.733359]]]},"properties":{}},"impl":true},
    {"code":1122625,"id":"30439a","name":"北五泉","original_name":"北五泉","name_kana":"きたごせん","closed":false,"lat":37.746785,"lng":139.169758,"prefecture":15,"lines":[11226],"attr":"heat","postal_code":"959-1814","address":"五泉市北五泉駅前","voronoi":{"type":"Feature","geometry":{"type":"Polygon","coordinates":[[[139.131947,37.72075],[139.132467,37.739314],[139.136171,37.747248],[139.206921,37.771317],[139.204811,37.764847],[139.165834,37.733359],[139.131947,37.72075]]]},"properties":{}},"impl":true},
    {"code":1122626,"id":"bbefe8","name":"新関","original_name":"新関","name_kana":"しんせき","closed":false,"lat":37.768096,"lng":139.162508,"prefecture":15,"lines":[11226],"attr":"eco","postal_code":"956-0827","address":"新潟市秋葉区大関","voronoi":{"type":"Feature","geometry":{"type":"Polygon","coordinates":[[[139.16918,37.79325],[139.212185,37.779517],[139.206921,37.771317],[139.136171,37.747248],[139.137678,37.763042],[139.16918,37.79325]]]},"properties":{}},"impl":true},
    {"code":1122627,"id":"7710fa","name":"東新津","original_name":"東新津","name_kana":"ひがしにいつ","closed":false,"lat":37.787638,"lng":139.143768,"prefecture":15,"lines":[11226],"attr":"eco","postal_code":"956-0854","address":"新潟市秋葉区滝谷町","voronoi":{"type":"Feature","geometry":{"type":"Polygon","coordinates":[[[139.16918,37.79325],[139.137678,37.763042],[139.126987,37.784167],[139.14435,37.814579],[139.147663,37.818052],[139.16918,37.79325]]]},"properties":{}},"impl":true},
    {"code":1121401,"id":"6a2a43","name":"新津","original_name":"新津","name_kana":"にいつ","closed":false,"lat":37.800383,"lng":139.121445,"prefecture":15,"lines":[11214,11226,11404],"attr":"cool","postal_code":"956-0864","address":"新潟市秋葉区新津本町１丁目","voronoi":{"type":"Feature","geometry":{"type":"Polygon","coordinates":[[[139.084352,37.795245],[139.126987,37.784167],[139.14435,37.814579],[139.084352,37.795245]]]},"properties":{}},"impl":true}
  ],
  "impl":true
}