{
  "code":11324,
  "id":"baba65",
  "name":"JR外房線",
  "name_kana":"じぇいあーるそとぼうせん",
  "station_size":27,
  "company_code":2,
  "closed":false,
  "color":"#DB4028",
  "station_list":[
    {"code":1131339,"id":"76a5a4","name":"千葉","original_name":"千葉","name_kana":"ちば","closed":false,"lat":35.612927,"lng":140.113479,"prefecture":12,"lines":[11313,11314,11324,11325,11328,99331,99332],"attr":"cool","postal_code":"260-0031","address":"千葉市中央区新千葉１丁目","voronoi":{"type":"Feature","geometry":{"type":"Polygon","coordinates":[[[140.110337,35.619797],[140.110371,35.619833],[140.116102,35.616096],[140.11605,35.613583],[140.111211,35.610674],[140.110337,35.619797]]]},"properties":{}},"extra":false},
    {"code":1132402,"id":"f4e102","name":"本千葉","original_name":"本千葉","name_kana":"ほんちば","closed":false,"lat":35.601202,"lng":140.120987,"prefecture":12,"lines":[11324,11325],"attr":"cool","postal_code":"260-0854","address":"千葉市中央区長洲町１丁目","voronoi":{"type":"Feature","geometry":{"type":"Polygon","coordinates":[[[140.129708,35.598954],[140.11943,35.588339],[140.104324,35.580619],[140.113072,35.60101],[140.11866,35.603897],[140.129708,35.598954]]]},"properties":{}},"extra":false},
    {"code":1132403,"id":"e91541","name":"蘇我","original_name":"蘇我","name_kana":"そが","closed":false,"lat":35.582065,"lng":140.130767,"prefecture":12,"lines":[11324,11325,11326],"attr":"cool","postal_code":"260-0834","address":"千葉市中央区今井２丁目","voronoi":{"type":"Feature","geometry":{"type":"Polygon","coordinates":[[[140.091774,35.566971],[140.098046,35.565509],[140.14161,35.567416],[140.141791,35.567647],[140.139906,35.584691],[140.11943,35.588339],[140.104324,35.580619],[140.10237,35.578807],[140.091774,35.566971]]]},"properties":{}},"extra":false},
    {"code":1132404,"id":"67c53b","name":"鎌取","original_name":"鎌取","name_kana":"かまとり","closed":false,"lat":35.562795,"lng":140.178583,"prefecture":12,"lines":[11324],"attr":"cool","postal_code":"266-0011","address":"千葉市緑区鎌取町","voronoi":{"type":"Feature","geometry":{"type":"Polygon","coordinates":[[[140.17856,35.593395],[140.166632,35.577074],[140.168688,35.560017],[140.183395,35.545824],[140.191093,35.543606],[140.211018,35.587954],[140.17856,35.593395]]]},"properties":{}},"extra":false},
    {"code":1132405,"id":"f01c66","name":"誉田","original_name":"誉田","name_kana":"ほんだ","closed":false,"lat":35.546996,"lng":140.213748,"prefecture":12,"lines":[11324],"attr":"cool","postal_code":"266-0005","address":"千葉市緑区誉田町２丁目","voronoi":{"type":"Feature","geometry":{"type":"Polygon","coordinates":[[[140.191093,35.543606],[140.215522,35.46181],[140.220943,35.466595],[140.260655,35.604554],[140.211018,35.587954],[140.191093,35.543606]]]},"properties":{}},"extra":false},
    {"code":1132406,"id":"52f0f4","name":"土気","original_name":"土気","name_kana":"とけ","closed":false,"lat":35.530866,"lng":140.269783,"prefecture":12,"lines":[11324],"attr":"cool","postal_code":"267-0061","address":"千葉市緑区土気町","voronoi":{"type":"Feature","geometry":{"type":"Polygon","coordinates":[[[140.287602,35.512716],[140.277817,35.498118],[140.252054,35.47808],[140.220943,35.466595],[140.260655,35.604554],[140.264104,35.607617],[140.293414,35.597094],[140.299233,35.569672],[140.287602,35.512716]]]},"properties":{}},"extra":false},
    {"code":1132407,"id":"68b75a","name":"大網","original_name":"大網","name_kana":"おおあみ","closed":false,"lat":35.522427,"lng":140.311111,"prefecture":12,"lines":[11324,11331],"attr":"cool","postal_code":"299-3244","address":"千葉県大網白里市南玉21-7","voronoi":{"type":"Feature","geometry":{"type":"Polygon","coordinates":[[[140.287602,35.512716],[140.343036,35.512862],[140.299233,35.569672],[140.287602,35.512716]]]},"properties":{}},"extra":false},
    {"code":1132408,"id":"a7d08a","name":"永田(千葉)","original_name":"永田","name_kana":"ながた","closed":false,"lat":35.503129,"lng":140.311162,"prefecture":12,"lines":[11324],"attr":"cool","postal_code":"299-3233","address":"千葉県大網白里市永田1835","voronoi":{"type":"Feature","geometry":{"type":"Polygon","coordinates":[[[140.277817,35.498118],[140.287602,35.512716],[140.343036,35.512862],[140.371043,35.492859],[140.376676,35.481142],[140.277817,35.498118]]]},"properties":{}},"extra":false},
    {"code":1132409,"id":"0184cf","name":"本納","original_name":"本納","name_kana":"ほんのう","closed":false,"lat":35.48227,"lng":140.30758,"prefecture":12,"lines":[11324],"attr":"cool","postal_code":"299-4114","address":"茂原市本納","voronoi":{"type":"Feature","geometry":{"type":"Polygon","coordinates":[[[140.376676,35.481142],[140.277817,35.498118],[140.252054,35.47808],[140.350637,35.454782],[140.383252,35.470522],[140.379888,35.476466],[140.376676,35.481142]]]},"properties":{}},"extra":false},
    {"code":1132410,"id":"464124","name":"新茂原","original_name":"新茂原","name_kana":"しんもばら","closed":false,"lat":35.449477,"lng":140.29983,"prefecture":12,"lines":[11324],"attr":"cool","postal_code":"297-0073","address":"茂原市長尾","voronoi":{"type":"Feature","geometry":{"type":"Polygon","coordinates":[[[140.341406,35.445544],[140.350637,35.454782],[140.252054,35.47808],[140.220943,35.466595],[140.215522,35.46181],[140.213349,35.45848],[140.213082,35.45567],[140.213032,35.453775],[140.228003,35.424149],[140.341406,35.445544]]]},"properties":{}},"extra":false},
    {"code":1132411,"id":"eb4391","name":"茂原","original_name":"茂原","name_kana":"もばら","closed":false,"lat":35.426733,"lng":140.304121,"prefecture":12,"lines":[11324],"attr":"cool","postal_code":"297-0022","address":"茂原市町保","voronoi":{"type":"Feature","geometry":{"type":"Polygon","coordinates":[[[140.291388,35.35491],[140.288551,35.355372],[140.245032,35.371952],[140.228003,35.424149],[140.341406,35.445544],[140.291388,35.35491]]]},"properties":{}},"extra":false},
    {"code":1132412,"id":"5e4797","name":"八積","original_name":"八積","name_kana":"やつみ","closed":false,"lat":35.403971,"lng":140.345367,"prefecture":12,"lines":[11324],"attr":"cool","postal_code":"299-4336","address":"長生郡長生村岩沼","voronoi":{"type":"Feature","geometry":{"type":"Polygon","coordinates":[[[140.291388,35.35491],[140.341406,35.445544],[140.350637,35.454782],[140.383252,35.470522],[140.402181,35.461329],[140.423201,35.446287],[140.432753,35.438809],[140.297763,35.351505],[140.291388,35.35491]]]},"properties":{}},"extra":false},
    {"code":1132413,"id":"244b56","name":"上総一ノ宮","original_name":"上総一ノ宮","name_kana":"かずさいちのみや","closed":false,"lat":35.373401,"lng":140.365138,"prefecture":12,"lines":[11324],"attr":"cool","postal_code":"299-4301","address":"長生郡一宮町一宮","voronoi":{"type":"Feature","geometry":{"type":"Polygon","coordinates":[[[140.297763,35.351505],[140.301823,35.34772],[140.319727,35.337874],[140.48804,35.410767],[140.432753,35.438809],[140.297763,35.351505]]]},"properties":{}},"extra":false},
    {"code":1132414,"id":"07c6bc","name":"東浪見","original_name":"東浪見","name_kana":"とらみ","closed":false,"lat":35.34669,"lng":140.376706,"prefecture":12,"lines":[11324],"attr":"cool","postal_code":"299-4303","address":"長生郡一宮町東浪見","voronoi":{"type":"Feature","geometry":{"type":"Polygon","coordinates":[[[140.48804,35.410767],[140.319727,35.337874],[140.332717,35.325577],[140.597828,35.36996],[140.48804,35.410767]]]},"properties":{}},"extra":false},
    {"code":1132415,"id":"f1cd32","name":"太東","original_name":"太東","name_kana":"たいとう","closed":false,"lat":35.319942,"lng":140.381184,"prefecture":12,"lines":[11324],"attr":"heat","postal_code":"299-4501","address":"いすみ市岬町椎木","voronoi":{"type":"Feature","geometry":{"type":"Polygon","coordinates":[[[140.597828,35.36996],[140.332717,35.325577],[140.334105,35.323215],[140.350874,35.30276],[140.448248,35.318261],[140.615679,35.364539],[140.597828,35.36996]]]},"properties":{}},"extra":false},
    {"code":1132416,"id":"b32eb2","name":"長者町","original_name":"長者町","name_kana":"ちょうじゃまち","closed":false,"lat":35.295839,"lng":140.385021,"prefecture":12,"lines":[11324],"attr":"heat","postal_code":"299-4616","address":"いすみ市岬町長者","voronoi":{"type":"Feature","geometry":{"type":"Polygon","coordinates":[[[140.448248,35.318261],[140.350874,35.30276],[140.354284,35.292767],[140.363248,35.28173],[140.37027,35.280344],[140.448248,35.318261]]]},"properties":{}},"extra":false},
    {"code":1132417,"id":"e2ea4c","name":"三門","original_name":"三門","name_kana":"みかど","closed":false,"lat":35.282377,"lng":140.391567,"prefecture":12,"lines":[11324],"attr":"heat","postal_code":"298-0002","address":"いすみ市日在","voronoi":{"type":"Feature","geometry":{"type":"Polygon","coordinates":[[[140.392395,35.26671],[140.37027,35.280344],[140.448248,35.318261],[140.615679,35.364539],[140.766783,35.331841],[140.833971,35.256786],[140.392395,35.26671]]]},"properties":{}},"extra":false},
    {"code":1132418,"id":"193a21","name":"大原(千葉)","original_name":"大原","name_kana":"おおはら","closed":false,"lat":35.251097,"lng":140.390864,"prefecture":12,"lines":[11324,99308,11346],"attr":"heat","postal_code":"298-0004","address":"いすみ市大原","voronoi":{"type":"Feature","geometry":{"type":"Polygon","coordinates":[[[141.148041,34.929935],[140.374011,35.241366],[140.392395,35.26671],[140.833971,35.256786],[141.148041,34.929935]]]},"properties":{}},"extra":false},
    {"code":1132419,"id":"1b6797","name":"浪花","original_name":"浪花","name_kana":"なみはな","closed":false,"lat":35.222674,"lng":140.379428,"prefecture":12,"lines":[11324],"attr":"heat","postal_code":"298-0012","address":"いすみ市小沢","voronoi":{"type":"Feature","geometry":{"type":"Polygon","coordinates":[[[140.340943,35.224971],[140.359653,35.240833],[140.374011,35.241366],[141.148041,34.929935],[142.788269,33.285391],[140.340943,35.224971]]]},"properties":{}},"extra":false},
    {"code":1132420,"id":"0107c4","name":"御宿","original_name":"御宿","name_kana":"おんじゅく","closed":false,"lat":35.188028,"lng":140.35197,"prefecture":12,"lines":[11324],"attr":"eco","postal_code":"299-5106","address":"夷隅郡御宿町須賀","voronoi":{"type":"Feature","geometry":{"type":"LineString","coordinates":[[156.229661,20.0],[142.788269,33.285391],[140.340943,35.224971],[140.301391,35.221295],[140.301041,35.221152],[140.295408,35.211716],[153.780014,20.0]]},"properties":{}},"extra":false},
    {"code":1132421,"id":"b987a7","name":"勝浦","original_name":"勝浦","name_kana":"かつうら","closed":false,"lat":35.152722,"lng":140.312142,"prefecture":12,"lines":[11324],"attr":"eco","postal_code":"299-5225","address":"勝浦市墨名","voronoi":{"type":"Feature","geometry":{"type":"LineString","coordinates":[[153.780014,20.0],[140.295408,35.211716],[140.291842,35.209361],[140.277372,35.197548],[140.505351,34.551678],[141.048824,33.206028],[147.552665,20.0]]},"properties":{}},"extra":false},
    {"code":1132422,"id":"beb1bb","name":"鵜原","original_name":"鵜原","name_kana":"うばら","closed":false,"lat":35.140828,"lng":140.278446,"prefecture":12,"lines":[11324],"attr":"eco","postal_code":"299-5243","address":"勝浦市鵜原","voronoi":{"type":"Feature","geometry":{"type":"Polygon","coordinates":[[[140.271311,35.087013],[140.25774,35.190064],[140.277372,35.197548],[140.505351,34.551678],[140.271311,35.087013]]]},"properties":{}},"extra":false},
    {"code":1132423,"id":"55ffa5","name":"上総興津","original_name":"上総興津","name_kana":"かずさおきつ","closed":false,"lat":35.137146,"lng":140.250487,"prefecture":12,"lines":[11324],"attr":"eco","postal_code":"299-5245","address":"勝浦市興津","voronoi":{"type":"Feature","geometry":{"type":"Polygon","coordinates":[[[140.212904,35.185697],[140.25774,35.190064],[140.271311,35.087013],[140.217345,35.154448],[140.212904,35.185697]]]},"properties":{}},"extra":false},
    {"code":1132424,"id":"a22a91","name":"行川アイランド","original_name":"行川アイランド","name_kana":"なめがわあいらんど","closed":false,"lat":35.11832,"lng":140.226962,"prefecture":12,"lines":[11324],"attr":"eco","postal_code":"299-5255","address":"勝浦市浜行川","voronoi":{"type":"Feature","geometry":{"type":"Polygon","coordinates":[[[140.181869,35.02802],[140.269831,34.716254],[140.282,34.68007],[141.048824,33.206028],[140.505351,34.551678],[140.271311,35.087013],[140.217345,35.154448],[140.181869,35.02802]]]},"properties":{}},"extra":false},
    {"code":1132425,"id":"f39219","name":"安房小湊","original_name":"安房小湊","name_kana":"あわこみなと","closed":false,"lat":35.128597,"lng":140.190337,"prefecture":12,"lines":[11324],"attr":"eco","postal_code":"299-5502","address":"鴨川市内浦","voronoi":{"type":"Feature","geometry":{"type":"Polygon","coordinates":[[[140.181869,35.02802],[140.180866,35.030023],[140.166798,35.191465],[140.206809,35.188423],[140.212904,35.185697],[140.217345,35.154448],[140.181869,35.02802]]]},"properties":{}},"extra":false},
    {"code":1132426,"id":"f4a5c3","name":"安房天津","original_name":"安房天津","name_kana":"あわあまつ","closed":false,"lat":35.125473,"lng":140.154487,"prefecture":12,"lines":[11324],"attr":"eco","postal_code":"299-5503","address":"鴨川市天津","voronoi":{"type":"Feature","geometry":{"type":"Polygon","coordinates":[[[140.140901,35.082893],[140.109473,35.17176],[140.149929,35.196184],[140.154162,35.196037],[140.166798,35.191465],[140.180866,35.030023],[140.140901,35.082893]]]},"properties":{}},"extra":false},
    {"code":1132427,"id":"60cbc8","name":"安房鴨川","original_name":"安房鴨川","name_kana":"あわかもがわ","closed":false,"lat":35.107465,"lng":140.103566,"prefecture":12,"lines":[11324,11325],"attr":"eco","postal_code":"296-0001","address":"鴨川市横渚","voronoi":{"type":"Feature","geometry":{"type":"Polygon","coordinates":[[[140.140901,35.082893],[140.109473,35.17176],[140.003192,35.159849],[140.060591,35.105529],[140.140901,35.082893]]]},"properties":{}},"extra":false}
  ],
  "extra":false
}