{
  "code":11402,
  "id":"b3c630",
  "name":"JR身延線",
  "name_kana":"じぇいあーるみのぶせん",
  "station_size":39,
  "company_code":3,
  "closed":false,
  "station_list":[
    {"code":1140201,"id":"056f2a","name":"富士","original_name":"富士","name_kana":"ふじ","closed":false,"lat":35.151497,"lng":138.651225,"prefecture":22,"numbering":["CC00"],"lines":[11402,11501],"attr":"cool","postal_code":"416-0914","address":"富士市本町１丁目","voronoi":{"type":"Feature","geometry":{"type":"Polygon","coordinates":[[[138.637342,35.138619],[138.647675,35.159503],[138.668098,35.166087],[138.669127,35.161833],[138.641234,35.126372],[138.637342,35.138619]]]},"properties":{}}},
    {"code":1140202,"id":"3e8a64","name":"柚木(JR)","original_name":"柚木","name_kana":"ゆのき","closed":false,"lat":35.157468,"lng":138.639157,"prefecture":22,"numbering":["CC01"],"lines":[11402],"attr":"cool","postal_code":"416-0908","address":"静岡県富士市柚木213","voronoi":{"type":"Feature","geometry":{"type":"Polygon","coordinates":[[[138.615726,35.179756],[138.612597,35.179524],[138.608806,35.174549],[138.637342,35.138619],[138.647675,35.159503],[138.615726,35.179756]]]},"properties":{}}},
    {"code":1140203,"id":"e229e4","name":"竪堀","original_name":"竪堀","name_kana":"たてぼり","closed":false,"lat":35.168075,"lng":138.645881,"prefecture":22,"numbering":["CC02"],"lines":[11402],"attr":"cool","postal_code":"416-0907","address":"富士市中島","voronoi":{"type":"Feature","geometry":{"type":"Polygon","coordinates":[[[138.647675,35.159503],[138.615726,35.179756],[138.618745,35.180589],[138.669768,35.176192],[138.668098,35.166087],[138.647675,35.159503]]]},"properties":{}}},
    {"code":1140204,"id":"934559","name":"入山瀬","original_name":"入山瀬","name_kana":"いりやませ","closed":false,"lat":35.188276,"lng":138.647622,"prefecture":22,"numbering":["CC03"],"lines":[11402],"attr":"cool","postal_code":"419-0202","address":"富士市久沢","voronoi":{"type":"Feature","geometry":{"type":"Polygon","coordinates":[[[138.618745,35.180589],[138.669768,35.176192],[138.679733,35.19149],[138.685527,35.201413],[138.699749,35.237862],[138.618745,35.180589]]]},"properties":{}}},
    {"code":1140205,"id":"1f48ad","name":"富士根","original_name":"富士根","name_kana":"ふじね","closed":false,"lat":35.205251,"lng":138.63562,"prefecture":22,"numbering":["CC04"],"lines":[11402],"attr":"cool","postal_code":"419-0205","address":"富士市天間","voronoi":{"type":"Feature","geometry":{"type":"Polygon","coordinates":[[[138.611242,35.191176],[138.612597,35.179524],[138.615726,35.179756],[138.618745,35.180589],[138.699749,35.237862],[138.742667,35.313342],[138.611242,35.191176]]]},"properties":{}}},
    {"code":1140206,"id":"86325e","name":"源道寺","original_name":"源道寺","name_kana":"げんどうじ","closed":false,"lat":35.214463,"lng":138.627057,"prefecture":22,"numbering":["CC05"],"lines":[11402],"attr":"cool","postal_code":"418-0034","address":"富士宮市黒田源道寺町","voronoi":{"type":"Feature","geometry":{"type":"Polygon","coordinates":[[[138.611242,35.191176],[138.609109,35.197182],[138.699283,35.354694],[138.729586,35.337584],[138.748592,35.325674],[138.743593,35.314825],[138.742667,35.313342],[138.611242,35.191176]]]},"properties":{}}},
    {"code":1140207,"id":"35637c","name":"富士宮","original_name":"富士宮","name_kana":"ふじのみや","closed":false,"lat":35.221409,"lng":138.614924,"prefecture":22,"numbering":["CC06"],"lines":[11402],"attr":"heat","postal_code":"418-0065","address":"富士宮市中央町","voronoi":{"type":"Feature","geometry":{"type":"Polygon","coordinates":[[[138.684488,35.363935],[138.699283,35.354694],[138.609109,35.197182],[138.602944,35.205718],[138.659341,35.377918],[138.684488,35.363935]]]},"properties":{}}},
    {"code":1140208,"id":"854d0f","name":"西富士宮","original_name":"西富士宮","name_kana":"にしふじのみや","closed":false,"lat":35.225456,"lng":138.602567,"prefecture":22,"numbering":["CC07"],"lines":[11402],"attr":"heat","postal_code":"418-0042","address":"富士宮市貴船町","voronoi":{"type":"Feature","geometry":{"type":"Polygon","coordinates":[[[138.637974,35.390944],[138.58533,35.356721],[138.578999,35.349756],[138.569862,35.229697],[138.571154,35.227922],[138.602944,35.205718],[138.659341,35.377918],[138.637974,35.390944]]]},"properties":{}}},
    {"code":1140209,"id":"0f0873","name":"沼久保","original_name":"沼久保","name_kana":"ぬまくぼ","closed":false,"lat":35.199278,"lng":138.584283,"prefecture":22,"lines":[11402],"attr":"heat","postal_code":"418-0036","address":"富士宮市沼久保","voronoi":{"type":"Feature","geometry":{"type":"Polygon","coordinates":[[[138.571154,35.227922],[138.578141,35.156738],[138.578582,35.15673],[138.608806,35.174549],[138.612597,35.179524],[138.611242,35.191176],[138.609109,35.197182],[138.602944,35.205718],[138.571154,35.227922]]]},"properties":{}}},
    {"code":1140210,"id":"e9c597","name":"芝川","original_name":"芝川","name_kana":"しばかわ","closed":false,"lat":35.197272,"lng":138.563845,"prefecture":22,"lines":[11402],"attr":"eco","postal_code":"419-0316","address":"静岡県富士宮市羽鮒1231","voronoi":{"type":"Feature","geometry":{"type":"Polygon","coordinates":[[[138.569862,35.229697],[138.571154,35.227922],[138.578141,35.156738],[138.54337,35.148843],[138.498803,35.153777],[138.526854,35.194763],[138.569862,35.229697]]]},"properties":{}}},
    {"code":1140211,"id":"13d476","name":"稲子","original_name":"稲子","name_kana":"いなこ","closed":false,"lat":35.230454,"lng":138.536892,"prefecture":22,"lines":[11402],"attr":"eco","postal_code":"419-0312","address":"静岡県富士宮市下稲子355","voronoi":{"type":"Feature","geometry":{"type":"Polygon","coordinates":[[[138.525768,35.270896],[138.539714,35.308565],[138.543422,35.315248],[138.555778,35.332404],[138.566726,35.341895],[138.578999,35.349756],[138.569862,35.229697],[138.526854,35.194763],[138.525768,35.270896]]]},"properties":{}}},
    {"code":1140212,"id":"221d42","name":"十島","original_name":"十島","name_kana":"とおしま","closed":false,"lat":35.230153,"lng":138.515802,"prefecture":19,"lines":[11402],"attr":"heat","postal_code":"409-2303","address":"南巨摩郡南部町十島","voronoi":{"type":"Feature","geometry":{"type":"Polygon","coordinates":[[[138.525768,35.270896],[138.433432,35.138431],[138.444971,35.138825],[138.498803,35.153777],[138.526854,35.194763],[138.525768,35.270896]]]},"properties":{}}},
    {"code":1140213,"id":"831a40","name":"井出","original_name":"井出","name_kana":"いで","closed":false,"lat":35.247449,"lng":138.490989,"prefecture":19,"lines":[11402],"attr":"heat","postal_code":"409-2304","address":"南巨摩郡南部町井出","voronoi":{"type":"Feature","geometry":{"type":"Polygon","coordinates":[[[138.366637,35.14869],[138.367112,35.145049],[138.381053,35.142258],[138.391594,35.140563],[138.421711,35.136574],[138.433432,35.138431],[138.525768,35.270896],[138.539714,35.308565],[138.366637,35.14869]]]},"properties":{}}},
    {"code":1140214,"id":"a2b43a","name":"寄畑","original_name":"寄畑","name_kana":"よりはた","closed":false,"lat":35.264832,"lng":138.474932,"prefecture":19,"lines":[11402],"attr":"heat","postal_code":"409-2305","address":"南巨摩郡南部町内船","voronoi":{"type":"Feature","geometry":{"type":"Polygon","coordinates":[[[138.543422,35.315248],[138.354393,35.207785],[138.366637,35.14869],[138.539714,35.308565],[138.543422,35.315248]]]},"properties":{}}},
    {"code":1140215,"id":"7da131","name":"内船","original_name":"内船","name_kana":"うつぶな","closed":false,"lat":35.282183,"lng":138.465068,"prefecture":19,"lines":[11402],"attr":"heat","postal_code":"409-2305","address":"南巨摩郡南部町内船","voronoi":{"type":"Feature","geometry":{"type":"Polygon","coordinates":[[[138.555778,35.332404],[138.3363,35.270895],[138.354393,35.207785],[138.543422,35.315248],[138.555778,35.332404]]]},"properties":{}}},
    {"code":1140216,"id":"ffc196","name":"甲斐大島","original_name":"甲斐大島","name_kana":"かいおおしま","closed":false,"lat":35.32817,"lng":138.45218,"prefecture":19,"lines":[11402],"attr":"heat","postal_code":"409-2415","address":"南巨摩郡身延町大島","voronoi":{"type":"Feature","geometry":{"type":"Polygon","coordinates":[[[138.555778,35.332404],[138.566726,35.341895],[138.297257,35.348715],[138.3363,35.270895],[138.555778,35.332404]]]},"properties":{}}},
    {"code":1140217,"id":"049e0d","name":"身延","original_name":"身延","name_kana":"みのぶ","closed":false,"lat":35.361397,"lng":138.453021,"prefecture":19,"lines":[11402],"attr":"heat","postal_code":"409-2412","address":"南巨摩郡身延町角打","voronoi":{"type":"Feature","geometry":{"type":"Polygon","coordinates":[[[138.555585,35.36566],[138.277874,35.378853],[138.297257,35.348715],[138.566726,35.341895],[138.578999,35.349756],[138.58533,35.356721],[138.555585,35.36566]]]},"properties":{}}},
    {"code":1140218,"id":"c9373e","name":"塩之沢","original_name":"塩之沢","name_kana":"しおのさわ","closed":false,"lat":35.379626,"lng":138.453887,"prefecture":19,"lines":[11402],"attr":"eco","postal_code":"409-2403","address":"南巨摩郡身延町帯金","voronoi":{"type":"Feature","geometry":{"type":"Polygon","coordinates":[[[138.555585,35.36566],[138.277874,35.378853],[138.239853,35.431727],[138.481152,35.395468],[138.555585,35.36566]]]},"properties":{}}},
    {"code":1140219,"id":"61188b","name":"波高島","original_name":"波高島","name_kana":"はだかじま","closed":false,"lat":35.418624,"lng":138.459747,"prefecture":19,"lines":[11402],"attr":"eco","postal_code":"409-2945","address":"南巨摩郡身延町波高島","voronoi":{"type":"Feature","geometry":{"type":"Polygon","coordinates":[[[138.239853,35.431727],[138.209466,35.466863],[138.392673,35.458659],[138.435312,35.453471],[138.45612,35.439764],[138.481152,35.395468],[138.239853,35.431727]]]},"properties":{}}},
    {"code":1140220,"id":"022cd9","name":"下部温泉","original_name":"下部温泉","name_kana":"しもべおんせん","closed":false,"lat":35.425751,"lng":138.472359,"prefecture":19,"lines":[11402],"attr":"eco","postal_code":"409-2936","address":"南巨摩郡身延町常葉","voronoi":{"type":"Feature","geometry":{"type":"Polygon","coordinates":[[[138.555585,35.36566],[138.481152,35.395468],[138.45612,35.439764],[138.636751,35.395945],[138.637974,35.390944],[138.58533,35.356721],[138.555585,35.36566]]]},"properties":{}}},
    {"code":1140221,"id":"e161a2","name":"甲斐常葉","original_name":"甲斐常葉","name_kana":"かいときわ","closed":false,"lat":35.444779,"lng":138.476975,"prefecture":19,"lines":[11402],"attr":"eco","postal_code":"409-2936","address":"南巨摩郡身延町常葉","voronoi":{"type":"Feature","geometry":{"type":"Polygon","coordinates":[[[138.45612,35.439764],[138.435312,35.453471],[138.458931,35.459645],[138.634569,35.407862],[138.636751,35.395945],[138.45612,35.439764]]]},"properties":{}}},
    {"code":1140222,"id":"15bfa3","name":"市ノ瀬","original_name":"市ノ瀬","name_kana":"いちのせ","closed":false,"lat":35.462345,"lng":138.482154,"prefecture":19,"lines":[11402],"attr":"eco","postal_code":"409-2938","address":"南巨摩郡身延町市之瀬","voronoi":{"type":"Feature","geometry":{"type":"Polygon","coordinates":[[[138.458931,35.459645],[138.495548,35.487955],[138.54094,35.499942],[138.568236,35.492061],[138.626641,35.471197],[138.634569,35.407862],[138.458931,35.459645]]]},"properties":{}}},
    {"code":1140223,"id":"2d6e1d","name":"久那土","original_name":"久那土","name_kana":"くなど","closed":false,"lat":35.48144,"lng":138.467391,"prefecture":19,"lines":[11402],"attr":"eco","postal_code":"409-3117","address":"南巨摩郡身延町三沢","voronoi":{"type":"Feature","geometry":{"type":"Polygon","coordinates":[[[138.495548,35.487955],[138.476292,35.491311],[138.392673,35.458659],[138.435312,35.453471],[138.458931,35.459645],[138.495548,35.487955]]]},"properties":{}}},
    {"code":1140224,"id":"1dc5f5","name":"甲斐岩間","original_name":"甲斐岩間","name_kana":"かいいわま","closed":false,"lat":35.492539,"lng":138.463057,"prefecture":19,"lines":[11402],"attr":"eco","postal_code":"409-3244","address":"西八代郡市川三郷町岩間","voronoi":{"type":"Feature","geometry":{"type":"Polygon","coordinates":[[[138.392673,35.458659],[138.209466,35.466863],[138.178638,35.493474],[138.190491,35.55665],[138.191978,35.561213],[138.434623,35.522165],[138.476292,35.491311],[138.392673,35.458659]]]},"properties":{}}},
    {"code":1140225,"id":"b8c1cd","name":"落居","original_name":"落居","name_kana":"おちい","closed":false,"lat":35.503612,"lng":138.471256,"prefecture":19,"lines":[11402],"attr":"cool","postal_code":"409-3231","address":"西八代郡市川三郷町落居","voronoi":{"type":"Feature","geometry":{"type":"Polygon","coordinates":[[[138.476292,35.491311],[138.434623,35.522165],[138.503998,35.52279],[138.518932,35.514738],[138.54094,35.499942],[138.495548,35.487955],[138.476292,35.491311]]]},"properties":{}}},
    {"code":1140226,"id":"87ad50","name":"鰍沢口","original_name":"鰍沢口","name_kana":"かじかざわぐち","closed":false,"lat":35.541375,"lng":138.470916,"prefecture":19,"lines":[11402],"attr":"cool","postal_code":"409-3603","address":"西八代郡市川三郷町黒沢","voronoi":{"type":"Feature","geometry":{"type":"Polygon","coordinates":[[[138.191978,35.561213],[138.196125,35.579215],[138.295776,35.60633],[138.42222,35.621021],[138.422291,35.621013],[138.498418,35.531781],[138.503998,35.52279],[138.434623,35.522165],[138.191978,35.561213]]]},"properties":{}}},
    {"code":1140227,"id":"a7f9c0","name":"市川大門","original_name":"市川大門","name_kana":"いちかわだいもん","closed":false,"lat":35.560451,"lng":138.493276,"prefecture":19,"lines":[11402],"attr":"cool","postal_code":"409-3603","address":"西八代郡市川三郷町黒沢","voronoi":{"type":"Feature","geometry":{"type":"Polygon","coordinates":[[[138.479669,35.607469],[138.496852,35.590606],[138.498418,35.531781],[138.422291,35.621013],[138.460603,35.622745],[138.479669,35.607469]]]},"properties":{}}},
    {"code":1140228,"id":"8a6f62","name":"市川本町","original_name":"市川本町","name_kana":"いちかわほんまち","closed":false,"lat":35.560684,"lng":138.502028,"prefecture":19,"lines":[11402],"attr":"cool","postal_code":"409-3603","address":"西八代郡市川三郷町黒沢","voronoi":{"type":"Feature","geometry":{"type":"Polygon","coordinates":[[[138.496852,35.590606],[138.498418,35.531781],[138.503998,35.52279],[138.518932,35.514738],[138.499683,35.588536],[138.496852,35.590606]]]},"properties":{}}},
    {"code":1140229,"id":"bb4a1d","name":"芦川","original_name":"芦川","name_kana":"あしがわ","closed":false,"lat":35.563087,"lng":138.511241,"prefecture":19,"lines":[11402],"attr":"cool","postal_code":"409-3612","address":"西八代郡市川三郷町上野","voronoi":{"type":"Feature","geometry":{"type":"Polygon","coordinates":[[[138.500476,35.588143],[138.499683,35.588536],[138.518932,35.514738],[138.54094,35.499942],[138.568236,35.492061],[138.500476,35.588143]]]},"properties":{}}},
    {"code":1140230,"id":"1b8c32","name":"甲斐上野","original_name":"甲斐上野","name_kana":"かいうえの","closed":false,"lat":35.569592,"lng":138.520465,"prefecture":19,"lines":[11402],"attr":"cool","postal_code":"409-3612","address":"西八代郡市川三郷町上野","voronoi":{"type":"Feature","geometry":{"type":"Polygon","coordinates":[[[138.500476,35.588143],[138.600185,35.5625],[138.639047,35.533826],[138.643117,35.528547],[138.626641,35.471197],[138.568236,35.492061],[138.500476,35.588143]]]},"properties":{}}},
    {"code":1140231,"id":"9fe752","name":"東花輪","original_name":"東花輪","name_kana":"ひがしはなわ","closed":false,"lat":35.594749,"lng":138.526935,"prefecture":19,"lines":[11402],"attr":"cool","postal_code":"409-3842","address":"中央市東花輪","voronoi":{"type":"Feature","geometry":{"type":"Polygon","coordinates":[[[138.479669,35.607469],[138.496852,35.590606],[138.499683,35.588536],[138.500476,35.588143],[138.600185,35.5625],[138.576981,35.586328],[138.567338,35.593106],[138.479669,35.607469]]]},"properties":{}}},
    {"code":1140232,"id":"12c7b0","name":"小井川","original_name":"小井川","name_kana":"こいかわ","closed":false,"lat":35.604442,"lng":138.528523,"prefecture":19,"lines":[11402],"attr":"cool","postal_code":"409-3823","address":"中央市上三條","voronoi":{"type":"Feature","geometry":{"type":"Polygon","coordinates":[[[138.558913,35.600714],[138.476457,35.629797],[138.474301,35.629488],[138.460603,35.622745],[138.479669,35.607469],[138.567338,35.593106],[138.558913,35.600714]]]},"properties":{}}},
    {"code":1140233,"id":"d2ff27","name":"常永","original_name":"常永","name_kana":"じょうえい","closed":false,"lat":35.616877,"lng":138.532909,"prefecture":19,"lines":[11402],"attr":"cool","postal_code":"409-3862","address":"中巨摩郡昭和町上河東","voronoi":{"type":"Feature","geometry":{"type":"Polygon","coordinates":[[[138.476457,35.629797],[138.528456,35.643438],[138.558913,35.600714],[138.476457,35.629797]]]},"properties":{}}},
    {"code":1140234,"id":"481c72","name":"国母","original_name":"国母","name_kana":"こくぼ","closed":false,"lat":35.630567,"lng":138.552113,"prefecture":19,"lines":[11402],"attr":"cool","postal_code":"409-3866","address":"中巨摩郡昭和町西条","voronoi":{"type":"Feature","geometry":{"type":"Polygon","coordinates":[[[138.576981,35.586328],[138.567338,35.593106],[138.558913,35.600714],[138.528456,35.643438],[138.543767,35.656591],[138.554973,35.6514],[138.576981,35.586328]]]},"properties":{}}},
    {"code":1140235,"id":"36dd8f","name":"甲斐住吉","original_name":"甲斐住吉","name_kana":"かいすみよし","closed":false,"lat":35.63658,"lng":138.569892,"prefecture":19,"lines":[11402],"attr":"cool","postal_code":"400-0851","address":"甲府市住吉２丁目","voronoi":{"type":"Feature","geometry":{"type":"Polygon","coordinates":[[[138.562729,35.651623],[138.554973,35.6514],[138.576981,35.586328],[138.600185,35.5625],[138.639047,35.533826],[138.620963,35.589465],[138.562729,35.651623]]]},"properties":{}}},
    {"code":1140236,"id":"0b8717","name":"南甲府","original_name":"南甲府","name_kana":"みなみこうふ","closed":false,"lat":35.643496,"lng":138.577274,"prefecture":19,"lines":[11402],"attr":"cool","postal_code":"400-0863","address":"甲府市南口町","voronoi":{"type":"Feature","geometry":{"type":"Polygon","coordinates":[[[138.562729,35.651623],[138.568577,35.653674],[138.582091,35.652543],[138.593476,35.644186],[138.614465,35.615863],[138.620963,35.589465],[138.562729,35.651623]]]},"properties":{}}},
    {"code":1140237,"id":"d3ce29","name":"善光寺","original_name":"善光寺","name_kana":"ぜんこうじ","closed":false,"lat":35.65985,"lng":138.589278,"prefecture":19,"lines":[11402],"attr":"cool","postal_code":"400-0801","address":"甲府市善光寺町","voronoi":{"type":"Feature","geometry":{"type":"Polygon","coordinates":[[[138.594809,35.707507],[138.582091,35.652543],[138.593476,35.644186],[138.596013,35.710892],[138.594809,35.707507]]]},"properties":{}}},
    {"code":1140238,"id":"3eba56","name":"金手","original_name":"金手","name_kana":"かねんて","closed":false,"lat":35.662264,"lng":138.578845,"prefecture":19,"lines":[11402],"attr":"cool","postal_code":"400-0861","address":"甲府市城東１丁目","voronoi":{"type":"Feature","geometry":{"type":"Polygon","coordinates":[[[138.594809,35.707507],[138.568577,35.653674],[138.582091,35.652543],[138.594809,35.707507]]]},"properties":{}}},
    {"code":1131131,"id":"7c4c92","name":"甲府","original_name":"甲府","name_kana":"こうふ","closed":false,"lat":35.667054,"lng":138.569015,"prefecture":19,"lines":[11311,11402],"attr":"eco","postal_code":"400-0031","address":"甲府市丸の内１丁目","voronoi":{"type":"Feature","geometry":{"type":"Polygon","coordinates":[[[138.607782,35.757295],[138.60322,35.82107],[138.602012,35.828759],[138.565426,35.823823],[138.547025,35.75131],[138.543767,35.656591],[138.554973,35.6514],[138.562729,35.651623],[138.568577,35.653674],[138.594809,35.707507],[138.596013,35.710892],[138.607782,35.757295]]]},"properties":{}}}
  ],
  "extra":false
}