{
  "code":11407,
  "id":"24151f",
  "name":"JR飯山線",
  "name_kana":"じぇいあーるいいやません",
  "station_size":31,
  "company_code":2,
  "closed":false,
  "color":"#9ACD32",
  "station_list":[
    {"code":1140701,"id":"31a555","name":"豊野","original_name":"豊野","name_kana":"とよの","closed":false,"lat":36.710642,"lng":138.274458,"prefecture":20,"lines":[11407,99427,11426],"attr":"eco","postal_code":"389-1105","address":"長野市豊野町豊野","voronoi":{"type":"Feature","geometry":{"type":"Polygon","coordinates":[[[138.292717,36.701852],[138.2719,36.73907],[138.242347,36.720105],[138.269191,36.686081],[138.273472,36.684618],[138.283191,36.685582],[138.289925,36.692709],[138.292717,36.701852]]]},"properties":{}}},
    {"code":1140702,"id":"b2f53c","name":"信濃浅野","original_name":"信濃浅野","name_kana":"しなのあさの","closed":false,"lat":36.722011,"lng":138.294784,"prefecture":20,"lines":[11407],"attr":"eco","postal_code":"389-1104","address":"長野市豊野町浅野","voronoi":{"type":"Feature","geometry":{"type":"Polygon","coordinates":[[[138.281041,36.753022],[138.2719,36.73907],[138.292717,36.701852],[138.309646,36.715052],[138.281041,36.753022]]]},"properties":{}}},
    {"code":1140703,"id":"d21fd6","name":"立ヶ花","original_name":"立ヶ花","name_kana":"たてがはな","closed":false,"lat":36.731257,"lng":138.307057,"prefecture":20,"lines":[11407],"attr":"eco","postal_code":"389-1103","address":"長野県長野市豊野町蟹沢","voronoi":{"type":"Feature","geometry":{"type":"Polygon","coordinates":[[[138.309886,36.715095],[138.330294,36.726398],[138.332722,36.731952],[138.283246,36.759036],[138.281041,36.753022],[138.309646,36.715052],[138.309886,36.715095]]]},"properties":{}}},
    {"code":1140704,"id":"1f853e","name":"上今井","original_name":"上今井","name_kana":"かみいまい","closed":false,"lat":36.753947,"lng":138.319478,"prefecture":20,"lines":[11407],"attr":"eco","postal_code":"389-2102","address":"中野市上今井","voronoi":{"type":"Feature","geometry":{"type":"Polygon","coordinates":[[[138.341954,36.74819],[138.341288,36.756319],[138.283125,36.771416],[138.283246,36.759036],[138.332722,36.731952],[138.338332,36.736048],[138.340058,36.738813],[138.341954,36.74819]]]},"properties":{}}},
    {"code":1140705,"id":"8b3942","name":"替佐","original_name":"替佐","name_kana":"かえさ","closed":false,"lat":36.768999,"lng":138.323385,"prefecture":20,"lines":[11407],"attr":"heat","postal_code":"389-2101","address":"中野市豊津","voronoi":{"type":"Feature","geometry":{"type":"Polygon","coordinates":[[[138.338953,36.785855],[138.343377,36.763566],[138.341288,36.756319],[138.283125,36.771416],[138.279277,36.790037],[138.286942,36.820613],[138.338106,36.787717],[138.338953,36.785855]]]},"properties":{}}},
    {"code":1140706,"id":"7f6558","name":"蓮","original_name":"蓮","name_kana":"はちす","closed":false,"lat":36.80888,"lng":138.349026,"prefecture":20,"lines":[11407],"attr":"heat","postal_code":"389-2256","address":"飯山市大字蓮","voronoi":{"type":"Feature","geometry":{"type":"Polygon","coordinates":[[[138.341317,36.789563],[138.359757,36.810044],[138.336078,36.831948],[138.283425,36.845756],[138.286942,36.820613],[138.338106,36.787717],[138.341317,36.789563]]]},"properties":{}}},
    {"code":100907,"id":"83b3a3","name":"飯山","original_name":"飯山","name_kana":"いいやま","closed":false,"lat":36.845694,"lng":138.35868,"prefecture":20,"lines":[1009,11407],"attr":"heat","postal_code":"389-2253","address":"飯山市大字飯山","voronoi":{"type":"Feature","geometry":{"type":"Polygon","coordinates":[[[138.358078,36.83319],[138.36576,36.850506],[138.289148,36.880162],[138.283085,36.846572],[138.283425,36.845756],[138.336078,36.831948],[138.358078,36.83319]]]},"properties":{}}},
    {"code":1140708,"id":"42da0e","name":"北飯山","original_name":"北飯山","name_kana":"きたいいやま","closed":false,"lat":36.85883,"lng":138.363765,"prefecture":20,"lines":[11407],"attr":"heat","postal_code":"389-2253","address":"飯山市大字飯山","voronoi":{"type":"Feature","geometry":{"type":"Polygon","coordinates":[[[138.370024,36.851313],[138.36576,36.850506],[138.289148,36.880162],[138.289649,36.885871],[138.302883,36.910362],[138.377973,36.86801],[138.370024,36.851313]]]},"properties":{}}},
    {"code":1140709,"id":"d1f8b5","name":"信濃平","original_name":"信濃平","name_kana":"しなのたいら","closed":false,"lat":36.884918,"lng":138.378479,"prefecture":20,"lines":[11407],"attr":"cool","postal_code":"389-2414","address":"飯山市大字常盤","voronoi":{"type":"Feature","geometry":{"type":"Polygon","coordinates":[[[138.377973,36.86801],[138.302883,36.910362],[138.31068,36.934995],[138.451318,36.870896],[138.377973,36.86801]]]},"properties":{}}},
    {"code":1140710,"id":"913c7b","name":"戸狩野沢温泉","original_name":"戸狩野沢温泉","name_kana":"とがりのざわおんせん","closed":false,"lat":36.916673,"lng":138.392952,"prefecture":20,"lines":[11407],"attr":"cool","postal_code":"389-2413","address":"飯山市大字照里","voronoi":{"type":"Feature","geometry":{"type":"Polygon","coordinates":[[[138.312356,36.952036],[138.31068,36.934995],[138.451318,36.870896],[138.451871,36.870785],[138.347029,37.000087],[138.317402,36.96312],[138.312356,36.952036]]]},"properties":{}}},
    {"code":1140711,"id":"ceacf7","name":"上境","original_name":"上境","name_kana":"かみさかい","closed":false,"lat":36.937916,"lng":138.419151,"prefecture":20,"lines":[11407],"attr":"cool","postal_code":"389-2602","address":"飯山市大字一山","voronoi":{"type":"Feature","geometry":{"type":"Polygon","coordinates":[[[138.523084,36.839006],[138.521631,36.839135],[138.451871,36.870785],[138.347029,37.000087],[138.356005,37.016614],[138.493345,36.893709],[138.51631,36.859349],[138.516955,36.858165],[138.523084,36.839006]]]},"properties":{}}},
    {"code":1140712,"id":"d60fc7","name":"上桑名川","original_name":"上桑名川","name_kana":"かみくわながわ","closed":false,"lat":36.962559,"lng":138.441204,"prefecture":20,"lines":[11407],"attr":"cool","postal_code":"389-2601","address":"飯山市大字照岡","voronoi":{"type":"Feature","geometry":{"type":"Polygon","coordinates":[[[138.369714,37.04889],[138.361166,37.031539],[138.356005,37.016614],[138.493345,36.893709],[138.47529,36.936827],[138.383277,37.052874],[138.369714,37.04889]]]},"properties":{}}},
    {"code":1140713,"id":"59b72f","name":"桑名川","original_name":"桑名川","name_kana":"くわながわ","closed":false,"lat":36.975882,"lng":138.458007,"prefecture":20,"lines":[11407],"attr":"cool","postal_code":"389-2601","address":"飯山市大字照岡","voronoi":{"type":"Feature","geometry":{"type":"Polygon","coordinates":[[[138.417581,37.062411],[138.456715,37.066039],[138.47529,36.936827],[138.383277,37.052874],[138.396671,37.058315],[138.417581,37.062411]]]},"properties":{}}},
    {"code":1140714,"id":"f2fc4c","name":"西大滝","original_name":"西大滝","name_kana":"にしおおたき","closed":false,"lat":36.979169,"lng":138.480872,"prefecture":20,"lines":[11407],"attr":"cool","postal_code":"389-2601","address":"飯山市大字照岡","voronoi":{"type":"Feature","geometry":{"type":"Polygon","coordinates":[[[138.51631,36.859349],[138.493345,36.893709],[138.47529,36.936827],[138.456715,37.066039],[138.465875,37.068096],[138.474942,37.066547],[138.51631,36.859349]]]},"properties":{}}},
    {"code":1140715,"id":"26a171","name":"信濃白鳥","original_name":"信濃白鳥","name_kana":"しなのしらとり","closed":false,"lat":36.983591,"lng":138.50302,"prefecture":20,"lines":[11407],"attr":"cool","postal_code":"389-2701","address":"下水内郡栄村大字豊栄","voronoi":{"type":"Feature","geometry":{"type":"Polygon","coordinates":[[[138.51631,36.859349],[138.474942,37.066547],[138.511968,37.065067],[138.522672,36.93092],[138.516955,36.858165],[138.51631,36.859349]]]},"properties":{}}},
    {"code":1140716,"id":"803423","name":"平滝","original_name":"平滝","name_kana":"ひらたき","closed":false,"lat":36.986041,"lng":138.533723,"prefecture":20,"lines":[11407],"attr":"cool","postal_code":"389-2701","address":"下水内郡栄村大字豊栄","voronoi":{"type":"Feature","geometry":{"type":"Polygon","coordinates":[[[138.549052,37.070636],[138.511968,37.065067],[138.522672,36.93092],[138.55349,37.013822],[138.549052,37.070636]]]},"properties":{}}},
    {"code":1140717,"id":"0ea390","name":"横倉(長野)","original_name":"横倉","name_kana":"よこくら","closed":false,"lat":36.979875,"lng":138.55031,"prefecture":20,"lines":[11407],"attr":"cool","postal_code":"389-2702","address":"下水内郡栄村大字北信","voronoi":{"type":"Feature","geometry":{"type":"Polygon","coordinates":[[[138.632253,36.791487],[138.55349,37.013822],[138.522672,36.93092],[138.516955,36.858165],[138.523084,36.839006],[138.535681,36.830585],[138.611344,36.787568],[138.632253,36.791487]]]},"properties":{}}},
    {"code":1140718,"id":"939255","name":"森宮野原","original_name":"森宮野原","name_kana":"もりみやのはら","closed":false,"lat":36.989447,"lng":138.57733,"prefecture":20,"lines":[11407],"attr":"cool","postal_code":"389-2702","address":"下水内郡栄村大字北信","voronoi":{"type":"Feature","geometry":{"type":"Polygon","coordinates":[[[138.632253,36.791487],[138.55349,37.013822],[138.549052,37.070636],[138.55213,37.07196],[138.563396,37.069076],[138.657632,36.80854],[138.654278,36.794042],[138.632253,36.791487]]]},"properties":{}}},
    {"code":1140719,"id":"6da0a3","name":"足滝","original_name":"足滝","name_kana":"あしだき","closed":false,"lat":36.998958,"lng":138.603625,"prefecture":15,"lines":[11407],"attr":"eco","postal_code":"949-8126","address":"中魚沼郡津南町大字上郷寺石","voronoi":{"type":"Feature","geometry":{"type":"Polygon","coordinates":[[[138.563396,37.069076],[138.582729,37.067587],[138.607267,37.031897],[138.663068,36.826236],[138.657632,36.80854],[138.563396,37.069076]]]},"properties":{}}},
    {"code":1140720,"id":"6a152d","name":"越後田中","original_name":"越後田中","name_kana":"えちごたなか","closed":false,"lat":37.005316,"lng":138.627058,"prefecture":15,"lines":[11407],"attr":"eco","postal_code":"949-8200","address":"中魚沼郡津南町大字上郷上田","voronoi":{"type":"Feature","geometry":{"type":"Polygon","coordinates":[[[138.708676,36.963492],[138.607267,37.031897],[138.663068,36.826236],[138.675968,36.860039],[138.708676,36.963492]]]},"properties":{}}},
    {"code":1140721,"id":"6cd72f","name":"津南","original_name":"津南","name_kana":"つなん","closed":false,"lat":37.023503,"lng":138.639326,"prefecture":15,"lines":[11407],"attr":"eco","postal_code":"949-8206","address":"中魚沼郡津南町大字外丸","voronoi":{"type":"Feature","geometry":{"type":"Polygon","coordinates":[[[138.623921,37.077228],[138.582729,37.067587],[138.607267,37.031897],[138.708676,36.963492],[138.709343,36.964962],[138.623921,37.077228]]]},"properties":{}}},
    {"code":1140722,"id":"e5d6f9","name":"越後鹿渡","original_name":"越後鹿渡","name_kana":"えちごしかわたり","closed":false,"lat":37.048054,"lng":138.671592,"prefecture":15,"lines":[11407],"attr":"eco","postal_code":"949-8207","address":"中魚沼郡津南町字三箇","voronoi":{"type":"Feature","geometry":{"type":"Polygon","coordinates":[[[138.709343,36.964962],[138.623921,37.077228],[138.665945,37.106046],[138.71027,36.966181],[138.709343,36.964962]]]},"properties":{}}},
    {"code":1140723,"id":"52f156","name":"越後田沢","original_name":"越後田沢","name_kana":"えちごたざわ","closed":false,"lat":37.055387,"lng":138.694731,"prefecture":15,"lines":[11407],"attr":"eco","postal_code":"949-8407","address":"十日町市田中","voronoi":{"type":"Feature","geometry":{"type":"Polygon","coordinates":[[[138.669724,37.110022],[138.665945,37.106046],[138.71027,36.966181],[138.723552,36.979486],[138.745913,37.016179],[138.669724,37.110022]]]},"properties":{}}},
    {"code":1140724,"id":"cff203","name":"越後水沢","original_name":"越後水沢","name_kana":"えちごみずさわ","closed":false,"lat":37.074324,"lng":138.718056,"prefecture":15,"lines":[11407],"attr":"eco","postal_code":"949-8551","address":"十日町市大字馬場","voronoi":{"type":"Feature","geometry":{"type":"Polygon","coordinates":[[[138.761506,37.031864],[138.745913,37.016179],[138.669724,37.110022],[138.670872,37.112089],[138.776007,37.060032],[138.761506,37.031864]]]},"properties":{}}},
    {"code":1140725,"id":"a666c4","name":"土市","original_name":"土市","name_kana":"どいち","closed":false,"lat":37.097457,"lng":138.72951,"prefecture":15,"lines":[11407],"attr":"eco","postal_code":"949-8526","address":"十日町市大字新宮","voronoi":{"type":"Feature","geometry":{"type":"Polygon","coordinates":[[[138.670872,37.112089],[138.684631,37.157867],[138.76919,37.097071],[138.783943,37.070561],[138.779683,37.064456],[138.776007,37.060032],[138.670872,37.112089]]]},"properties":{}}},
    {"code":1140726,"id":"9e94fe","name":"十日町","original_name":"十日町","name_kana":"とおかまち","closed":false,"lat":37.134562,"lng":138.756188,"prefecture":15,"lines":[11407,99402],"attr":"heat","postal_code":"948-0000","address":"十日町市丑","voronoi":{"type":"Feature","geometry":{"type":"Polygon","coordinates":[[[138.68397,37.197843],[138.690305,37.195478],[138.755727,37.152652],[138.771189,37.115906],[138.76919,37.097071],[138.684631,37.157867],[138.68397,37.197843]]]},"properties":{}}},
    {"code":1140727,"id":"3fa8e5","name":"魚沼中条","original_name":"魚沼中条","name_kana":"うおぬまなかじょう","closed":false,"lat":37.159467,"lng":138.772491,"prefecture":15,"lines":[11407],"attr":"heat","postal_code":"948-0000","address":"十日町市大字中条旭町","voronoi":{"type":"Feature","geometry":{"type":"Polygon","coordinates":[[[138.822032,37.170059],[138.690305,37.195478],[138.755727,37.152652],[138.783693,37.146786],[138.822032,37.170059]]]},"properties":{}}},
    {"code":1140728,"id":"1ffe7a","name":"下条","original_name":"下条","name_kana":"げじょう","closed":false,"lat":37.198324,"lng":138.779989,"prefecture":15,"lines":[11407],"attr":"cool","postal_code":"949-8603","address":"十日町市下条４丁目","voronoi":{"type":"Feature","geometry":{"type":"Polygon","coordinates":[[[138.849481,37.174048],[138.822032,37.170059],[138.690305,37.195478],[138.68397,37.197843],[138.671123,37.230118],[138.696917,37.256483],[138.831782,37.202104],[138.850054,37.176704],[138.849481,37.174048]]]},"properties":{}}},
    {"code":1140729,"id":"092cc3","name":"越後岩沢","original_name":"越後岩沢","name_kana":"えちごいわさわ","closed":false,"lat":37.240753,"lng":138.797097,"prefecture":15,"lines":[11407],"attr":"cool","postal_code":"949-8724","address":"小千谷市大字岩沢","voronoi":{"type":"Feature","geometry":{"type":"Polygon","coordinates":[[[138.699107,37.260079],[138.696917,37.256483],[138.831782,37.202104],[138.819994,37.271823],[138.795291,37.277594],[138.720675,37.272765],[138.699107,37.260079]]]},"properties":{}}},
    {"code":1140730,"id":"26c85d","name":"内ヶ巻","original_name":"内ヶ巻","name_kana":"うちがまき","closed":false,"lat":37.250008,"lng":138.851833,"prefecture":15,"lines":[11407],"attr":"cool","postal_code":"949-8722","address":"新潟県小千谷市大字川井","voronoi":{"type":"Feature","geometry":{"type":"Polygon","coordinates":[[[138.850054,37.176704],[138.831782,37.202104],[138.819994,37.271823],[138.824801,37.274926],[138.873934,37.254222],[138.880681,37.203043],[138.850054,37.176704]]]},"properties":{}}},
    {"code":1134232,"id":"679a1e","name":"越後川口","original_name":"越後川口","name_kana":"えちごかわぐち","closed":false,"lat":37.272983,"lng":138.861514,"prefecture":15,"lines":[11342,11407],"attr":"eco","postal_code":"949-7504","address":"新潟県長岡市東川口693-1","voronoi":{"type":"Feature","geometry":{"type":"Polygon","coordinates":[[[138.862969,37.324948],[138.824801,37.274926],[138.873934,37.254222],[138.915837,37.339626],[138.862969,37.324948]]]},"properties":{}}}
  ],
  "extra":false
}