{
  "code":11510,
  "id":"d1a3fc",
  "name":"JR紀勢本線",
  "name_kana":"じぇいあーるきせいほんせん",
  "station_size":41,
  "company_code":3,
  "closed":false,
  "station_list":[
    {"code":1150818,"id":"bdd8a9","name":"亀山(三重)","original_name":"亀山","name_kana":"かめやま","closed":false,"lat":34.850103,"lng":136.450451,"prefecture":24,"lines":[11508,11509,11510],"attr":"cool","postal_code":"519-0155","address":"亀山市御幸町","voronoi":{"type":"Feature","geometry":{"type":"Polygon","coordinates":[[[136.423569,34.798436],[136.420988,34.936735],[136.439225,34.934118],[136.478501,34.843115],[136.423569,34.798436]]]},"properties":{}},"impl":true},
    {"code":1151002,"id":"1374f4","name":"下庄","original_name":"下庄","name_kana":"しものしょう","closed":false,"lat":34.81423,"lng":136.479628,"prefecture":24,"lines":[11510],"attr":"cool","postal_code":"519-0133","address":"亀山市下庄町","voronoi":{"type":"Feature","geometry":{"type":"Polygon","coordinates":[[[136.502685,34.793565],[136.406393,34.756598],[136.423569,34.798436],[136.478501,34.843115],[136.508948,34.835781],[136.511604,34.82159],[136.511154,34.807764],[136.510787,34.806094],[136.502685,34.793565]]]},"properties":{}},"impl":true},
    {"code":1151003,"id":"513e9a","name":"一身田","original_name":"一身田","name_kana":"いしんでん","closed":false,"lat":34.76278,"lng":136.49938,"prefecture":24,"lines":[11510],"attr":"cool","postal_code":"514-0125","address":"津市大里窪田町","voronoi":{"type":"Feature","geometry":{"type":"Polygon","coordinates":[[[136.420883,34.738069],[136.480313,34.738926],[136.495931,34.745],[136.502372,34.750141],[136.511399,34.77846],[136.502685,34.793565],[136.406393,34.756598],[136.403825,34.753485],[136.405381,34.751427],[136.420883,34.738069]]]},"properties":{}},"impl":true},
    {"code":1151004,"id":"e0a200","name":"津","original_name":"津","name_kana":"つ","closed":false,"lat":34.73422,"lng":136.510486,"prefecture":24,"lines":[11510,31027,99530],"attr":"heat","postal_code":"514-0009","address":"津市羽所町","voronoi":{"type":"Feature","geometry":{"type":"Polygon","coordinates":[[[136.480313,34.738926],[136.495931,34.745],[136.584938,34.714054],[136.602277,34.70356],[136.58635,34.703067],[136.520836,34.716197],[136.480313,34.738926]]]},"properties":{}},"impl":true},
    {"code":1151005,"id":"9877f5","name":"阿漕","original_name":"阿漕","name_kana":"あこぎ","closed":false,"lat":34.703554,"lng":136.50434,"prefecture":24,"lines":[11510],"attr":"cool","postal_code":"514-0838","address":"津市岩田字大倉","voronoi":{"type":"Feature","geometry":{"type":"Polygon","coordinates":[[[136.516227,34.687178],[136.489723,34.705172],[136.520836,34.716197],[136.58635,34.703067],[136.516227,34.687178]]]},"properties":{}},"impl":true},
    {"code":1151006,"id":"4e00be","name":"高茶屋","original_name":"高茶屋","name_kana":"たかちゃや","closed":false,"lat":34.667277,"lng":136.51256,"prefecture":24,"lines":[11510],"attr":"cool","postal_code":"514-0817","address":"津市高茶屋小森町","voronoi":{"type":"Feature","geometry":{"type":"Polygon","coordinates":[[[136.502696,34.643124],[136.568023,34.636581],[136.586661,34.638259],[136.607515,34.643631],[136.639927,34.662933],[136.666099,34.683731],[136.670239,34.687685],[136.650586,34.694224],[136.602277,34.70356],[136.58635,34.703067],[136.516227,34.687178],[136.495828,34.674122],[136.494614,34.669017],[136.49679,34.649472],[136.502696,34.643124]]]},"properties":{}},"impl":true},
    {"code":1151007,"id":"7362ee","name":"六軒(三重)","original_name":"六軒","name_kana":"ろっけん","closed":false,"lat":34.617494,"lng":136.507574,"prefecture":24,"lines":[11510],"attr":"cool","postal_code":"515-2114","address":"松阪市小津町","voronoi":{"type":"Feature","geometry":{"type":"Polygon","coordinates":[[[136.568023,34.636581],[136.509713,34.605067],[136.504985,34.60708],[136.497621,34.634533],[136.502696,34.643124],[136.568023,34.636581]]]},"properties":{}},"impl":true},
    {"code":1151008,"id":"eb5420","name":"松阪","original_name":"松阪","name_kana":"まつさか","closed":false,"lat":34.577053,"lng":136.535801,"prefecture":24,"lines":[11510,11513,31009],"attr":"cool","postal_code":"515-0017","address":"松阪市京町","voronoi":{"type":"Feature","geometry":{"type":"Polygon","coordinates":[[[136.586661,34.638259],[136.506912,34.568993],[136.486129,34.532744],[136.499991,34.53456],[136.591313,34.616448],[136.607515,34.643631],[136.586661,34.638259]]]},"properties":{}},"impl":true},
    {"code":1151009,"id":"8cc77d","name":"徳和","original_name":"徳和","name_kana":"とくわ","closed":false,"lat":34.554016,"lng":136.553519,"prefecture":24,"lines":[11510],"attr":"cool","postal_code":"515-0043","address":"松阪市下村町","voronoi":{"type":"Feature","geometry":{"type":"Polygon","coordinates":[[[136.54977,34.528333],[136.51037,34.534464],[136.572244,34.574169],[136.565689,34.536465],[136.54977,34.528333]]]},"properties":{}},"impl":true},
    {"code":1151010,"id":"872f4c","name":"多気","original_name":"多気","name_kana":"たき","closed":false,"lat":34.516318,"lng":136.572777,"prefecture":24,"lines":[11510,11512],"attr":"cool","postal_code":"519-2154","address":"多気郡多気町多気","voronoi":{"type":"Feature","geometry":{"type":"Polygon","coordinates":[[[136.570036,34.487721],[136.54977,34.528333],[136.565689,34.536465],[136.58556,34.530185],[136.594714,34.519723],[136.570036,34.487721]]]},"properties":{}},"impl":true},
    {"code":1151011,"id":"501322","name":"相可","original_name":"相可","name_kana":"おうか","closed":false,"lat":34.502725,"lng":136.545538,"prefecture":24,"lines":[11510],"attr":"cool","postal_code":"519-2181","address":"多気郡多気町大字相可","voronoi":{"type":"Feature","geometry":{"type":"Polygon","coordinates":[[[136.569591,34.483215],[136.468252,34.510589],[136.456108,34.518166],[136.486129,34.532744],[136.499991,34.53456],[136.51037,34.534464],[136.54977,34.528333],[136.570036,34.487721],[136.569591,34.483215]]]},"properties":{}},"impl":true},
    {"code":1151012,"id":"d8ce61","name":"佐奈","original_name":"佐奈","name_kana":"さな","closed":false,"lat":34.478469,"lng":136.538986,"prefecture":24,"lines":[11510],"attr":"cool","postal_code":"519-2178","address":"多気郡多気町大字平谷","voronoi":{"type":"Feature","geometry":{"type":"Polygon","coordinates":[[[136.468252,34.510589],[136.569591,34.483215],[136.594534,34.407741],[136.595466,34.398951],[136.468252,34.510589]]]},"properties":{}},"impl":true},
    {"code":1151013,"id":"b27a16","name":"栃原","original_name":"栃原","name_kana":"とちはら","closed":false,"lat":34.444625,"lng":136.509286,"prefecture":24,"lines":[11510],"attr":"cool","postal_code":"519-2424","address":"多気郡大台町大字栃原","voronoi":{"type":"Feature","geometry":{"type":"Polygon","coordinates":[[[136.456108,34.518166],[136.432968,34.516655],[136.611919,34.257296],[136.630137,34.298793],[136.630385,34.299775],[136.595466,34.398951],[136.468252,34.510589],[136.456108,34.518166]]]},"properties":{}},"impl":true},
    {"code":1151014,"id":"f21162","name":"川添","original_name":"川添","name_kana":"かわぞえ","closed":false,"lat":34.419739,"lng":136.473218,"prefecture":24,"lines":[11510],"attr":"cool","postal_code":"519-2427","address":"多気郡大台町大字上楠","voronoi":{"type":"Feature","geometry":{"type":"Polygon","coordinates":[[[136.404859,34.520763],[136.402519,34.520127],[136.398661,34.51661],[136.451521,34.380758],[136.487948,34.343348],[136.611633,34.256407],[136.611919,34.257296],[136.432968,34.516655],[136.404859,34.520763]]]},"properties":{}},"impl":true},
    {"code":1151015,"id":"b8b724","name":"三瀬谷","original_name":"三瀬谷","name_kana":"みせだに","closed":false,"lat":34.394823,"lng":136.409183,"prefecture":24,"lines":[11510],"attr":"cool","postal_code":"519-2404","address":"多気郡大台町佐原","voronoi":{"type":"Feature","geometry":{"type":"Polygon","coordinates":[[[136.278231,34.381824],[136.351858,34.475418],[136.387029,34.510929],[136.398661,34.51661],[136.451521,34.380758],[136.307764,34.369193],[136.278231,34.381824]]]},"properties":{}},"impl":true},
    {"code":1151016,"id":"5195fd","name":"滝原","original_name":"滝原","name_kana":"たきはら","closed":false,"lat":34.360105,"lng":136.411976,"prefecture":24,"lines":[11510],"attr":"cool","postal_code":"519-2413","address":"多気郡大台町大ケ所","voronoi":{"type":"Feature","geometry":{"type":"Polygon","coordinates":[[[136.340849,34.34792],[136.307764,34.369193],[136.451521,34.380758],[136.487948,34.343348],[136.340849,34.34792]]]},"properties":{}},"impl":true},
    {"code":1151017,"id":"36cbea","name":"阿曽","original_name":"阿曽","name_kana":"あそ","closed":false,"lat":34.331342,"lng":136.411082,"prefecture":24,"lines":[11510],"attr":"cool","postal_code":"519-2704","address":"度会郡大紀町阿曽","voronoi":{"type":"Feature","geometry":{"type":"Polygon","coordinates":[[[136.340849,34.34792],[136.343682,34.345162],[136.609217,34.213181],[136.611633,34.256407],[136.487948,34.343348],[136.340849,34.34792]]]},"properties":{}},"impl":true},
    {"code":1151018,"id":"213469","name":"伊勢柏崎","original_name":"伊勢柏崎","name_kana":"いせかしわざき","closed":false,"lat":34.299779,"lng":136.395394,"prefecture":24,"lines":[11510],"attr":"cool","postal_code":"519-2802","address":"度会郡大紀町崎","voronoi":{"type":"Feature","geometry":{"type":"Polygon","coordinates":[[[136.343682,34.345162],[136.609217,34.213181],[136.611448,34.105131],[136.46836,34.192853],[136.392652,34.263399],[136.343682,34.345162]]]},"properties":{}},"impl":true},
    {"code":1151019,"id":"b1e0cb","name":"大内山","original_name":"大内山","name_kana":"おおうちやま","closed":false,"lat":34.278152,"lng":136.359284,"prefecture":24,"lines":[11510],"attr":"cool","postal_code":"519-3111","address":"度会郡大紀町大内山","voronoi":{"type":"Feature","geometry":{"type":"Polygon","coordinates":[[[136.278231,34.381824],[136.165194,34.333879],[136.175129,34.32434],[136.231156,34.285375],[136.392652,34.263399],[136.343682,34.345162],[136.340849,34.34792],[136.307764,34.369193],[136.278231,34.381824]]]},"properties":{}},"impl":true},
    {"code":1151020,"id":"5ffd67","name":"梅ヶ谷","original_name":"梅ヶ谷","name_kana":"うめがだに","closed":false,"lat":34.258098,"lng":136.356555,"prefecture":24,"lines":[11510],"attr":"cool","postal_code":"519-3111","address":"三重県度会郡大紀町大内山1135","voronoi":{"type":"Feature","geometry":{"type":"Polygon","coordinates":[[[136.392652,34.263399],[136.231156,34.285375],[136.255734,34.26523],[136.46836,34.192853],[136.392652,34.263399]]]},"properties":{}},"impl":true},
    {"code":1151021,"id":"783f01","name":"紀伊長島","original_name":"紀伊長島","name_kana":"きいながしま","closed":false,"lat":34.20937,"lng":136.339968,"prefecture":24,"lines":[11510],"attr":"eco","postal_code":"519-3204","address":"北牟婁郡紀北町紀伊長島区東長島","voronoi":{"type":"Feature","geometry":{"type":"Polygon","coordinates":[[[136.611448,34.105131],[136.46836,34.192853],[136.255734,34.26523],[136.409071,34.053469],[136.646885,33.933833],[136.611448,34.105131]]]},"properties":{}},"impl":true},
    {"code":1151022,"id":"ba7b70","name":"三野瀬","original_name":"三野瀬","name_kana":"みのせ","closed":false,"lat":34.167771,"lng":136.282519,"prefecture":24,"lines":[11510],"attr":"eco","postal_code":"519-3208","address":"北牟婁郡紀北町紀伊長島区三浦","voronoi":{"type":"Feature","geometry":{"type":"Polygon","coordinates":[[[136.320444,34.076724],[136.31574,34.079371],[136.270012,34.124765],[136.175129,34.32434],[136.231156,34.285375],[136.255734,34.26523],[136.409071,34.053469],[136.320444,34.076724]]]},"properties":{}},"impl":true},
    {"code":1151023,"id":"8e7047","name":"船津(JR)","original_name":"船津","name_kana":"ふなつ","closed":false,"lat":34.142214,"lng":136.228763,"prefecture":24,"lines":[11510],"attr":"eco","postal_code":"519-3403","address":"三重県北牟婁郡紀北町海山区上里456","voronoi":{"type":"Feature","geometry":{"type":"Polygon","coordinates":[[[136.096855,34.339655],[136.165194,34.333879],[136.175129,34.32434],[136.270012,34.124765],[136.170828,34.130217],[136.015476,34.218508],[136.086759,34.332519],[136.096855,34.339655]]]},"properties":{}},"impl":true},
    {"code":1151024,"id":"30a82c","name":"相賀","original_name":"相賀","name_kana":"あいが","closed":false,"lat":34.111943,"lng":136.227099,"prefecture":24,"lines":[11510],"attr":"eco","postal_code":"519-3406","address":"北牟婁郡紀北町海山区相賀","voronoi":{"type":"Feature","geometry":{"type":"Polygon","coordinates":[[[136.170828,34.130217],[136.214021,34.087837],[136.31574,34.079371],[136.270012,34.124765],[136.170828,34.130217]]]},"properties":{}},"impl":true},
    {"code":1151025,"id":"ebcfd4","name":"尾鷲","original_name":"尾鷲","name_kana":"おわせ","closed":false,"lat":34.074304,"lng":136.190168,"prefecture":24,"lines":[11510],"attr":"eco","postal_code":"519-3616","address":"尾鷲市中村町","voronoi":{"type":"Feature","geometry":{"type":"Polygon","coordinates":[[[136.170828,34.130217],[136.214021,34.087837],[136.195026,34.037656],[136.110345,34.0233],[136.096257,34.023358],[135.999645,34.053679],[135.908093,34.099008],[136.015476,34.218508],[136.170828,34.130217]]]},"properties":{}},"impl":true},
    {"code":1151026,"id":"0cd4b0","name":"大曽根浦","original_name":"大曽根浦","name_kana":"おおそねうら","closed":false,"lat":34.061901,"lng":136.222934,"prefecture":24,"lines":[11510],"attr":"eco","postal_code":"519-3623","address":"尾鷲市大字大曽根浦","voronoi":{"type":"Feature","geometry":{"type":"Polygon","coordinates":[[[136.214512,34.031074],[136.195026,34.037656],[136.214021,34.087837],[136.31574,34.079371],[136.320444,34.076724],[136.214512,34.031074]]]},"properties":{}},"impl":true},
    {"code":1151027,"id":"b06277","name":"九鬼","original_name":"九鬼","name_kana":"くき","closed":false,"lat":34.016026,"lng":136.242703,"prefecture":24,"lines":[11510],"attr":"eco","postal_code":"519-3701","address":"尾鷲市九鬼町","voronoi":{"type":"Feature","geometry":{"type":"Polygon","coordinates":[[[136.214512,34.031074],[136.237007,33.969038],[136.267211,33.933],[136.910806,33.413592],[136.646885,33.933833],[136.409071,34.053469],[136.320444,34.076724],[136.214512,34.031074]]]},"properties":{}},"impl":true},
    {"code":1151028,"id":"1f9f35","name":"三木里","original_name":"三木里","name_kana":"みきさと","closed":false,"lat":34.001454,"lng":136.202518,"prefecture":24,"lines":[11510],"attr":"eco","postal_code":"519-3811","address":"尾鷲市三木里町","voronoi":{"type":"Feature","geometry":{"type":"Polygon","coordinates":[[[136.110345,34.0233],[136.195026,34.037656],[136.214512,34.031074],[136.237007,33.969038],[136.110345,34.0233]]]},"properties":{}},"impl":true},
    {"code":1151029,"id":"4c089d","name":"賀田","original_name":"賀田","name_kana":"かた","closed":false,"lat":33.971643,"lng":136.189747,"prefecture":24,"lines":[11510],"attr":"eco","postal_code":"519-3924","address":"尾鷲市曽根町","voronoi":{"type":"Feature","geometry":{"type":"Polygon","coordinates":[[[136.110345,34.0233],[136.096257,34.023358],[136.152853,33.964465],[136.267211,33.933],[136.237007,33.969038],[136.110345,34.0233]]]},"properties":{}},"impl":true},
    {"code":1151030,"id":"abb276","name":"二木島","original_name":"二木島","name_kana":"にぎしま","closed":false,"lat":33.939424,"lng":136.180882,"prefecture":24,"lines":[11510],"attr":"eco","postal_code":"519-4204","address":"熊野市二木島町","voronoi":{"type":"Feature","geometry":{"type":"Polygon","coordinates":[[[136.170292,33.909047],[136.152853,33.964465],[136.267211,33.933],[136.910806,33.413592],[137.158223,32.985661],[136.953229,33.140203],[136.372955,33.613734],[136.170292,33.909047]]]},"properties":{}},"impl":true},
    {"code":1151031,"id":"1a48a0","name":"新鹿","original_name":"新鹿","name_kana":"あたしか","closed":false,"lat":33.927886,"lng":136.144215,"prefecture":24,"lines":[11510],"attr":"eco","postal_code":"519-4206","address":"熊野市新鹿町","voronoi":{"type":"Feature","geometry":{"type":"Polygon","coordinates":[[[136.026215,34.022077],[135.999645,34.053679],[136.096257,34.023358],[136.152853,33.964465],[136.170292,33.909047],[136.120301,33.926117],[136.026215,34.022077]]]},"properties":{}},"impl":true},
    {"code":1151032,"id":"fc9eec","name":"波田須","original_name":"波田須","name_kana":"はだす","closed":false,"lat":33.910091,"lng":136.138139,"prefecture":24,"lines":[11510],"attr":"eco","postal_code":"519-4207","address":"熊野市波田須町","voronoi":{"type":"Feature","geometry":{"type":"Polygon","coordinates":[[[136.35743,33.62472],[136.372955,33.613734],[136.170292,33.909047],[136.120301,33.926117],[136.166041,33.809105],[136.177627,33.791132],[136.225628,33.739183],[136.274417,33.690032],[136.289095,33.676687],[136.35743,33.62472]]]},"properties":{}},"impl":true},
    {"code":1151033,"id":"b1c561","name":"大泊","original_name":"大泊","name_kana":"おおどまり","closed":false,"lat":33.902242,"lng":136.11806,"prefecture":24,"lines":[11510],"attr":"heat","postal_code":"519-4322","address":"熊野市大泊町","voronoi":{"type":"Feature","geometry":{"type":"Polygon","coordinates":[[[136.120301,33.926117],[136.026215,34.022077],[136.160428,33.816109],[136.166041,33.809105],[136.120301,33.926117]]]},"properties":{}},"impl":true},
    {"code":1151034,"id":"3fcb1b","name":"熊野市","original_name":"熊野市","name_kana":"くまのし","closed":false,"lat":33.889656,"lng":136.098745,"prefecture":24,"lines":[11510],"attr":"heat","postal_code":"519-4324","address":"熊野市井戸町","voronoi":{"type":"Feature","geometry":{"type":"Polygon","coordinates":[[[135.999645,34.053679],[136.026215,34.022077],[136.160428,33.816109],[135.88389,34.086825],[135.908093,34.099008],[135.999645,34.053679]]]},"properties":{}},"impl":true},
    {"code":1151035,"id":"79f0e6","name":"有井","original_name":"有井","name_kana":"ありい","closed":false,"lat":33.876213,"lng":136.085585,"prefecture":24,"lines":[11510],"attr":"heat","postal_code":"519-4325","address":"熊野市有馬町","voronoi":{"type":"Feature","geometry":{"type":"Polygon","coordinates":[[[136.160428,33.816109],[135.88389,34.086825],[135.842677,34.067718],[135.835354,34.057422],[135.813556,34.025927],[136.177627,33.791132],[136.166041,33.809105],[136.160428,33.816109]]]},"properties":{}},"impl":true},
    {"code":1151036,"id":"e351fa","name":"神志山","original_name":"神志山","name_kana":"こうしやま","closed":false,"lat":33.839881,"lng":136.062154,"prefecture":24,"lines":[11510],"attr":"heat","postal_code":"519-5203","address":"南牟婁郡御浜町大字下市木","voronoi":{"type":"Feature","geometry":{"type":"Polygon","coordinates":[[[135.784479,33.989607],[135.813556,34.025927],[136.177627,33.791132],[136.225628,33.739183],[135.784479,33.989607]]]},"properties":{}},"impl":true},
    {"code":1151037,"id":"f4ac8b","name":"紀伊市木","original_name":"紀伊市木","name_kana":"きいいちぎ","closed":false,"lat":33.827932,"lng":136.055371,"prefecture":24,"lines":[11510],"attr":"heat","postal_code":"519-5203","address":"南牟婁郡御浜町大字下市木","voronoi":{"type":"Feature","geometry":{"type":"Polygon","coordinates":[[[135.770168,33.972509],[135.784479,33.989607],[136.225628,33.739183],[136.274417,33.690032],[135.770168,33.972509]]]},"properties":{}},"impl":true},
    {"code":1151038,"id":"101fd1","name":"阿田和","original_name":"阿田和","name_kana":"あたわ","closed":false,"lat":33.804806,"lng":136.042416,"prefecture":24,"lines":[11510],"attr":"heat","postal_code":"519-5204","address":"南牟婁郡御浜町大字阿田和","voronoi":{"type":"Feature","geometry":{"type":"Polygon","coordinates":[[[136.274417,33.690032],[135.770168,33.972509],[135.73667,33.935699],[135.897058,33.83845],[136.289095,33.676687],[136.274417,33.690032]]]},"properties":{}},"impl":true},
    {"code":1151039,"id":"0a5976","name":"紀伊井田","original_name":"紀伊井田","name_kana":"きいいだ","closed":false,"lat":33.759801,"lng":136.023846,"prefecture":24,"lines":[11510],"attr":"heat","postal_code":"519-5711","address":"南牟婁郡紀宝町井田","voronoi":{"type":"Feature","geometry":{"type":"Polygon","coordinates":[[[136.289095,33.676687],[135.897058,33.83845],[135.989419,33.759231],[136.35743,33.62472],[136.289095,33.676687]]]},"properties":{}},"impl":true},
    {"code":1151040,"id":"387e75","name":"鵜殿","original_name":"鵜殿","name_kana":"うどの","closed":false,"lat":33.736595,"lng":136.015364,"prefecture":24,"lines":[11510],"attr":"heat","postal_code":"519-5701","address":"南牟婁郡紀宝町鵜殿","voronoi":{"type":"Feature","geometry":{"type":"Polygon","coordinates":[[[136.265589,33.541199],[136.021951,33.698949],[135.989419,33.759231],[136.35743,33.62472],[136.372955,33.613734],[136.953229,33.140203],[136.265589,33.541199]]]},"properties":{}},"impl":true},
    {"code":1151041,"id":"3ddb83","name":"新宮","original_name":"新宮","name_kana":"しんぐう","closed":false,"lat":33.725119,"lng":135.994099,"prefecture":30,"lines":[11510,11639],"attr":"cool","postal_code":"647-0081","address":"新宮市新宮","voronoi":{"type":"Feature","geometry":{"type":"Polygon","coordinates":[[[135.73667,33.935699],[135.696974,33.902809],[135.697067,33.889377],[135.697812,33.874231],[135.821106,33.786787],[135.956938,33.715754],[136.021951,33.698949],[135.989419,33.759231],[135.897058,33.83845],[135.73667,33.935699]]]},"properties":{}},"impl":true}
  ],
  "impl":true
}