{
  "code":11636,
  "id":"976f28",
  "name":"JR和歌山線",
  "name_kana":"じぇいあーるわかやません",
  "station_size":36,
  "company_code":4,
  "closed":false,
  "color":"#F79FBA",
  "symbol":"T",
  "station_list":[
    {"code":1160708,"id":"5b8137","name":"王寺","original_name":"王寺","name_kana":"おうじ","closed":false,"lat":34.597448,"lng":135.704005,"prefecture":29,"lines":[11607,11636,31016],"attr":"cool","postal_code":"636-0003","address":"北葛城郡王寺町久度２丁目","voronoi":{"type":"Feature","geometry":{"type":"Polygon","coordinates":[[[135.701113,34.601291],[135.700306,34.601008],[135.696575,34.591558],[135.698436,34.587975],[135.709423,34.5879],[135.710466,34.589957],[135.701113,34.601291]]]},"properties":{}},"extra":false},
    {"code":1163602,"id":"b11046","name":"畠田","original_name":"畠田","name_kana":"はたけだ","closed":false,"lat":34.578427,"lng":135.703874,"prefecture":29,"lines":[11636],"attr":"eco","postal_code":"636-0021","address":"北葛城郡王寺町大字畠田３丁目","voronoi":{"type":"Feature","geometry":{"type":"Polygon","coordinates":[[[135.688022,34.571626],[135.698436,34.587975],[135.709423,34.5879],[135.719978,34.571739],[135.720613,34.569198],[135.720624,34.568008],[135.688022,34.571626]]]},"properties":{}},"extra":false},
    {"code":1163603,"id":"be4ed4","name":"志都美","original_name":"志都美","name_kana":"しずみ","closed":false,"lat":34.561515,"lng":135.701997,"prefecture":29,"lines":[11636],"attr":"eco","postal_code":"639-0265","address":"香芝市上中","voronoi":{"type":"Feature","geometry":{"type":"Polygon","coordinates":[[[135.725753,34.557545],[135.720624,34.568008],[135.688022,34.571626],[135.682832,34.568873],[135.682527,34.567919],[135.683199,34.564985],[135.698147,34.55115],[135.723878,34.556428],[135.725753,34.557545]]]},"properties":{}},"extra":false},
    {"code":1163604,"id":"52ebb8","name":"香芝","original_name":"香芝","name_kana":"かしば","closed":false,"lat":34.543137,"lng":135.705767,"prefecture":29,"lines":[11636],"attr":"eco","postal_code":"639-0231","address":"香芝市下田西１丁目","voronoi":{"type":"Feature","geometry":{"type":"Polygon","coordinates":[[[135.698147,34.55115],[135.697863,34.549663],[135.710288,34.536676],[135.723878,34.556428],[135.698147,34.55115]]]},"properties":{}},"extra":false},
    {"code":1163605,"id":"474283","name":"JR五位堂","original_name":"JR五位堂","name_kana":"じぇいあーるごいどう","closed":false,"lat":34.527667,"lng":135.718435,"prefecture":29,"lines":[11636],"attr":"eco","postal_code":"639-0226","address":"香芝市五位堂６丁目５５","voronoi":{"type":"Feature","geometry":{"type":"Polygon","coordinates":[[[135.70728,34.53045],[135.706181,34.529303],[135.706091,34.528807],[135.714323,34.519637],[135.718183,34.517852],[135.724891,34.518895],[135.726251,34.531781],[135.70728,34.53045]]]},"properties":{}},"extra":false},
    {"code":1163606,"id":"bb463a","name":"高田(奈良)","original_name":"高田","name_kana":"たかだ","closed":false,"lat":34.515916,"lng":135.745033,"prefecture":29,"lines":[11636,11637],"attr":"eco","postal_code":"635-0081","address":"大和高田市高砂町１丁目","voronoi":{"type":"Feature","geometry":{"type":"Polygon","coordinates":[[[135.75415,34.509316],[135.752669,34.50851],[135.737638,34.513503],[135.751733,34.523664],[135.755015,34.512122],[135.75415,34.509316]]]},"properties":{}},"extra":false},
    {"code":1163607,"id":"b601e0","name":"大和新庄","original_name":"大和新庄","name_kana":"やまとしんじょう","closed":false,"lat":34.488827,"lng":135.736001,"prefecture":29,"lines":[11636],"attr":"eco","postal_code":"639-2113","address":"葛城市北花内北端","voronoi":{"type":"Feature","geometry":{"type":"Polygon","coordinates":[[[135.752416,34.479181],[135.752624,34.477915],[135.750795,34.477163],[135.731486,34.483233],[135.732034,34.500333],[135.743943,34.496355],[135.752416,34.479181]]]},"properties":{}},"extra":false},
    {"code":1163608,"id":"ea980c","name":"御所","original_name":"御所","name_kana":"ごせ","closed":false,"lat":34.465102,"lng":135.733819,"prefecture":29,"lines":[11636],"attr":"eco","postal_code":"639-2200","address":"御所市御国通り１丁目","voronoi":{"type":"Feature","geometry":{"type":"Polygon","coordinates":[[[135.731421,34.470334],[135.737043,34.452711],[135.746131,34.472792],[135.731421,34.470334]]]},"properties":{}},"extra":false},
    {"code":1163609,"id":"1488fd","name":"玉手","original_name":"玉手","name_kana":"たまで","closed":false,"lat":34.458467,"lng":135.748479,"prefecture":29,"lines":[11636],"attr":"eco","postal_code":"639-2247","address":"御所市玉手字畑田","voronoi":{"type":"Feature","geometry":{"type":"Polygon","coordinates":[[[135.737043,34.452711],[135.731598,34.438706],[135.740461,34.439144],[135.750878,34.443552],[135.763098,34.473023],[135.752624,34.477915],[135.750795,34.477163],[135.746131,34.472792],[135.737043,34.452711]]]},"properties":{}},"extra":false},
    {"code":1163610,"id":"8f8222","name":"掖上","original_name":"掖上","name_kana":"わきがみ","closed":false,"lat":34.452393,"lng":135.763127,"prefecture":29,"lines":[11636],"attr":"heat","postal_code":"639-2244","address":"御所市大字柏原","voronoi":{"type":"Feature","geometry":{"type":"Polygon","coordinates":[[[135.765248,34.441348],[135.750878,34.443552],[135.763098,34.473023],[135.765525,34.47292],[135.777442,34.466486],[135.778327,34.465135],[135.779871,34.460819],[135.779754,34.459526],[135.765248,34.441348]]]},"properties":{}},"extra":false},
    {"code":1163611,"id":"19b986","name":"吉野口","original_name":"吉野口","name_kana":"よしのぐち","closed":false,"lat":34.420704,"lng":135.750343,"prefecture":29,"lines":[11636,31007],"attr":"heat","postal_code":"639-2254","address":"御所市大字古瀬","voronoi":{"type":"Feature","geometry":{"type":"Polygon","coordinates":[[[135.740461,34.439144],[135.731598,34.438706],[135.714806,34.431891],[135.758063,34.408036],[135.765342,34.407991],[135.771813,34.41121],[135.740461,34.439144]]]},"properties":{}},"extra":false},
    {"code":1163612,"id":"ec96a8","name":"北宇智","original_name":"北宇智","name_kana":"きたうち","closed":false,"lat":34.381264,"lng":135.714722,"prefecture":29,"lines":[11636],"attr":"cool","postal_code":"637-0014","address":"五條市住川町","voronoi":{"type":"Feature","geometry":{"type":"Polygon","coordinates":[[[135.697276,34.428583],[135.662098,34.436079],[135.660709,34.430359],[135.656647,34.400634],[135.659644,34.398058],[135.746223,34.343666],[135.74407,34.359357],[135.730742,34.392638],[135.697276,34.428583]]]},"properties":{}},"extra":false},
    {"code":1163613,"id":"342339","name":"五条(奈良)","original_name":"五条","name_kana":"ごじょう","closed":false,"lat":34.355727,"lng":135.698679,"prefecture":29,"lines":[11636],"attr":"cool","postal_code":"637-0005","address":"五條市須恵３丁目","voronoi":{"type":"Feature","geometry":{"type":"Polygon","coordinates":[[[135.799915,34.191604],[135.799992,34.191044],[135.659644,34.398058],[135.746223,34.343666],[135.761038,34.312905],[135.799915,34.191604]]]},"properties":{}},"extra":false},
    {"code":1163614,"id":"3dfa2d","name":"大和二見","original_name":"大和二見","name_kana":"やまとふたみ","closed":false,"lat":34.346125,"lng":135.684516,"prefecture":29,"lines":[11636],"attr":"cool","postal_code":"637-0071","address":"五條市二見３丁目","voronoi":{"type":"Feature","geometry":{"type":"Polygon","coordinates":[[[135.646621,34.374717],[135.650095,34.389295],[135.656647,34.400634],[135.659644,34.398058],[135.799992,34.191044],[135.811681,34.126754],[135.787471,34.148942],[135.646621,34.374717]]]},"properties":{}},"extra":false},
    {"code":1163615,"id":"6d9764","name":"隅田","original_name":"隅田","name_kana":"すだ","closed":false,"lat":34.32811,"lng":135.655639,"prefecture":30,"lines":[11636],"attr":"eco","postal_code":"648-0012","address":"橋本市隅田町芋生","voronoi":{"type":"Feature","geometry":{"type":"Polygon","coordinates":[[[135.646621,34.374717],[135.646285,34.374226],[135.637032,34.356377],[135.666664,34.243723],[135.787471,34.148942],[135.646621,34.374717]]]},"properties":{}},"extra":false},
    {"code":1163616,"id":"2cc2bc","name":"下兵庫","original_name":"下兵庫","name_kana":"しもひょうご","closed":false,"lat":34.322613,"lng":135.634741,"prefecture":30,"lines":[11636],"attr":"eco","postal_code":"648-0016","address":"橋本市隅田町下兵庫","voronoi":{"type":"Feature","geometry":{"type":"Polygon","coordinates":[[[135.637032,34.356377],[135.625422,34.345175],[135.621215,34.336254],[135.630841,34.293095],[135.651053,34.253038],[135.666664,34.243723],[135.637032,34.356377]]]},"properties":{}},"extra":false},
    {"code":1163617,"id":"bd4eee","name":"橋本(和歌山)","original_name":"橋本","name_kana":"はしもと","closed":false,"lat":34.318158,"lng":135.614767,"prefecture":30,"lines":[11636,32007],"attr":"eco","postal_code":"648-0065","address":"橋本市古佐田１丁目","voronoi":{"type":"Feature","geometry":{"type":"Polygon","coordinates":[[[135.630841,34.293095],[135.599539,34.322412],[135.621215,34.336254],[135.630841,34.293095]]]},"properties":{}},"extra":false},
    {"code":1163618,"id":"3287f8","name":"紀伊山田","original_name":"紀伊山田","name_kana":"きいやまだ","closed":false,"lat":34.3131,"lng":135.584051,"prefecture":30,"lines":[11636],"attr":"eco","postal_code":"648-0086","address":"橋本市神野々","voronoi":{"type":"Feature","geometry":{"type":"Polygon","coordinates":[[[135.597646,34.322245],[135.563004,34.347318],[135.571064,34.307593],[135.592239,34.302248],[135.597646,34.322245]]]},"properties":{}},"extra":false},
    {"code":1163619,"id":"9d60b7","name":"高野口","original_name":"高野口","name_kana":"こうやぐち","closed":false,"lat":34.307603,"lng":135.556957,"prefecture":30,"lines":[11636],"attr":"eco","postal_code":"649-7205","address":"橋本市高野口町名倉","voronoi":{"type":"Feature","geometry":{"type":"Polygon","coordinates":[[[135.536042,34.367967],[135.561785,34.349127],[135.563004,34.347318],[135.571064,34.307593],[135.567549,34.300282],[135.546349,34.292231],[135.536042,34.367967]]]},"properties":{}},"extra":false},
    {"code":1163620,"id":"c79f62","name":"中飯降","original_name":"中飯降","name_kana":"なかいぶり","closed":false,"lat":34.304209,"lng":135.532019,"prefecture":30,"lines":[11636],"attr":"eco","postal_code":"649-7112","address":"伊都郡かつらぎ町大字中飯降","voronoi":{"type":"Feature","geometry":{"type":"Polygon","coordinates":[[[135.542969,34.285553],[135.532928,34.279912],[135.505407,34.351817],[135.500549,34.384707],[135.53057,34.373457],[135.531764,34.372645],[135.536042,34.367967],[135.546349,34.292231],[135.542969,34.285553]]]},"properties":{}},"extra":false},
    {"code":1163621,"id":"0c9938","name":"妙寺","original_name":"妙寺","name_kana":"みょうじ","closed":false,"lat":34.298607,"lng":135.517382,"prefecture":30,"lines":[11636],"attr":"eco","postal_code":"649-7122","address":"伊都郡かつらぎ町大字新田","voronoi":{"type":"Feature","geometry":{"type":"Polygon","coordinates":[[[135.528205,34.274642],[135.532928,34.279912],[135.505407,34.351817],[135.505641,34.257879],[135.528205,34.274642]]]},"properties":{}},"extra":false},
    {"code":1163622,"id":"94a4ae","name":"大谷(和歌山)","original_name":"大谷","name_kana":"おおたに","closed":false,"lat":34.298548,"lng":135.493698,"prefecture":30,"lines":[11636],"attr":"heat","postal_code":"649-7173","address":"伊都郡かつらぎ町大字大谷","voronoi":{"type":"Feature","geometry":{"type":"Polygon","coordinates":[[[135.453743,34.365563],[135.465547,34.37772],[135.499304,34.38553],[135.500549,34.384707],[135.505407,34.351817],[135.505641,34.257879],[135.504905,34.256908],[135.453743,34.365563]]]},"properties":{}},"extra":false},
    {"code":1163623,"id":"46403a","name":"笠田","original_name":"笠田","name_kana":"かせだ","closed":false,"lat":34.292073,"lng":135.479947,"prefecture":30,"lines":[11636],"attr":"heat","postal_code":"649-7161","address":"伊都郡かつらぎ町大字笠田東","voronoi":{"type":"Feature","geometry":{"type":"Polygon","coordinates":[[[135.491702,34.231013],[135.49078,34.229805],[135.437587,34.351884],[135.453743,34.365563],[135.504905,34.256908],[135.491702,34.231013]]]},"properties":{}},"extra":false},
    {"code":1163624,"id":"0381ea","name":"西笠田","original_name":"西笠田","name_kana":"にしかせだ","closed":false,"lat":34.280136,"lng":135.452551,"prefecture":30,"lines":[11636],"attr":"heat","postal_code":"649-7166","address":"伊都郡かつらぎ町大字高田","voronoi":{"type":"Feature","geometry":{"type":"Polygon","coordinates":[[[135.49078,34.229805],[135.474724,34.193237],[135.418313,34.341424],[135.437587,34.351884],[135.49078,34.229805]]]},"properties":{}},"extra":false},
    {"code":1163625,"id":"d09e6b","name":"名手","original_name":"名手","name_kana":"なて","closed":false,"lat":34.272883,"lng":135.433498,"prefecture":30,"lines":[11636],"attr":"heat","postal_code":"649-6631","address":"紀の川市名手市場","voronoi":{"type":"Feature","geometry":{"type":"Polygon","coordinates":[[[135.418313,34.341424],[135.413818,34.339775],[135.426847,34.163451],[135.45649,34.134254],[135.474724,34.193237],[135.418313,34.341424]]]},"properties":{}},"extra":false},
    {"code":1163626,"id":"d6abd2","name":"粉河","original_name":"粉河","name_kana":"こかわ","closed":false,"lat":34.270717,"lng":135.404184,"prefecture":30,"lines":[11636],"attr":"cool","postal_code":"649-6531","address":"紀の川市粉河","voronoi":{"type":"Feature","geometry":{"type":"Polygon","coordinates":[[[135.417191,34.17069],[135.384897,34.335724],[135.413818,34.339775],[135.426847,34.163451],[135.417191,34.17069]]]},"properties":{}},"extra":false},
    {"code":1163627,"id":"2198a8","name":"紀伊長田","original_name":"紀伊長田","name_kana":"きいながた","closed":false,"lat":34.268242,"lng":135.391536,"prefecture":30,"lines":[11636],"attr":"cool","postal_code":"649-6553","address":"紀の川市深田","voronoi":{"type":"Feature","geometry":{"type":"Polygon","coordinates":[[[135.38776,34.189948],[135.386264,34.191978],[135.370344,34.333882],[135.373028,34.335201],[135.384897,34.335724],[135.417191,34.17069],[135.38776,34.189948]]]},"properties":{}},"extra":false},
    {"code":1163628,"id":"69b014","name":"打田","original_name":"打田","name_kana":"うちた","closed":false,"lat":34.265178,"lng":135.364224,"prefecture":30,"lines":[11636],"attr":"cool","postal_code":"649-6414","address":"紀の川市打田","voronoi":{"type":"Feature","geometry":{"type":"Polygon","coordinates":[[[135.344185,34.324396],[135.365997,34.332743],[135.370344,34.333882],[135.386264,34.191978],[135.358233,34.218347],[135.344185,34.324396]]]},"properties":{}},"extra":false},
    {"code":1163629,"id":"d0228c","name":"下井阪","original_name":"下井阪","name_kana":"しもいさか","closed":false,"lat":34.262003,"lng":135.340256,"prefecture":30,"lines":[11636],"attr":"cool","postal_code":"649-6426","address":"紀の川市下井阪","voronoi":{"type":"Feature","geometry":{"type":"Polygon","coordinates":[[[135.313949,34.303703],[135.342523,34.226847],[135.358233,34.218347],[135.344185,34.324396],[135.33444,34.322715],[135.329376,34.320826],[135.313949,34.303703]]]},"properties":{}},"extra":false},
    {"code":1163630,"id":"b2644d","name":"岩出","original_name":"岩出","name_kana":"いわで","closed":false,"lat":34.254945,"lng":135.321272,"prefecture":30,"lines":[11636],"attr":"cool","postal_code":"649-6223","address":"岩出市高塚","voronoi":{"type":"Feature","geometry":{"type":"Polygon","coordinates":[[[135.330939,34.229248],[135.296456,34.281672],[135.294478,34.289488],[135.313949,34.303703],[135.342523,34.226847],[135.330939,34.229248]]]},"properties":{}},"extra":false},
    {"code":1163631,"id":"65c4e7","name":"船戸","original_name":"船戸","name_kana":"ふなと","closed":false,"lat":34.248301,"lng":135.311171,"prefecture":30,"lines":[11636],"attr":"cool","postal_code":"649-6225","address":"岩出市船戸","voronoi":{"type":"Feature","geometry":{"type":"Polygon","coordinates":[[[135.296456,34.281672],[135.300473,34.23244],[135.312903,34.22893],[135.330939,34.229248],[135.296456,34.281672]]]},"properties":{}},"extra":false},
    {"code":1163632,"id":"621831","name":"紀伊小倉","original_name":"紀伊小倉","name_kana":"きいおぐら","closed":false,"lat":34.246357,"lng":135.287346,"prefecture":30,"lines":[11636],"attr":"cool","postal_code":"649-6264","address":"和歌山市新庄","voronoi":{"type":"Feature","geometry":{"type":"Polygon","coordinates":[[[135.300473,34.23244],[135.296456,34.281672],[135.294478,34.289488],[135.28294,34.286923],[135.272774,34.268612],[135.275828,34.226662],[135.289998,34.228018],[135.300473,34.23244]]]},"properties":{}},"extra":false},
    {"code":1163633,"id":"7ed308","name":"布施屋","original_name":"布施屋","name_kana":"ほしや","closed":false,"lat":34.244481,"lng":135.261579,"prefecture":30,"lines":[11636],"attr":"cool","postal_code":"649-6321","address":"和歌山市布施屋","voronoi":{"type":"Feature","geometry":{"type":"Polygon","coordinates":[[[135.25146,34.255341],[135.272774,34.268612],[135.275828,34.226662],[135.274208,34.225305],[135.256809,34.225081],[135.25146,34.255341]]]},"properties":{}},"extra":false},
    {"code":1163634,"id":"0185ae","name":"千旦","original_name":"千旦","name_kana":"せんだ","closed":false,"lat":34.24167,"lng":135.245677,"prefecture":30,"lines":[11636],"attr":"cool","postal_code":"641-0035","address":"和歌山市関戸４８５-１","voronoi":{"type":"Feature","geometry":{"type":"Polygon","coordinates":[[[135.25146,34.255341],[135.237993,34.255586],[135.237034,34.223456],[135.242844,34.221972],[135.253837,34.223722],[135.256809,34.225081],[135.25146,34.255341]]]},"properties":{}},"extra":false},
    {"code":1163635,"id":"33204f","name":"田井ノ瀬","original_name":"田井ノ瀬","name_kana":"たいのせ","closed":false,"lat":34.242153,"lng":135.229492,"prefecture":30,"lines":[11636],"attr":"cool","postal_code":"640-8301","address":"和歌山市岩橋","voronoi":{"type":"Feature","geometry":{"type":"Polygon","coordinates":[[[135.227277,34.262194],[135.210379,34.243555],[135.2214,34.224055],[135.221927,34.223618],[135.222829,34.223347],[135.230829,34.222435],[135.237034,34.223456],[135.237993,34.255586],[135.227277,34.262194]]]},"properties":{}},"extra":false},
    {"code":1162635,"id":"9365fa","name":"和歌山","original_name":"和歌山","name_kana":"わかやま","closed":false,"lat":34.232436,"lng":135.191454,"prefecture":30,"lines":[11626,11636,11639,11640,99651],"attr":"cool","postal_code":"640-8331","address":"和歌山市美園町","voronoi":{"type":"Feature","geometry":{"type":"Polygon","coordinates":[[[135.178013,34.228343],[135.177587,34.225884],[135.197701,34.231357],[135.202149,34.238996],[135.186396,34.237142],[135.178013,34.228343]]]},"properties":{}},"extra":false}
  ],
  "extra":false
}