{
  "code":11637,
  "id":156,
  "name":"JR桜井線",
  "name_kana":"じぇいあーるさくらいせん",
  "name_formal":"桜井線",
  "station_size":14,
  "company_code":4,
  "closed":false,
  "color":"#A0283A",
  "symbol":"U",
  "station_list":[
    {"code":1160704,"id":2812,"name":"奈良","original_name":"奈良","name_kana":"なら","closed":false,"lat":34.680482,"lng":135.818935,"prefecture":29,"lines":[11607,11618,11637],"attr":"eco","postal_code":"630-8122","address":"奈良市三条本町","voronoi":{"type":"Feature","geometry":{"type":"Polygon","coordinates":[[[135.825626,34.677018],[135.819492,34.690653],[135.803996,34.665022],[135.808276,34.661228],[135.825626,34.677018]]]},"properties":{}},"extra":false},
    {"code":1163702,"id":3285,"name":"京終","original_name":"京終","name_kana":"きょうばて","closed":false,"lat":34.670031,"lng":135.828446,"prefecture":29,"lines":[11637],"attr":"eco","postal_code":"630-8141","address":"奈良市南京終町","voronoi":{"type":"Feature","geometry":{"type":"Polygon","coordinates":[[[135.825626,34.677018],[135.808276,34.661228],[135.810104,34.658027],[135.937877,34.647396],[135.909465,34.681164],[135.906699,34.682543],[135.825626,34.677018]]]},"properties":{}},"extra":false},
    {"code":1163703,"id":3286,"name":"帯解","original_name":"帯解","name_kana":"おびとけ","closed":false,"lat":34.643156,"lng":135.82621,"prefecture":29,"lines":[11637],"attr":"eco","postal_code":"630-8444","address":"奈良市今市町１丁目","voronoi":{"type":"Feature","geometry":{"type":"Polygon","coordinates":[[[135.806335,34.632],[135.810104,34.658027],[135.937877,34.647396],[135.938082,34.647205],[135.93303,34.634808],[135.931147,34.632672],[135.806335,34.632]]]},"properties":{}},"extra":false},
    {"code":1163704,"id":3287,"name":"櫟本","original_name":"櫟本","name_kana":"いちのもと","closed":false,"lat":34.621058,"lng":135.826329,"prefecture":29,"lines":[11637],"attr":"eco","postal_code":"632-0004","address":"天理市櫟本町","voronoi":{"type":"Feature","geometry":{"type":"Polygon","coordinates":[[[135.930178,34.631307],[135.823321,34.610105],[135.80692,34.618111],[135.803437,34.623776],[135.803351,34.628074],[135.806335,34.632],[135.931147,34.632672],[135.930178,34.631307]]]},"properties":{}},"extra":false},
    {"code":1163705,"id":3288,"name":"天理","original_name":"天理","name_kana":"てんり","closed":false,"lat":34.60113,"lng":135.830283,"prefecture":29,"lines":[11637,31011],"attr":"eco","postal_code":"632-0016","address":"天理市川原城町","voronoi":{"type":"Feature","geometry":{"type":"Polygon","coordinates":[[[135.823321,34.610105],[135.823555,34.586087],[135.903648,34.600206],[135.924795,34.621902],[135.930178,34.631307],[135.823321,34.610105]]]},"properties":{}},"extra":false},
    {"code":1163706,"id":3289,"name":"長柄","original_name":"長柄","name_kana":"ながら","closed":false,"lat":34.574252,"lng":135.835021,"prefecture":29,"lines":[11637],"attr":"eco","postal_code":"632-0044","address":"天理市兵庫町","voronoi":{"type":"Feature","geometry":{"type":"Polygon","coordinates":[[[135.814131,34.561154],[135.810641,34.568431],[135.810172,34.576837],[135.823555,34.586087],[135.903648,34.600206],[135.890178,34.579892],[135.814131,34.561154]]]},"properties":{}},"extra":false},
    {"code":1163707,"id":3290,"name":"柳本","original_name":"柳本","name_kana":"やなぎもと","closed":false,"lat":34.55926,"lng":135.838715,"prefecture":29,"lines":[11637],"attr":"eco","postal_code":"632-0052","address":"天理市柳本町","voronoi":{"type":"Feature","geometry":{"type":"Polygon","coordinates":[[[135.814131,34.561154],[135.815114,34.553547],[135.817086,34.548613],[135.879975,34.558541],[135.890178,34.579892],[135.814131,34.561154]]]},"properties":{}},"extra":false},
    {"code":1163708,"id":3291,"name":"巻向","original_name":"巻向","name_kana":"まきむく","closed":false,"lat":34.545147,"lng":135.840943,"prefecture":29,"lines":[11637],"attr":"eco","postal_code":"633-0083","address":"桜井市辻","voronoi":{"type":"Feature","geometry":{"type":"Polygon","coordinates":[[[135.872963,34.547905],[135.878492,34.553218],[135.879975,34.558541],[135.817086,34.548613],[135.818036,34.536658],[135.821779,34.5337],[135.831076,34.530479],[135.872963,34.547905]]]},"properties":{}},"extra":false},
    {"code":1163709,"id":3292,"name":"三輪","original_name":"三輪","name_kana":"みわ","closed":false,"lat":34.527138,"lng":135.848435,"prefecture":29,"lines":[11637],"attr":"heat","postal_code":"633-0001","address":"桜井市三輪","voronoi":{"type":"Feature","geometry":{"type":"Polygon","coordinates":[[[135.831076,34.530479],[135.837995,34.521434],[135.857186,34.518817],[135.872963,34.547905],[135.831076,34.530479]]]},"properties":{}},"extra":false},
    {"code":1163710,"id":3293,"name":"桜井(奈良)","original_name":"桜井","name_kana":"さくらい","closed":false,"lat":34.513143,"lng":135.846527,"prefecture":29,"lines":[11637,31005],"attr":"heat","postal_code":"633-0091","address":"桜井市桜井","voronoi":{"type":"Feature","geometry":{"type":"Polygon","coordinates":[[[135.856915,34.454355],[135.840485,34.470837],[135.838585,34.487532],[135.837995,34.521434],[135.857186,34.518817],[135.865471,34.454294],[135.856915,34.454355]]]},"properties":{}},"extra":false},
    {"code":1163711,"id":3294,"name":"香久山","original_name":"香久山","name_kana":"かぐやま","closed":false,"lat":34.510704,"lng":135.825092,"prefecture":29,"lines":[11637],"attr":"heat","postal_code":"634-0011","address":"橿原市出垣内町","voronoi":{"type":"Feature","geometry":{"type":"Polygon","coordinates":[[[135.816433,34.490114],[135.82209,34.523364],[135.838585,34.487532],[135.840485,34.470837],[135.830025,34.476991],[135.821668,34.483588],[135.817316,34.488598],[135.816433,34.490114]]]},"properties":{}},"extra":false},
    {"code":1163712,"id":3295,"name":"畝傍","original_name":"畝傍","name_kana":"うねび","closed":false,"lat":34.508209,"lng":135.794154,"prefecture":29,"lines":[11637],"attr":"cool","postal_code":"634-0078","address":"橿原市八木町２","voronoi":{"type":"Feature","geometry":{"type":"Polygon","coordinates":[[[135.789781,34.500455],[135.793101,34.510859],[135.803398,34.516359],[135.806569,34.500564],[135.789781,34.500455]]]},"properties":{}},"extra":false},
    {"code":1163713,"id":3296,"name":"金橋","original_name":"金橋","name_kana":"かなはし","closed":false,"lat":34.509639,"lng":135.765401,"prefecture":29,"lines":[11637],"attr":"cool","postal_code":"634-0837","address":"橿原市曲川町","voronoi":{"type":"Feature","geometry":{"type":"Polygon","coordinates":[[[135.766817,34.516315],[135.755015,34.512122],[135.75415,34.509316],[135.762421,34.501697],[135.777946,34.501189],[135.778034,34.507963],[135.766817,34.516315]]]},"properties":{}},"extra":false},
    {"code":1163606,"id":3255,"name":"高田(奈良)","original_name":"高田","name_kana":"たかだ","closed":false,"lat":34.515916,"lng":135.745033,"prefecture":29,"lines":[11636,11637],"attr":"eco","postal_code":"635-0081","address":"大和高田市高砂町１丁目","voronoi":{"type":"Feature","geometry":{"type":"Polygon","coordinates":[[[135.75415,34.509316],[135.752669,34.50851],[135.737638,34.513503],[135.751733,34.523664],[135.755015,34.512122],[135.75415,34.509316]]]},"properties":{}},"extra":false}
  ],
  "extra":false
}