{
  "code":11708,
  "id":"d4f99a",
  "name":"JR山口線",
  "name_kana":"じぇいあーるやまぐちせん",
  "station_size":28,
  "company_code":4,
  "closed":false,
  "color":"#F37052",
  "station_list":[
    {"code":100315,"id":"4b4a14","name":"新山口","original_name":"新山口","name_kana":"しんやまぐち","closed":false,"lat":34.093255,"lng":131.39657,"prefecture":35,"lines":[1003,11612,11708,11721],"attr":"cool","postal_code":"754-0002","address":"山口市小郡下郷","voronoi":{"type":"Feature","geometry":{"type":"Polygon","coordinates":[[[131.38137,34.108822],[131.351872,34.115494],[131.415008,34.058733],[131.421251,34.082733],[131.38137,34.108822]]]},"properties":{}}},
    {"code":1170802,"id":"e6ad65","name":"周防下郷","original_name":"周防下郷","name_kana":"すおうしもごう","closed":false,"lat":34.101132,"lng":131.401723,"prefecture":35,"lines":[11708],"attr":"eco","postal_code":"754-0002","address":"山口市小郡下郷","voronoi":{"type":"Feature","geometry":{"type":"Polygon","coordinates":[[[131.38137,34.108822],[131.421353,34.108646],[131.430968,34.103878],[131.421251,34.082733],[131.38137,34.108822]]]},"properties":{}}},
    {"code":1170803,"id":"45d545","name":"上郷","original_name":"上郷","name_kana":"かみごう","closed":false,"lat":34.116333,"lng":131.40179,"prefecture":35,"lines":[11708],"attr":"eco","postal_code":"754-0001","address":"山口市小郡上郷","voronoi":{"type":"Feature","geometry":{"type":"Polygon","coordinates":[[[131.38137,34.108822],[131.421353,34.108646],[131.350197,34.186509],[131.343561,34.11996],[131.351872,34.115494],[131.38137,34.108822]]]},"properties":{}}},
    {"code":1170804,"id":"177f92","name":"仁保津","original_name":"仁保津","name_kana":"にほづ","closed":false,"lat":34.128821,"lng":131.415455,"prefecture":35,"lines":[11708],"attr":"eco","postal_code":"754-0001","address":"山口市小郡上郷","voronoi":{"type":"Feature","geometry":{"type":"Polygon","coordinates":[[[131.350038,34.208982],[131.350197,34.186509],[131.421353,34.108646],[131.430968,34.103878],[131.44812,34.115263],[131.350038,34.208982]]]},"properties":{}}},
    {"code":1170805,"id":"c53e1a","name":"大歳","original_name":"大歳","name_kana":"おおとし","closed":false,"lat":34.147278,"lng":131.433091,"prefecture":35,"lines":[11708],"attr":"eco","postal_code":"753-0871","address":"山口市大字朝田","voronoi":{"type":"Feature","geometry":{"type":"Polygon","coordinates":[[[131.350038,34.208982],[131.344442,34.251538],[131.365044,34.263824],[131.389476,34.266983],[131.403687,34.246079],[131.42821,34.193186],[131.448379,34.11532],[131.44812,34.115263],[131.350038,34.208982]]]},"properties":{}}},
    {"code":1170806,"id":"699047","name":"矢原","original_name":"矢原","name_kana":"やばら","closed":false,"lat":34.150681,"lng":131.446229,"prefecture":35,"lines":[11708],"attr":"eco","postal_code":"753-0861","address":"山口市大字矢原","voronoi":{"type":"Feature","geometry":{"type":"Polygon","coordinates":[[[131.42821,34.193186],[131.448379,34.11532],[131.478926,34.116054],[131.42821,34.193186]]]},"properties":{}}},
    {"code":1170807,"id":"972535","name":"湯田温泉","original_name":"湯田温泉","name_kana":"ゆだおんせん","closed":false,"lat":34.159797,"lng":131.460093,"prefecture":35,"lines":[11708],"attr":"eco","postal_code":"753-0055","address":"山口市今井町","voronoi":{"type":"Feature","geometry":{"type":"Polygon","coordinates":[[[131.502827,34.114137],[131.457405,34.187472],[131.403687,34.246079],[131.42821,34.193186],[131.478926,34.116054],[131.498706,34.113043],[131.502827,34.114137]]]},"properties":{}}},
    {"code":1170808,"id":"77c108","name":"山口(山口)","original_name":"山口","name_kana":"やまぐち","closed":false,"lat":34.172737,"lng":131.480985,"prefecture":35,"lines":[11708],"attr":"eco","postal_code":"753-0042","address":"山口市惣太夫町","voronoi":{"type":"Feature","geometry":{"type":"Polygon","coordinates":[[[131.502784,34.16981],[131.457405,34.187472],[131.502827,34.114137],[131.516024,34.114951],[131.528194,34.123857],[131.532667,34.128397],[131.53777,34.136588],[131.502784,34.16981]]]},"properties":{}}},
    {"code":1170809,"id":"d1f835","name":"上山口","original_name":"上山口","name_kana":"かみやまぐち","closed":false,"lat":34.18239,"lng":131.484742,"prefecture":35,"lines":[11708],"attr":"eco","postal_code":"753-0037","address":"山口市道祖町","voronoi":{"type":"Feature","geometry":{"type":"Polygon","coordinates":[[[131.457405,34.187472],[131.403687,34.246079],[131.389476,34.266983],[131.429739,34.282889],[131.502784,34.16981],[131.457405,34.187472]]]},"properties":{}}},
    {"code":1170810,"id":"57f4a1","name":"宮野","original_name":"宮野","name_kana":"みやの","closed":false,"lat":34.191429,"lng":131.498735,"prefecture":35,"lines":[11708],"attr":"eco","postal_code":"753-0021","address":"山口市桜畠２丁目","voronoi":{"type":"Feature","geometry":{"type":"Polygon","coordinates":[[[131.465624,34.282166],[131.551284,34.152863],[131.549613,34.14976],[131.548643,34.148264],[131.53777,34.136588],[131.502784,34.16981],[131.429739,34.282889],[131.450677,34.292976],[131.465624,34.282166]]]},"properties":{}}},
    {"code":1170811,"id":"5e9d1d","name":"仁保","original_name":"仁保","name_kana":"にほ","closed":false,"lat":34.216291,"lng":131.536264,"prefecture":35,"lines":[11708],"attr":"cool","postal_code":"753-0302","address":"山口市仁保中郷","voronoi":{"type":"Feature","geometry":{"type":"Polygon","coordinates":[[[131.594038,34.207286],[131.595354,34.21035],[131.600407,34.224259],[131.600925,34.2264],[131.465624,34.282166],[131.551284,34.152863],[131.570341,34.169724],[131.578013,34.179457],[131.585761,34.190803],[131.594038,34.207286]]]},"properties":{}}},
    {"code":1170812,"id":"824fbd","name":"篠目","original_name":"篠目","name_kana":"しのめ","closed":false,"lat":34.279135,"lng":131.562166,"prefecture":35,"lines":[11708],"attr":"cool","postal_code":"759-1232","address":"山口県山口市阿東篠目字細野","voronoi":{"type":"Feature","geometry":{"type":"Polygon","coordinates":[[[131.488118,34.345512],[131.450677,34.292976],[131.465624,34.282166],[131.600925,34.2264],[131.628441,34.25402],[131.488118,34.345512]]]},"properties":{}}},
    {"code":1170813,"id":"13111e","name":"長門峡","original_name":"長門峡","name_kana":"ちょうもんきょう","closed":false,"lat":34.304532,"lng":131.578725,"prefecture":35,"lines":[11708],"attr":"cool","postal_code":"759-1231","address":"山口県山口市阿東生雲東分字御堂原","voronoi":{"type":"Feature","geometry":{"type":"Polygon","coordinates":[[[131.514691,34.388136],[131.529166,34.399343],[131.63275,34.256793],[131.628441,34.25402],[131.488118,34.345512],[131.49983,34.368792],[131.506149,34.378234],[131.514691,34.388136]]]},"properties":{}}},
    {"code":1170814,"id":"03e6df","name":"渡川","original_name":"渡川","name_kana":"わたりがわ","closed":false,"lat":34.322922,"lng":131.604033,"prefecture":35,"lines":[11708],"attr":"cool","postal_code":"759-1231","address":"山口県山口市阿東生雲東分字渡川","voronoi":{"type":"Feature","geometry":{"type":"Polygon","coordinates":[[[131.540876,34.411536],[131.529166,34.399343],[131.63275,34.256793],[131.670856,34.270834],[131.540876,34.411536]]]},"properties":{}}},
    {"code":1170815,"id":"3b2829","name":"三谷(山口)","original_name":"三谷","name_kana":"みたに","closed":false,"lat":34.341568,"lng":131.624217,"prefecture":35,"lines":[11708],"attr":"cool","postal_code":"759-1231","address":"山口県山口市阿東生雲東分字三谷","voronoi":{"type":"Feature","geometry":{"type":"Polygon","coordinates":[[[131.540876,34.411536],[131.549859,34.423635],[131.565016,34.43788],[131.589772,34.453533],[131.672378,34.271127],[131.670856,34.270834],[131.540876,34.411536]]]},"properties":{}}},
    {"code":1170816,"id":"cc87f2","name":"名草","original_name":"名草","name_kana":"なぐさ","closed":false,"lat":34.353789,"lng":131.651203,"prefecture":35,"lines":[11708],"attr":"cool","postal_code":"759-1422","address":"山口県山口市阿東地福下字名草","voronoi":{"type":"Feature","geometry":{"type":"Polygon","coordinates":[[[131.696435,34.271504],[131.672378,34.271127],[131.589772,34.453533],[131.602343,34.463922],[131.61381,34.469312],[131.631872,34.437627],[131.696435,34.271504]]]},"properties":{}}},
    {"code":1170817,"id":"cc1d81","name":"地福","original_name":"地福","name_kana":"じふく","closed":false,"lat":34.362738,"lng":131.674229,"prefecture":35,"lines":[11708],"attr":"heat","postal_code":"759-1421","address":"山口県山口市阿東地福上字惣原","voronoi":{"type":"Feature","geometry":{"type":"Polygon","coordinates":[[[131.631872,34.437627],[131.696435,34.271504],[131.767875,34.263162],[131.631872,34.437627]]]},"properties":{}}},
    {"code":1170818,"id":"85eec7","name":"鍋倉","original_name":"鍋倉","name_kana":"なべくら","closed":false,"lat":34.378276,"lng":131.694161,"prefecture":35,"lines":[11708],"attr":"heat","postal_code":"759-1513","address":"山口県山口市阿東徳佐下字鍋倉","voronoi":{"type":"Feature","geometry":{"type":"Polygon","coordinates":[[[131.627815,34.479838],[131.61381,34.469312],[131.631872,34.437627],[131.767875,34.263162],[131.800947,34.256154],[131.806251,34.268711],[131.64622,34.462777],[131.627815,34.479838]]]},"properties":{}}},
    {"code":1170819,"id":"9f34cc","name":"徳佐","original_name":"徳佐","name_kana":"とくさ","closed":false,"lat":34.399618,"lng":131.720042,"prefecture":35,"lines":[11708],"attr":"heat","postal_code":"759-1512","address":"山口県山口市阿東徳佐中","voronoi":{"type":"Feature","geometry":{"type":"Polygon","coordinates":[[[131.64622,34.462777],[131.843259,34.335364],[131.806251,34.268711],[131.64622,34.462777]]]},"properties":{}}},
    {"code":1170820,"id":"d09537","name":"船平山","original_name":"船平山","name_kana":"ふなひらやま","closed":false,"lat":34.421369,"lng":131.734107,"prefecture":35,"lines":[11708],"attr":"heat","postal_code":"759-1511","address":"山口県山口市阿東徳佐中字水戸","voronoi":{"type":"Feature","geometry":{"type":"Polygon","coordinates":[[[131.843259,34.335364],[131.854444,34.351707],[131.809252,34.404095],[131.663113,34.51727],[131.652852,34.510691],[131.627815,34.479838],[131.64622,34.462777],[131.843259,34.335364]]]},"properties":{}}},
    {"code":1170821,"id":"2c5ea2","name":"津和野","original_name":"津和野","name_kana":"つわの","closed":false,"lat":34.472529,"lng":131.773727,"prefecture":32,"lines":[11708],"attr":"eco","postal_code":"699-5605","address":"鹿足郡津和野町大字後田","voronoi":{"type":"Feature","geometry":{"type":"Polygon","coordinates":[[[131.663113,34.51727],[131.665655,34.520132],[131.699842,34.543198],[131.776129,34.519826],[131.809252,34.404095],[131.663113,34.51727]]]},"properties":{}}},
    {"code":1170822,"id":"71103f","name":"青野山","original_name":"青野山","name_kana":"あおのやま","closed":false,"lat":34.480962,"lng":131.803191,"prefecture":32,"lines":[11708],"attr":"eco","postal_code":"699-5602","address":"鹿足郡津和野町大字直地","voronoi":{"type":"Feature","geometry":{"type":"Polygon","coordinates":[[[131.809252,34.404095],[131.776129,34.519826],[131.793046,34.520371],[131.958214,34.42838],[131.854444,34.351707],[131.809252,34.404095]]]},"properties":{}}},
    {"code":1170823,"id":"e606b2","name":"日原","original_name":"日原","name_kana":"にちはら","closed":false,"lat":34.532494,"lng":131.831892,"prefecture":32,"lines":[11708],"attr":"eco","postal_code":"699-5207","address":"鹿足郡津和野町枕瀬","voronoi":{"type":"Feature","geometry":{"type":"Polygon","coordinates":[[[131.878681,34.594609],[131.975786,34.598625],[132.015185,34.596723],[132.038054,34.467459],[131.958214,34.42838],[131.793046,34.520371],[131.844928,34.578588],[131.860464,34.588772],[131.878681,34.594609]]]},"properties":{}}},
    {"code":1170824,"id":"7b3de3","name":"青原","original_name":"青原","name_kana":"あおはら","closed":false,"lat":34.560351,"lng":131.800633,"prefecture":32,"lines":[11708],"attr":"eco","postal_code":"699-5215","address":"鹿足郡津和野町冨田","voronoi":{"type":"Feature","geometry":{"type":"Polygon","coordinates":[[[131.793046,34.520371],[131.776129,34.519826],[131.699842,34.543198],[131.709964,34.561233],[131.844928,34.578588],[131.793046,34.520371]]]},"properties":{}}},
    {"code":1170825,"id":"31c080","name":"東青原","original_name":"東青原","name_kana":"ひがしあおはら","closed":false,"lat":34.585026,"lng":131.79746,"prefecture":32,"lines":[11708],"attr":"heat","postal_code":"699-5213","address":"鹿足郡津和野町添谷","voronoi":{"type":"Feature","geometry":{"type":"Polygon","coordinates":[[[131.844928,34.578588],[131.709964,34.561233],[131.724388,34.598007],[131.728059,34.602186],[131.744769,34.61352],[131.860464,34.588772],[131.844928,34.578588]]]},"properties":{}}},
    {"code":1170826,"id":"510903","name":"石見横田","original_name":"石見横田","name_kana":"いわみよこた","closed":false,"lat":34.617965,"lng":131.804506,"prefecture":32,"lines":[11708],"attr":"heat","postal_code":"699-5133","address":"益田市神田町","voronoi":{"type":"Feature","geometry":{"type":"Polygon","coordinates":[[[131.781166,34.657636],[131.744769,34.61352],[131.860464,34.588772],[131.878681,34.594609],[131.781166,34.657636]]]},"properties":{}}},
    {"code":1170827,"id":"022369","name":"本俣賀","original_name":"本俣賀","name_kana":"ほんまたが","closed":false,"lat":34.652647,"lng":131.826922,"prefecture":32,"lines":[11708],"attr":"heat","postal_code":"699-5122","address":"益田市本俣賀町","voronoi":{"type":"Feature","geometry":{"type":"Polygon","coordinates":[[[131.781166,34.657636],[131.787784,34.686604],[131.975786,34.598625],[131.878681,34.594609],[131.781166,34.657636]]]},"properties":{}}},
    {"code":1170145,"id":"f3d307","name":"益田","original_name":"益田","name_kana":"ますだ","closed":false,"lat":34.678311,"lng":131.838932,"prefecture":32,"lines":[11701,11702,11708],"attr":"cool","postal_code":"698-0024","address":"益田市駅前町","voronoi":{"type":"Feature","geometry":{"type":"Polygon","coordinates":[[[132.015185,34.596723],[132.016839,34.604474],[131.78502,34.739389],[131.787784,34.686604],[131.975786,34.598625],[132.015185,34.596723]]]},"properties":{}}}
  ],
  "extra":false
}