{
  "code":11713,
  "id":170,
  "name":"JR吉備線",
  "name_kana":"じぇいあーるきびせん",
  "station_size":10,
  "company_code":4,
  "closed":false,
  "color":"#F6A4B4",
  "symbol":"U",
  "station_list":[
    {"code":100306,"id":2867,"name":"岡山","original_name":"岡山","name_kana":"おかやま","closed":false,"lat":34.666572,"lng":133.918552,"prefecture":33,"lines":[1003,11609,11610,11631,11703,11709,11713,11715],"attr":"heat","postal_code":"700-0024","address":"岡山市駅元町１丁目","voronoi":{"type":"Feature","geometry":{"type":"Polygon","coordinates":[[[133.910571,34.681852],[133.908969,34.6594],[133.914643,34.657084],[133.921643,34.670025],[133.922898,34.675786],[133.910571,34.681852]]]},"properties":{}},"extra":false},
    {"code":1171302,"id":3588,"name":"備前三門","original_name":"備前三門","name_kana":"びぜんみかど","closed":false,"lat":34.66786,"lng":133.900501,"prefecture":33,"lines":[11713],"attr":"cool","postal_code":"700-0051","address":"岡山市下伊福上町","voronoi":{"type":"Feature","geometry":{"type":"Polygon","coordinates":[[[133.910571,34.681852],[133.893193,34.709513],[133.886103,34.68599],[133.898073,34.655159],[133.898915,34.6543],[133.908969,34.6594],[133.910571,34.681852]]]},"properties":{}},"extra":false},
    {"code":1171303,"id":3589,"name":"大安寺","original_name":"大安寺","name_kana":"だいあんじ","closed":false,"lat":34.662894,"lng":133.887711,"prefecture":33,"lines":[11713],"attr":"cool","postal_code":"700-0062","address":"岡山市大安寺中町","voronoi":{"type":"Feature","geometry":{"type":"Polygon","coordinates":[[[133.898073,34.655159],[133.869883,34.661954],[133.886103,34.68599],[133.898073,34.655159]]]},"properties":{}},"extra":false},
    {"code":1171304,"id":3590,"name":"備前一宮","original_name":"備前一宮","name_kana":"びぜんいちのみや","closed":false,"lat":34.678838,"lng":133.864083,"prefecture":33,"lines":[11713],"attr":"cool","postal_code":"701-1211","address":"岡山市一宮","voronoi":{"type":"Feature","geometry":{"type":"Polygon","coordinates":[[[133.847728,34.707163],[133.858967,34.660929],[133.866261,34.658977],[133.869883,34.661954],[133.886103,34.68599],[133.893193,34.709513],[133.891228,34.730255],[133.856674,34.755916],[133.847728,34.707163]]]},"properties":{}},"extra":false},
    {"code":1171305,"id":3591,"name":"吉備津","original_name":"吉備津","name_kana":"きびつ","closed":false,"lat":34.674491,"lng":133.846201,"prefecture":33,"lines":[11713],"attr":"cool","postal_code":"701-1341","address":"岡山市吉備津","voronoi":{"type":"Feature","geometry":{"type":"Polygon","coordinates":[[[133.825168,34.65211],[133.821469,34.655037],[133.847728,34.707163],[133.858967,34.660929],[133.825168,34.65211]]]},"properties":{}},"extra":false},
    {"code":1171306,"id":3592,"name":"備中高松","original_name":"備中高松","name_kana":"びっちゅうたかまつ","closed":false,"lat":34.68649,"lng":133.822382,"prefecture":33,"lines":[11713],"attr":"heat","postal_code":"701-1335","address":"岡山市高松","voronoi":{"type":"Feature","geometry":{"type":"Polygon","coordinates":[[[133.852988,34.760717],[133.796537,34.665128],[133.796129,34.661016],[133.821469,34.655037],[133.847728,34.707163],[133.856674,34.755916],[133.852988,34.760717]]]},"properties":{}},"extra":false},
    {"code":1171307,"id":3593,"name":"足守","original_name":"足守","name_kana":"あしもり","closed":false,"lat":34.698075,"lng":133.802765,"prefecture":33,"lines":[11713],"attr":"heat","postal_code":"701-1357","address":"岡山市福崎","voronoi":{"type":"Feature","geometry":{"type":"Polygon","coordinates":[[[133.769749,34.771049],[133.77488,34.821059],[133.84567,34.773727],[133.852988,34.760717],[133.796537,34.665128],[133.769749,34.771049]]]},"properties":{}},"extra":false},
    {"code":1171308,"id":3594,"name":"服部","original_name":"服部","name_kana":"はっとり","closed":false,"lat":34.691153,"lng":133.775395,"prefecture":33,"lines":[11713],"attr":"heat","postal_code":"719-1117","address":"総社市北溝手","voronoi":{"type":"Feature","geometry":{"type":"Polygon","coordinates":[[[133.769749,34.771049],[133.751189,34.706359],[133.780819,34.653243],[133.796129,34.661016],[133.796537,34.665128],[133.769749,34.771049]]]},"properties":{}},"extra":false},
    {"code":1171309,"id":3595,"name":"東総社","original_name":"東総社","name_kana":"ひがしそうじゃ","closed":false,"lat":34.677774,"lng":133.751411,"prefecture":33,"lines":[11713],"attr":"heat","postal_code":"719-1126","address":"総社市総社","voronoi":{"type":"Feature","geometry":{"type":"Polygon","coordinates":[[[133.751189,34.706359],[133.738917,34.693965],[133.75083,34.656305],[133.773034,34.644617],[133.780819,34.653243],[133.751189,34.706359]]]},"properties":{}},"extra":false},
    {"code":1170307,"id":3437,"name":"総社","original_name":"総社","name_kana":"そうじゃ","closed":false,"lat":34.673534,"lng":133.738007,"prefecture":33,"lines":[11703,11713,99705],"attr":"heat","postal_code":"719-1136","address":"総社市駅前１丁目","voronoi":{"type":"Feature","geometry":{"type":"Polygon","coordinates":[[[133.693525,34.671319],[133.695481,34.673545],[133.738917,34.693965],[133.75083,34.656305],[133.709074,34.662661],[133.693525,34.671319]]]},"properties":{}},"extra":false}
  ],
  "extra":false
}