{
  "code":11714,
  "id":"63f169",
  "name":"JR芸備線",
  "name_kana":"じぇいあーるげいびせん",
  "station_size":46,
  "company_code":4,
  "closed":false,
  "color":"#8F7DB9",
  "symbol":"P",
  "station_list":[
    {"code":100312,"id":"1f0cee","name":"広島","original_name":"広島","name_kana":"ひろしま","closed":false,"lat":34.397446,"lng":132.475593,"prefecture":34,"lines":[1003,11611,11714,11716,11717,10605],"attr":"heat","postal_code":"732-0822","address":"広島市南区松原町","voronoi":{"type":"Feature","geometry":{"type":"Polygon","coordinates":[[[132.485284,34.414921],[132.486455,34.401054],[132.482449,34.397313],[132.477559,34.39653],[132.470376,34.397717],[132.47028,34.397889],[132.470662,34.399501],[132.473755,34.405559],[132.478083,34.411762],[132.48278,34.414387],[132.485284,34.414921]]]},"properties":{}},"impl":true},
    {"code":1171445,"id":"a60b9b","name":"矢賀","original_name":"矢賀","name_kana":"やが","closed":false,"lat":34.399319,"lng":132.497769,"prefecture":34,"lines":[11714],"attr":"heat","postal_code":"732-0042","address":"広島市東区矢賀５丁目","voronoi":{"type":"Feature","geometry":{"type":"Polygon","coordinates":[[[132.522769,34.396071],[132.532033,34.407221],[132.534314,34.425435],[132.487933,34.417653],[132.485284,34.414921],[132.486455,34.401054],[132.490336,34.394193],[132.522769,34.396071]]]},"properties":{}},"impl":true},
    {"code":1171444,"id":"8b42a0","name":"戸坂","original_name":"戸坂","name_kana":"へさか","closed":false,"lat":34.438193,"lng":132.491246,"prefecture":34,"lines":[11714],"attr":"heat","postal_code":"732-0001","address":"広島市東区戸坂惣田１丁目","voronoi":{"type":"Feature","geometry":{"type":"Polygon","coordinates":[[[132.481246,34.435001],[132.482151,34.428907],[132.487933,34.417653],[132.534314,34.425435],[132.53929,34.433051],[132.526453,34.445841],[132.490219,34.451333],[132.484429,34.445323],[132.481246,34.435001]]]},"properties":{}},"impl":true},
    {"code":1171443,"id":"a4e10a","name":"安芸矢口","original_name":"安芸矢口","name_kana":"あきやぐち","closed":false,"lat":34.463579,"lng":132.495094,"prefecture":34,"lines":[11714],"attr":"heat","postal_code":"739-1734","address":"広島市安佐北区口田１丁目","voronoi":{"type":"Feature","geometry":{"type":"Polygon","coordinates":[[[132.501781,34.472612],[132.520134,34.459882],[132.526453,34.445841],[132.490219,34.451333],[132.485842,34.458078],[132.484746,34.461915],[132.485028,34.463313],[132.490665,34.472015],[132.501781,34.472612]]]},"properties":{}},"impl":true},
    {"code":1171442,"id":"c26f2e","name":"玖村","original_name":"玖村","name_kana":"くむら","closed":false,"lat":34.482039,"lng":132.507898,"prefecture":34,"lines":[11714],"attr":"heat","postal_code":"739-1731","address":"広島市安佐北区落合２丁目","voronoi":{"type":"Feature","geometry":{"type":"Polygon","coordinates":[[[132.51529,34.487916],[132.50078,34.484439],[132.501781,34.472612],[132.520134,34.459882],[132.520667,34.474316],[132.51529,34.487916]]]},"properties":{}},"impl":true},
    {"code":1171441,"id":"26e0a3","name":"下深川","original_name":"下深川","name_kana":"しもふかわ","closed":false,"lat":34.488683,"lng":132.524702,"prefecture":34,"lines":[11714],"attr":"heat","postal_code":"739-1751","address":"広島市安佐北区深川１丁目","voronoi":{"type":"Feature","geometry":{"type":"Polygon","coordinates":[[[132.520667,34.474316],[132.51529,34.487916],[132.515482,34.491123],[132.535327,34.510897],[132.551416,34.520511],[132.552751,34.51341],[132.520667,34.474316]]]},"properties":{}},"impl":true},
    {"code":1171440,"id":"134625","name":"中深川","original_name":"中深川","name_kana":"なかふかわ","closed":false,"lat":34.481076,"lng":132.533971,"prefecture":34,"lines":[11714],"attr":"heat","postal_code":"739-1751","address":"広島市安佐北区深川５丁目","voronoi":{"type":"Feature","geometry":{"type":"Polygon","coordinates":[[[132.552906,34.512981],[132.553558,34.50768],[132.540151,34.433332],[132.53929,34.433051],[132.526453,34.445841],[132.520134,34.459882],[132.520667,34.474316],[132.552751,34.51341],[132.552906,34.512981]]]},"properties":{}},"impl":true},
    {"code":1171439,"id":"029ea8","name":"上深川","original_name":"上深川","name_kana":"かみふかわ","closed":false,"lat":34.47591,"lng":132.562619,"prefecture":34,"lines":[11714],"attr":"heat","postal_code":"739-1752","address":"広島市安佐北区上深川町","voronoi":{"type":"Feature","geometry":{"type":"Polygon","coordinates":[[[132.542432,34.43335],[132.540151,34.433332],[132.553558,34.50768],[132.585563,34.458679],[132.542432,34.43335]]]},"properties":{}},"impl":true},
    {"code":1171438,"id":"3d4379","name":"狩留家","original_name":"狩留家","name_kana":"かるが","closed":false,"lat":34.486614,"lng":132.579007,"prefecture":34,"lines":[11714],"attr":"heat","postal_code":"739-1753","address":"広島市安佐北区狩留家町","voronoi":{"type":"Feature","geometry":{"type":"Polygon","coordinates":[[[132.552906,34.512981],[132.553558,34.50768],[132.585563,34.458679],[132.608133,34.462855],[132.623629,34.467011],[132.621481,34.469424],[132.552906,34.512981]]]},"properties":{}},"impl":true},
    {"code":1171437,"id":"dcad9e","name":"白木山","original_name":"白木山","name_kana":"しらきやま","closed":false,"lat":34.500563,"lng":132.587867,"prefecture":34,"lines":[11714],"attr":"heat","postal_code":"739-1521","address":"広島市安佐北区白木町三田","voronoi":{"type":"Feature","geometry":{"type":"Polygon","coordinates":[[[132.552906,34.512981],[132.552751,34.51341],[132.551416,34.520511],[132.559105,34.572078],[132.621481,34.469424],[132.552906,34.512981]]]},"properties":{}},"impl":true},
    {"code":1171436,"id":"d50436","name":"中三田","original_name":"中三田","name_kana":"なかみた","closed":false,"lat":34.513604,"lng":132.609329,"prefecture":34,"lines":[11714],"attr":"heat","postal_code":"739-1521","address":"広島市安佐北区白木町三田","voronoi":{"type":"Feature","geometry":{"type":"Polygon","coordinates":[[[132.636032,34.464913],[132.623629,34.467011],[132.621481,34.469424],[132.559105,34.572078],[132.559019,34.577601],[132.560211,34.617763],[132.655046,34.486879],[132.636032,34.464913]]]},"properties":{}},"impl":true},
    {"code":1171435,"id":"82b3ae","name":"上三田","original_name":"上三田","name_kana":"かみみた","closed":false,"lat":34.538646,"lng":132.64389,"prefecture":34,"lines":[11714],"attr":"heat","postal_code":"739-1521","address":"広島市安佐北区白木町三田","voronoi":{"type":"Feature","geometry":{"type":"Polygon","coordinates":[[[132.558286,34.631138],[132.558075,34.631282],[132.560211,34.617763],[132.655046,34.486879],[132.695409,34.506008],[132.558286,34.631138]]]},"properties":{}},"impl":true},
    {"code":1171434,"id":"59f5d2","name":"志和口","original_name":"志和口","name_kana":"しわぐち","closed":false,"lat":34.554333,"lng":132.658205,"prefecture":34,"lines":[11714],"attr":"heat","postal_code":"739-1411","address":"広島市安佐北区白木町市川","voronoi":{"type":"Feature","geometry":{"type":"Polygon","coordinates":[[[132.743313,34.526418],[132.558286,34.631138],[132.695409,34.506008],[132.717902,34.512173],[132.743313,34.526418]]]},"properties":{}},"impl":true},
    {"code":1171433,"id":"253350","name":"井原市","original_name":"井原市","name_kana":"いばらいち","closed":false,"lat":34.585013,"lng":132.675569,"prefecture":34,"lines":[11714],"attr":"heat","postal_code":"739-1301","address":"広島市安佐北区白木町井原","voronoi":{"type":"Feature","geometry":{"type":"Polygon","coordinates":[[[132.558075,34.631282],[132.558286,34.631138],[132.743313,34.526418],[132.746567,34.52747],[132.746998,34.52782],[132.635588,34.691287],[132.61016,34.713876],[132.525838,34.727404],[132.530208,34.700862],[132.558075,34.631282]]]},"properties":{}},"impl":true},
    {"code":1171432,"id":"e22130","name":"向原(広島)","original_name":"向原","name_kana":"むかいはら","closed":false,"lat":34.615215,"lng":132.719883,"prefecture":34,"lines":[11714],"attr":"heat","postal_code":"739-1201","address":"安芸高田市向原町坂","voronoi":{"type":"Feature","geometry":{"type":"Polygon","coordinates":[[[132.746998,34.52782],[132.635588,34.691287],[132.839005,34.583323],[132.79826,34.548547],[132.746998,34.52782]]]},"properties":{}},"impl":true},
    {"code":1171431,"id":"aba69b","name":"吉田口","original_name":"吉田口","name_kana":"よしだぐち","closed":false,"lat":34.664106,"lng":132.745832,"prefecture":34,"lines":[11714],"attr":"heat","postal_code":"739-1103","address":"安芸高田市甲田町下小原","voronoi":{"type":"Feature","geometry":{"type":"Polygon","coordinates":[[[132.659602,34.724707],[132.61016,34.713876],[132.635588,34.691287],[132.839005,34.583323],[132.843889,34.585866],[132.882123,34.614177],[132.659602,34.724707]]]},"properties":{}},"impl":true},
    {"code":1171430,"id":"49c9bf","name":"甲立","original_name":"甲立","name_kana":"こうたち","closed":false,"lat":34.692611,"lng":132.759991,"prefecture":34,"lines":[11714],"attr":"heat","postal_code":"739-1101","address":"安芸高田市甲田町高田原","voronoi":{"type":"Feature","geometry":{"type":"Polygon","coordinates":[[[132.889077,34.618228],[132.882123,34.614177],[132.659602,34.724707],[132.710483,34.744281],[132.722191,34.747149],[132.875341,34.630835],[132.889077,34.618228]]]},"properties":{}},"impl":true},
    {"code":1171429,"id":"a7fc0f","name":"上川立","original_name":"上川立","name_kana":"かみかわたち","closed":false,"lat":34.725373,"lng":132.784873,"prefecture":34,"lines":[11714],"attr":"heat","postal_code":"729-6334","address":"三次市上川立町","voronoi":{"type":"Feature","geometry":{"type":"Polygon","coordinates":[[[132.722191,34.747149],[132.732285,34.753413],[132.752847,34.7616],[132.768027,34.765035],[132.768967,34.764996],[132.875341,34.630835],[132.722191,34.747149]]]},"properties":{}},"impl":true},
    {"code":1171428,"id":"a87e5d","name":"志和地","original_name":"志和地","name_kana":"しわち","closed":false,"lat":34.740475,"lng":132.80392,"prefecture":34,"lines":[11714],"attr":"heat","postal_code":"729-6331","address":"三次市下志和地町","voronoi":{"type":"Feature","geometry":{"type":"Polygon","coordinates":[[[132.89163,34.650848],[132.871939,34.714918],[132.859284,34.74599],[132.814528,34.774548],[132.809492,34.775196],[132.768967,34.764996],[132.875341,34.630835],[132.889077,34.618228],[132.889397,34.618329],[132.89163,34.650848]]]},"properties":{}},"impl":true},
    {"code":1171427,"id":"a7325d","name":"西三次","original_name":"西三次","name_kana":"にしみよし","closed":false,"lat":34.798524,"lng":132.840961,"prefecture":34,"lines":[11714],"attr":"cool","postal_code":"728-0015","address":"三次市十日市町下原","voronoi":{"type":"Feature","geometry":{"type":"Polygon","coordinates":[[[132.859284,34.74599],[132.814528,34.774548],[132.827748,34.806337],[132.847167,34.805327],[132.86142,34.753406],[132.859284,34.74599]]]},"properties":{}},"impl":true},
    {"code":1170735,"id":"5c7afb","name":"三次","original_name":"三次","name_kana":"みよし","closed":false,"lat":34.802646,"lng":132.855976,"prefecture":34,"lines":[11707,11714,11720],"attr":"eco","postal_code":"728-0014","address":"三次市十日市南１丁目","voronoi":{"type":"Feature","geometry":{"type":"Polygon","coordinates":[[[132.866726,34.764727],[132.867959,34.834743],[132.847167,34.805327],[132.86142,34.753406],[132.866726,34.764727]]]},"properties":{}},"impl":true},
    {"code":1171425,"id":"4d7577","name":"八次","original_name":"八次","name_kana":"やつぎ","closed":false,"lat":34.802244,"lng":132.878805,"prefecture":34,"lines":[11714,11720],"attr":"eco","postal_code":"728-0017","address":"三次市南畑敷町","voronoi":{"type":"Feature","geometry":{"type":"Polygon","coordinates":[[[132.906865,34.848705],[132.902523,34.804554],[132.866726,34.764727],[132.867959,34.834743],[132.887605,34.904214],[132.906865,34.848705]]]},"properties":{}},"impl":true},
    {"code":1171424,"id":"79b853","name":"神杉","original_name":"神杉","name_kana":"かみすぎ","closed":false,"lat":34.780725,"lng":132.902747,"prefecture":34,"lines":[11714,11720],"attr":"eco","postal_code":"729-6214","address":"三次市高杉町","voronoi":{"type":"Feature","geometry":{"type":"Polygon","coordinates":[[[132.871939,34.714918],[132.859284,34.74599],[132.86142,34.753406],[132.866726,34.764727],[132.902523,34.804554],[132.914641,34.788397],[132.871939,34.714918]]]},"properties":{}},"impl":true},
    {"code":1171423,"id":"b84b59","name":"塩町","original_name":"塩町","name_kana":"しおまち","closed":false,"lat":34.774265,"lng":132.913863,"prefecture":34,"lines":[11714,11720],"attr":"cool","postal_code":"729-6205","address":"三次市塩町","voronoi":{"type":"Feature","geometry":{"type":"Polygon","coordinates":[[[132.937049,34.777412],[132.914641,34.788397],[132.871939,34.714918],[132.89163,34.650848],[132.923318,34.703119],[132.937049,34.777412]]]},"properties":{}},"impl":true},
    {"code":1171422,"id":"51cc06","name":"下和知","original_name":"下和知","name_kana":"しもわち","closed":false,"lat":34.797668,"lng":132.925336,"prefecture":34,"lines":[11714],"attr":"cool","postal_code":"729-6201","address":"三次市和知町","voronoi":{"type":"Feature","geometry":{"type":"Polygon","coordinates":[[[132.914641,34.788397],[132.902523,34.804554],[132.906865,34.848705],[132.957051,34.797898],[132.937049,34.777412],[132.914641,34.788397]]]},"properties":{}},"impl":true},
    {"code":1171421,"id":"b454f7","name":"山ノ内(広島)","original_name":"山ノ内","name_kana":"やまのうち","closed":false,"lat":34.829608,"lng":132.957671,"prefecture":34,"lines":[11714],"attr":"cool","postal_code":"729-6131","address":"庄原市山内町","voronoi":{"type":"Feature","geometry":{"type":"Polygon","coordinates":[[[132.887605,34.904214],[132.872034,35.011249],[132.922733,34.930412],[132.992303,34.797846],[132.957051,34.797898],[132.906865,34.848705],[132.887605,34.904214]]]},"properties":{}},"impl":true},
    {"code":1171420,"id":"2d0635","name":"七塚","original_name":"七塚","name_kana":"ななつか","closed":false,"lat":34.844391,"lng":132.98584,"prefecture":34,"lines":[11714],"attr":"eco","postal_code":"727-0023","address":"庄原市七塚町","voronoi":{"type":"Feature","geometry":{"type":"Polygon","coordinates":[[[133.008399,34.792029],[132.992303,34.797846],[132.922733,34.930412],[133.027672,34.808276],[133.031045,34.802581],[133.008399,34.792029]]]},"properties":{}},"impl":true},
    {"code":1171419,"id":"e614fe","name":"備後三日市","original_name":"備後三日市","name_kana":"びんごみっかいち","closed":false,"lat":34.85507,"lng":132.998269,"prefecture":34,"lines":[11714],"attr":"eco","postal_code":"727-0021","address":"庄原市三日市町","voronoi":{"type":"Feature","geometry":{"type":"Polygon","coordinates":[[[132.939117,35.026224],[132.936085,35.02816],[132.86683,35.030495],[132.872034,35.011249],[132.922733,34.930412],[133.027672,34.808276],[132.939117,35.026224]]]},"properties":{}},"impl":true},
    {"code":1171418,"id":"385f99","name":"備後庄原","original_name":"備後庄原","name_kana":"びんごしょうばら","closed":false,"lat":34.862317,"lng":133.016105,"prefecture":34,"lines":[11714],"attr":"eco","postal_code":"727-0012","address":"庄原市中本町２丁目","voronoi":{"type":"Feature","geometry":{"type":"Polygon","coordinates":[[[133.031045,34.802581],[133.061234,34.807031],[133.02074,34.949751],[132.997054,34.989124],[132.987784,34.998674],[132.939117,35.026224],[133.027672,34.808276],[133.031045,34.802581]]]},"properties":{}},"impl":true},
    {"code":1171417,"id":"008334","name":"高","original_name":"高","name_kana":"たか","closed":false,"lat":34.87778,"lng":133.070603,"prefecture":34,"lines":[11714],"attr":"eco","postal_code":"729-5811","address":"庄原市高町市場","voronoi":{"type":"Feature","geometry":{"type":"Polygon","coordinates":[[[133.181715,34.808884],[133.181014,34.814811],[133.02074,34.949751],[133.061234,34.807031],[133.113516,34.793024],[133.1221,34.793553],[133.181715,34.808884]]]},"properties":{}},"impl":true},
    {"code":1171416,"id":"573c4d","name":"平子","original_name":"平子","name_kana":"ひらこ","closed":false,"lat":34.912879,"lng":133.100154,"prefecture":34,"lines":[11714],"attr":"eco","postal_code":"729-5723","address":"庄原市西城町平子","voronoi":{"type":"Feature","geometry":{"type":"Polygon","coordinates":[[[133.02074,34.949751],[132.997054,34.989124],[133.060997,34.961495],[133.174779,34.880402],[133.182599,34.839645],[133.181014,34.814811],[133.02074,34.949751]]]},"properties":{}},"impl":true},
    {"code":1171415,"id":"a80a54","name":"備後西城","original_name":"備後西城","name_kana":"びんごさいじょう","closed":false,"lat":34.940345,"lng":133.119729,"prefecture":34,"lines":[11714],"attr":"eco","postal_code":"729-5722","address":"庄原市西城町大佐","voronoi":{"type":"Feature","geometry":{"type":"Polygon","coordinates":[[[133.176036,34.94595],[133.060997,34.961495],[133.174779,34.880402],[133.176036,34.94595]]]},"properties":{}},"impl":true},
    {"code":1171414,"id":"c2c7d8","name":"比婆山","original_name":"比婆山","name_kana":"ひばやま","closed":false,"lat":34.966298,"lng":133.123236,"prefecture":34,"lines":[11714],"attr":"eco","postal_code":"729-5744","address":"庄原市西城町大屋","voronoi":{"type":"Feature","geometry":{"type":"Polygon","coordinates":[[[133.175282,34.955333],[133.106604,35.004691],[132.987784,34.998674],[132.997054,34.989124],[133.060997,34.961495],[133.176036,34.94595],[133.177043,34.949851],[133.175282,34.955333]]]},"properties":{}},"impl":true},
    {"code":1170618,"id":"89e800","name":"備後落合","original_name":"備後落合","name_kana":"びんごおちあい","closed":false,"lat":35.001167,"lng":133.148296,"prefecture":34,"lines":[11706,11714],"attr":"heat","postal_code":"729-5613","address":"庄原市西城町八鳥","voronoi":{"type":"Feature","geometry":{"type":"Polygon","coordinates":[[[133.106604,35.004691],[133.175282,34.955333],[133.176372,34.965697],[133.153533,35.036073],[133.106604,35.004691]]]},"properties":{}},"impl":true},
    {"code":1171412,"id":"d095c5","name":"道後山","original_name":"道後山","name_kana":"どうごやま","closed":false,"lat":35.010894,"lng":133.178269,"prefecture":34,"lines":[11714],"attr":"eco","postal_code":"729-5612","address":"庄原市西城町高尾","voronoi":{"type":"Feature","geometry":{"type":"Polygon","coordinates":[[[133.231138,35.108057],[133.176773,35.073815],[133.173745,35.071485],[133.153533,35.036073],[133.176372,34.965697],[133.242109,35.098209],[133.231138,35.108057]]]},"properties":{}},"impl":true},
    {"code":1171411,"id":"68a354","name":"小奴可","original_name":"小奴可","name_kana":"おぬか","closed":false,"lat":34.994552,"lng":133.211211,"prefecture":34,"lines":[11714],"attr":"eco","postal_code":"729-5501","address":"庄原市東城町小奴可","voronoi":{"type":"Feature","geometry":{"type":"Polygon","coordinates":[[[133.177043,34.949851],[133.175282,34.955333],[133.176372,34.965697],[133.242109,35.098209],[133.245334,35.096184],[133.280414,35.05457],[133.290712,35.036148],[133.288765,35.026814],[133.180932,34.951291],[133.177043,34.949851]]]},"properties":{}},"impl":true},
    {"code":1171410,"id":"bb84d4","name":"内名","original_name":"内名","name_kana":"うちな","closed":false,"lat":34.964959,"lng":133.231937,"prefecture":34,"lines":[11714],"attr":"eco","postal_code":"729-5126","address":"庄原市東城町竹森","voronoi":{"type":"Feature","geometry":{"type":"Polygon","coordinates":[[[133.288765,35.026814],[133.180932,34.951291],[133.280747,34.951847],[133.281731,34.952498],[133.282163,34.953232],[133.289214,34.986238],[133.288765,35.026814]]]},"properties":{}},"impl":true},
    {"code":1171409,"id":"e8640b","name":"備後八幡","original_name":"備後八幡","name_kana":"びんごやわた","closed":false,"lat":34.938192,"lng":133.232086,"prefecture":34,"lines":[11714],"attr":"eco","postal_code":"729-5452","address":"庄原市東城町菅","voronoi":{"type":"Feature","geometry":{"type":"Polygon","coordinates":[[[133.177043,34.949851],[133.176036,34.94595],[133.174779,34.880402],[133.182599,34.839645],[133.280747,34.951847],[133.180932,34.951291],[133.177043,34.949851]]]},"properties":{}},"impl":true},
    {"code":1171408,"id":"84a51f","name":"東城","original_name":"東城","name_kana":"とうじょう","closed":false,"lat":34.901802,"lng":133.273687,"prefecture":34,"lines":[11714],"attr":"eco","postal_code":"729-5121","address":"庄原市東城町川東","voronoi":{"type":"Feature","geometry":{"type":"Polygon","coordinates":[[[133.181014,34.814811],[133.182599,34.839645],[133.280747,34.951847],[133.281731,34.952498],[133.347348,34.738731],[133.332853,34.731508],[133.33112,34.731072],[133.321853,34.729359],[133.311374,34.730276],[133.281379,34.733698],[133.181715,34.808884],[133.181014,34.814811]]]},"properties":{}},"impl":true},
    {"code":1171407,"id":"e685c3","name":"野馳","original_name":"野馳","name_kana":"のち","closed":false,"lat":34.915046,"lng":133.316833,"prefecture":33,"lines":[11714],"attr":"eco","postal_code":"719-3812","address":"新見市哲西町畑木","voronoi":{"type":"Feature","geometry":{"type":"Polygon","coordinates":[[[133.424688,34.826252],[133.424972,34.822861],[133.415688,34.76477],[133.412292,34.763166],[133.382913,34.751146],[133.347348,34.738731],[133.281731,34.952498],[133.282163,34.953232],[133.411454,34.880472],[133.424688,34.826252]]]},"properties":{}},"impl":true},
    {"code":1171406,"id":"ed403d","name":"矢神","original_name":"矢神","name_kana":"やがみ","closed":false,"lat":34.943413,"lng":133.332797,"prefecture":33,"lines":[11714],"attr":"heat","postal_code":"719-3701","address":"新見市哲西町矢田","voronoi":{"type":"Feature","geometry":{"type":"Polygon","coordinates":[[[133.367946,34.937413],[133.411369,34.881572],[133.411454,34.880472],[133.282163,34.953232],[133.289214,34.986238],[133.367946,34.937413]]]},"properties":{}},"impl":true},
    {"code":1171405,"id":"5d5925","name":"市岡","original_name":"市岡","name_kana":"いちおか","closed":false,"lat":34.966232,"lng":133.346948,"prefecture":33,"lines":[11714],"attr":"heat","postal_code":"719-3702","address":"新見市哲西町上神代","voronoi":{"type":"Feature","geometry":{"type":"Polygon","coordinates":[[[133.367946,34.937413],[133.289214,34.986238],[133.288765,35.026814],[133.290712,35.036148],[133.30324,35.033895],[133.346957,35.011826],[133.367946,34.937413]]]},"properties":{}},"impl":true},
    {"code":1171404,"id":"54a128","name":"坂根","original_name":"坂根","name_kana":"さかね","closed":false,"lat":34.972957,"lng":133.37079,"prefecture":33,"lines":[11714],"attr":"cool","postal_code":"719-3611","address":"新見市神郷下神代","voronoi":{"type":"Feature","geometry":{"type":"Polygon","coordinates":[[[133.411369,34.881572],[133.367946,34.937413],[133.346957,35.011826],[133.368611,35.007608],[133.402335,34.9608],[133.416539,34.912444],[133.411369,34.881572]]]},"properties":{}},"impl":true},
    {"code":1170319,"id":"33e9dc","name":"備中神代","original_name":"備中神代","name_kana":"びっちゅうこうじろ","closed":false,"lat":34.994571,"lng":133.40079,"prefecture":33,"lines":[11703,11714],"attr":"cool","postal_code":"718-0017","address":"新見市西方","voronoi":{"type":"Feature","geometry":{"type":"Polygon","coordinates":[[[133.422771,35.028562],[133.368611,35.007608],[133.402335,34.9608],[133.422771,35.028562]]]},"properties":{}},"impl":true},
    {"code":1171402,"id":"b4e227","name":"布原","original_name":"布原","name_kana":"ぬのはら","closed":false,"lat":34.988086,"lng":133.422293,"prefecture":33,"lines":[11714],"attr":"cool","postal_code":"718-0017","address":"新見市西方","voronoi":{"type":"Feature","geometry":{"type":"Polygon","coordinates":[[[133.43859,34.950292],[133.416539,34.912444],[133.402335,34.9608],[133.422771,35.028562],[133.440872,35.042331],[133.43859,34.950292]]]},"properties":{}},"impl":true},
    {"code":1163425,"id":"c2ade2","name":"新見","original_name":"新見","name_kana":"にいみ","closed":false,"lat":34.987232,"lng":133.45674,"prefecture":33,"lines":[11634,11703,11714],"attr":"cool","postal_code":"718-0017","address":"新見市西方","voronoi":{"type":"Feature","geometry":{"type":"Polygon","coordinates":[[[133.494486,34.98947],[133.43859,34.950292],[133.440872,35.042331],[133.451516,35.057388],[133.494486,34.98947]]]},"properties":{}},"impl":true}
  ],
  "impl":true
}