{
  "code":11721,
  "id":"1be1cb",
  "name":"JR宇部線",
  "name_kana":"じぇいあーるうべせん",
  "station_size":18,
  "company_code":4,
  "closed":false,
  "color":"#B02857",
  "station_list":[
    {"code":100315,"id":"4b4a14","name":"新山口","original_name":"新山口","name_kana":"しんやまぐち","closed":false,"lat":34.093255,"lng":131.39657,"prefecture":35,"lines":[1003,11612,11708,11721],"attr":"cool","postal_code":"754-0002","address":"山口市小郡下郷","voronoi":{"type":"Feature","geometry":{"type":"Polygon","coordinates":[[[131.38137,34.108822],[131.351872,34.115494],[131.415008,34.058733],[131.421251,34.082733],[131.38137,34.108822]]]},"properties":{}},"extra":false},
    {"code":1172102,"id":"594387","name":"上嘉川","original_name":"上嘉川","name_kana":"かみかがわ","closed":false,"lat":34.073407,"lng":131.378726,"prefecture":35,"lines":[11721],"attr":"cool","postal_code":"754-0897","address":"山口市大字嘉川","voronoi":{"type":"Feature","geometry":{"type":"Polygon","coordinates":[[[131.415008,34.058733],[131.351872,34.115494],[131.343561,34.11996],[131.339075,34.112308],[131.384625,34.057503],[131.415948,34.048713],[131.415008,34.058733]]]},"properties":{}},"extra":false},
    {"code":1172103,"id":"30d8a1","name":"深溝","original_name":"深溝","name_kana":"ふかみぞ","closed":false,"lat":34.04699,"lng":131.371313,"prefecture":35,"lines":[11721],"attr":"cool","postal_code":"754-0895","address":"山口市大字深溝","voronoi":{"type":"Feature","geometry":{"type":"Polygon","coordinates":[[[131.410436,34.013752],[131.351032,34.05138],[131.348967,34.055193],[131.384625,34.057503],[131.415948,34.048713],[131.431915,34.011535],[131.432361,34.003259],[131.410436,34.013752]]]},"properties":{}},"extra":false},
    {"code":1172104,"id":"98d804","name":"周防佐山","original_name":"周防佐山","name_kana":"すおうさやま","closed":false,"lat":34.034919,"lng":131.363667,"prefecture":35,"lines":[11721],"attr":"cool","postal_code":"754-0894","address":"山口市大字佐山","voronoi":{"type":"Feature","geometry":{"type":"Polygon","coordinates":[[[131.353907,34.031657],[131.351032,34.05138],[131.410436,34.013752],[131.353907,34.031657]]]},"properties":{}},"extra":false},
    {"code":1172105,"id":"e20a51","name":"岩倉(山口)","original_name":"岩倉","name_kana":"いわくら","closed":false,"lat":34.02337,"lng":131.360009,"prefecture":35,"lines":[11721],"attr":"cool","postal_code":"754-1277","address":"山口市阿知須","voronoi":{"type":"Feature","geometry":{"type":"Polygon","coordinates":[[[131.410436,34.013752],[131.432361,34.003259],[131.433749,33.997305],[131.347634,34.019741],[131.353907,34.031657],[131.410436,34.013752]]]},"properties":{}},"extra":false},
    {"code":1172106,"id":"bdbaf3","name":"阿知須","original_name":"阿知須","name_kana":"あじす","closed":false,"lat":34.010535,"lng":131.356665,"prefecture":35,"lines":[11721],"attr":"cool","postal_code":"754-1277","address":"山口市阿知須","voronoi":{"type":"Feature","geometry":{"type":"Polygon","coordinates":[[[131.330442,34.009292],[131.347634,34.019741],[131.433749,33.997305],[131.445619,33.960747],[131.330442,34.009292]]]},"properties":{}},"extra":false},
    {"code":1172107,"id":"35ccf9","name":"岐波","original_name":"岐波","name_kana":"きわ","closed":false,"lat":33.989654,"lng":131.347864,"prefecture":35,"lines":[11721],"attr":"cool","postal_code":"755-0241","address":"宇部市大字東岐波","voronoi":{"type":"Feature","geometry":{"type":"Polygon","coordinates":[[[131.303165,34.006559],[131.301296,34.003509],[131.470212,33.906455],[131.445619,33.960747],[131.330442,34.009292],[131.303165,34.006559]]]},"properties":{}},"extra":false},
    {"code":1172108,"id":"8a121e","name":"丸尾","original_name":"丸尾","name_kana":"まるお","closed":false,"lat":33.970255,"lng":131.336718,"prefecture":35,"lines":[11721],"attr":"cool","postal_code":"755-0241","address":"宇部市大字東岐波","voronoi":{"type":"Feature","geometry":{"type":"Polygon","coordinates":[[[131.438999,33.776519],[131.434252,33.775974],[131.374124,33.866289],[131.29901,34.001208],[131.301296,34.003509],[131.470212,33.906455],[131.529242,33.79866],[131.438999,33.776519]]]},"properties":{}},"extra":false},
    {"code":1172109,"id":"955958","name":"床波","original_name":"床波","name_kana":"とこなみ","closed":false,"lat":33.952851,"lng":131.305457,"prefecture":35,"lines":[11721],"attr":"cool","postal_code":"755-0151","address":"宇部市大字西岐波","voronoi":{"type":"Feature","geometry":{"type":"Polygon","coordinates":[[[131.374124,33.866289],[131.29901,34.001208],[131.278737,33.992318],[131.278782,33.97676],[131.27961,33.967742],[131.374124,33.866289]]]},"properties":{}},"extra":false},
    {"code":1172110,"id":"a1e3af","name":"常盤(山口)","original_name":"常盤","name_kana":"ときわ","closed":false,"lat":33.940907,"lng":131.292636,"prefecture":35,"lines":[11721],"attr":"eco","postal_code":"755-0151","address":"宇部市大字西岐波","voronoi":{"type":"Feature","geometry":{"type":"Polygon","coordinates":[[[131.376142,33.761978],[131.434252,33.775974],[131.374124,33.866289],[131.27961,33.967742],[131.278221,33.961108],[131.326572,33.755212],[131.349902,33.75709],[131.376142,33.761978]]]},"properties":{}},"extra":false},
    {"code":1172111,"id":"9cad45","name":"草江","original_name":"草江","name_kana":"くさえ","closed":false,"lat":33.936602,"lng":131.274304,"prefecture":35,"lines":[11721],"attr":"eco","postal_code":"755-0004","address":"宇部市草江３丁目","voronoi":{"type":"Feature","geometry":{"type":"Polygon","coordinates":[[[131.266832,33.944304],[131.296272,33.758175],[131.325998,33.755137],[131.326572,33.755212],[131.278221,33.961108],[131.266832,33.944304]]]},"properties":{}},"extra":false},
    {"code":1172112,"id":"2ee3c0","name":"宇部岬","original_name":"宇部岬","name_kana":"うべみさき","closed":false,"lat":33.934672,"lng":131.262102,"prefecture":35,"lines":[11721],"attr":"eco","postal_code":"755-0026","address":"宇部市松山町５丁目","voronoi":{"type":"Feature","geometry":{"type":"Polygon","coordinates":[[[131.202929,33.776741],[131.243935,33.763216],[131.254305,33.761011],[131.296272,33.758175],[131.266832,33.944304],[131.239138,33.933822],[131.232767,33.930338],[131.215743,33.916214],[131.215493,33.914908],[131.202929,33.776741]]]},"properties":{}},"extra":false},
    {"code":1172113,"id":"414ef9","name":"東新川(山口)","original_name":"東新川","name_kana":"ひがししんかわ","closed":false,"lat":33.94839,"lng":131.25691,"prefecture":35,"lines":[11721],"attr":"eco","postal_code":"755-0019","address":"宇部市東新川町","voronoi":{"type":"Feature","geometry":{"type":"Polygon","coordinates":[[[131.278221,33.961108],[131.266832,33.944304],[131.239138,33.933822],[131.278782,33.97676],[131.27961,33.967742],[131.278221,33.961108]]]},"properties":{}},"extra":false},
    {"code":1172114,"id":"5986ca","name":"琴芝","original_name":"琴芝","name_kana":"ことしば","closed":false,"lat":33.952698,"lng":131.252244,"prefecture":35,"lines":[11721],"attr":"eco","postal_code":"755-0033","address":"宇部市琴芝町２丁目","voronoi":{"type":"Feature","geometry":{"type":"Polygon","coordinates":[[[131.269581,33.993975],[131.232767,33.930338],[131.239138,33.933822],[131.278782,33.97676],[131.278737,33.992318],[131.269581,33.993975]]]},"properties":{}},"extra":false},
    {"code":1172115,"id":"abc42f","name":"宇部新川","original_name":"宇部新川","name_kana":"うべしんかわ","closed":false,"lat":33.958369,"lng":131.242441,"prefecture":35,"lines":[11721,11723],"attr":"heat","postal_code":"755-0051","address":"宇部市上町１丁目","voronoi":{"type":"Feature","geometry":{"type":"Polygon","coordinates":[[[131.243953,33.97693],[131.214258,33.928139],[131.215743,33.916214],[131.232767,33.930338],[131.269581,33.993975],[131.26567,33.995209],[131.243953,33.97693]]]},"properties":{}},"extra":false},
    {"code":1172116,"id":"0c556a","name":"居能","original_name":"居能","name_kana":"いのう","closed":false,"lat":33.96706,"lng":131.228161,"prefecture":35,"lines":[11721,11723],"attr":"heat","postal_code":"755-0055","address":"宇部市居能町２丁目","voronoi":{"type":"Feature","geometry":{"type":"Polygon","coordinates":[[[131.212773,33.947955],[131.215662,33.970181],[131.243953,33.97693],[131.214258,33.928139],[131.21303,33.931751],[131.212773,33.947955]]]},"properties":{}},"extra":false},
    {"code":1172117,"id":"e5f561","name":"岩鼻","original_name":"岩鼻","name_kana":"いわはな","closed":false,"lat":33.978608,"lng":131.225406,"prefecture":35,"lines":[11721],"attr":"heat","postal_code":"755-0057","address":"宇部市大字藤曲","voronoi":{"type":"Feature","geometry":{"type":"Polygon","coordinates":[[[131.243953,33.97693],[131.215662,33.970181],[131.20895,33.988591],[131.263322,33.996866],[131.26567,33.995209],[131.243953,33.97693]]]},"properties":{}},"extra":false},
    {"code":1161228,"id":"2d52df","name":"宇部","original_name":"宇部","name_kana":"うべ","closed":false,"lat":34.003017,"lng":131.221691,"prefecture":35,"lines":[11612,11721,99727],"attr":"cool","postal_code":"759-0207","address":"宇部市大字際波","voronoi":{"type":"Feature","geometry":{"type":"Polygon","coordinates":[[[131.244142,34.021647],[131.263322,33.996866],[131.20895,33.988591],[131.203901,33.991514],[131.202721,33.998562],[131.202869,33.999663],[131.219564,34.018045],[131.227908,34.022369],[131.244142,34.021647]]]},"properties":{}},"extra":false}
  ],
  "extra":false
}