{
  "code":11918,
  "id":"0e9ae7",
  "name":"JR佐世保線",
  "name_kana":"じぇいあーるさせぼせん",
  "station_size":14,
  "company_code":6,
  "closed":false,
  "station_list":[
    {"code":1190512,"id":"118cdc","name":"江北(佐賀)","original_name":"江北","name_kana":"こうほく","closed":false,"lat":33.21919,"lng":130.160858,"prefecture":41,"lines":[11905,11918],"attr":"cool","postal_code":"849-0501","address":"杵島郡江北町大字山口","voronoi":{"type":"Feature","geometry":{"type":"Polygon","coordinates":[[[130.235157,33.136476],[130.133842,33.214091],[130.129876,33.2462],[130.130273,33.246501],[130.165049,33.255779],[130.245002,33.143786],[130.248981,33.136298],[130.235157,33.136476]]]},"properties":{}}},
    {"code":1191802,"id":"17a7a2","name":"大町(佐賀)","original_name":"大町","name_kana":"おおまち","closed":false,"lat":33.212462,"lng":130.106398,"prefecture":41,"lines":[11918],"attr":"heat","postal_code":"849-2102","address":"杵島郡大町町大字福母","voronoi":{"type":"Feature","geometry":{"type":"Polygon","coordinates":[[[130.088243,33.1742],[130.100404,33.248657],[130.129876,33.2462],[130.133842,33.214091],[130.101507,33.177026],[130.088243,33.1742]]]},"properties":{}}},
    {"code":1191803,"id":"70a069","name":"北方(佐賀)","original_name":"北方","name_kana":"きたがた","closed":false,"lat":33.21625,"lng":130.083206,"prefecture":41,"lines":[11918],"attr":"heat","postal_code":"849-2201","address":"武雄市北方町志久","voronoi":{"type":"Feature","geometry":{"type":"Polygon","coordinates":[[[130.053459,33.258841],[130.072055,33.165542],[130.088243,33.1742],[130.100404,33.248657],[130.09358,33.251616],[130.053459,33.258841]]]},"properties":{}}},
    {"code":1191804,"id":"e734b6","name":"高橋","original_name":"高橋","name_kana":"たかはし","closed":false,"lat":33.2081,"lng":130.042315,"prefecture":41,"lines":[11918],"attr":"heat","postal_code":"843-0001","address":"武雄市朝日町大字甘久","voronoi":{"type":"Feature","geometry":{"type":"Polygon","coordinates":[[[130.005161,33.247565],[130.060219,33.155442],[130.067506,33.159759],[130.072055,33.165542],[130.053459,33.258841],[130.040702,33.267403],[130.029723,33.269101],[130.027731,33.269038],[130.011022,33.255443],[130.005161,33.247565]]]},"properties":{}}},
    {"code":101201,"id":"094dd2","name":"武雄温泉","original_name":"武雄温泉","name_kana":"たけおおんせん","closed":false,"lat":33.196151,"lng":130.022322,"prefecture":41,"lines":[1012,11918],"attr":"heat","postal_code":"843-0024","address":"武雄市武雄町大字富岡","voronoi":{"type":"Feature","geometry":{"type":"Polygon","coordinates":[[[129.998361,33.241666],[130.004104,33.153061],[130.045863,33.142179],[130.060219,33.155442],[130.005161,33.247565],[129.998361,33.241666]]]},"properties":{}}},
    {"code":1191806,"id":"9d49b3","name":"永尾","original_name":"永尾","name_kana":"ながお","closed":false,"lat":33.193439,"lng":129.980476,"prefecture":41,"lines":[11918],"attr":"cool","postal_code":"849-2301","address":"武雄市山内町犬走","voronoi":{"type":"Feature","geometry":{"type":"Polygon","coordinates":[[[129.962176,33.144133],[129.965615,33.231724],[129.998361,33.241666],[130.004104,33.153061],[129.962176,33.144133]]]},"properties":{}}},
    {"code":1191807,"id":"40cdb7","name":"三間坂","original_name":"三間坂","name_kana":"みまさか","closed":false,"lat":33.194722,"lng":129.947798,"prefecture":41,"lines":[11918],"attr":"cool","postal_code":"849-2303","address":"武雄市山内町三間坂島巡甲","voronoi":{"type":"Feature","geometry":{"type":"Polygon","coordinates":[[[129.93341,33.127434],[129.923022,33.22671],[129.956514,33.232773],[129.965615,33.231724],[129.962176,33.144133],[129.93341,33.127434]]]},"properties":{}}},
    {"code":1191808,"id":"33265f","name":"上有田","original_name":"上有田","name_kana":"かみありた","closed":false,"lat":33.190286,"lng":129.905404,"prefecture":41,"lines":[11918],"attr":"eco","postal_code":"844-0002","address":"西松浦郡有田町中樽","voronoi":{"type":"Feature","geometry":{"type":"Polygon","coordinates":[[[129.923395,33.116241],[129.912041,33.120087],[129.884908,33.218562],[129.890408,33.228268],[129.890927,33.228878],[129.909796,33.231927],[129.923022,33.22671],[129.93341,33.127434],[129.923395,33.116241]]]},"properties":{}}},
    {"code":1191809,"id":"33eabe","name":"有田","original_name":"有田","name_kana":"ありた","closed":false,"lat":33.183779,"lng":129.881787,"prefecture":41,"lines":[11918,99910,11936],"attr":"eco","postal_code":"844-0000","address":"西松浦郡有田町中部本町","voronoi":{"type":"Feature","geometry":{"type":"Polygon","coordinates":[[[129.882512,33.124609],[129.863423,33.15457],[129.884807,33.218477],[129.884908,33.218562],[129.912041,33.120087],[129.882512,33.124609]]]},"properties":{}}},
    {"code":1191810,"id":"b992f9","name":"三河内","original_name":"三河内","name_kana":"みかわち","closed":false,"lat":33.150268,"lng":129.82919,"prefecture":42,"lines":[11918],"attr":"cool","postal_code":"859-3151","address":"佐世保市三川内本町","voronoi":{"type":"Feature","geometry":{"type":"Polygon","coordinates":[[[129.842815,33.107682],[129.882512,33.124609],[129.863423,33.15457],[129.848088,33.169297],[129.828313,33.180868],[129.804875,33.190569],[129.804657,33.190323],[129.805395,33.158625],[129.830658,33.111745],[129.84017,33.107524],[129.842815,33.107682]]]},"properties":{}}},
    {"code":1191811,"id":"e1c2ce","name":"早岐","original_name":"早岐","name_kana":"はいき","closed":false,"lat":33.134155,"lng":129.79929,"prefecture":42,"lines":[11918,11922],"attr":"cool","postal_code":"859-3215","address":"佐世保市早岐１丁目","voronoi":{"type":"Feature","geometry":{"type":"Polygon","coordinates":[[[129.830658,33.111745],[129.805395,33.158625],[129.767542,33.115073],[129.8221,33.111414],[129.830658,33.111745]]]},"properties":{}}},
    {"code":1191812,"id":"aa3f4d","name":"大塔","original_name":"大塔","name_kana":"だいとう","closed":false,"lat":33.14917,"lng":129.782014,"prefecture":42,"lines":[11918],"attr":"eco","postal_code":"857-1161","address":"佐世保市大塔町","voronoi":{"type":"Feature","geometry":{"type":"Polygon","coordinates":[[[129.755839,33.11212],[129.780194,33.182215],[129.804657,33.190323],[129.805395,33.158625],[129.767542,33.115073],[129.755839,33.11212]]]},"properties":{}}},
    {"code":1191813,"id":"85e4ba","name":"日宇","original_name":"日宇","name_kana":"ひう","closed":false,"lat":33.157418,"lng":129.758276,"prefecture":42,"lines":[11918],"attr":"eco","postal_code":"857-1151","address":"佐世保市日宇町","voronoi":{"type":"Feature","geometry":{"type":"Polygon","coordinates":[[[129.755839,33.11212],[129.729315,33.096658],[129.744902,33.17546],[129.748361,33.183738],[129.748876,33.184392],[129.780194,33.182215],[129.755839,33.11212]]]},"properties":{}}},
    {"code":1191814,"id":"918930","name":"佐世保","original_name":"佐世保","name_kana":"させぼ","closed":false,"lat":33.163868,"lng":129.725667,"prefecture":42,"lines":[11918,99911,11936],"attr":"heat","postal_code":"857-0862","address":"佐世保市白南風町","voronoi":{"type":"Feature","geometry":{"type":"Polygon","coordinates":[[[129.744902,33.17546],[129.729315,33.096658],[129.610059,32.979314],[129.678185,33.134982],[129.724032,33.168034],[129.744902,33.17546]]]},"properties":{}}}
  ],
  "extra":false
}