{
  "code":11928,
  "id":"2c2d5d",
  "name":"JR日南線",
  "name_kana":"じぇいあーるにちなんせん",
  "station_size":29,
  "company_code":6,
  "closed":false,
  "station_list":[
    {"code":1190729,"id":"71e13a","name":"宮崎","original_name":"宮崎","name_kana":"みやざき","closed":false,"lat":31.915742,"lng":131.431975,"prefecture":45,"lines":[11907,11927,11928],"attr":"cool","postal_code":"880-0811","address":"宮崎市錦町","voronoi":{"type":"Feature","geometry":{"type":"Polygon","coordinates":[[[131.470039,31.92996],[131.388349,31.92355],[131.446324,31.896462],[131.447784,31.896412],[131.535877,31.913895],[131.470039,31.92996]]]},"properties":{}},"impl":true},
    {"code":1190730,"id":"085e8a","name":"南宮崎","original_name":"南宮崎","name_kana":"みなみみやざき","closed":false,"lat":31.895097,"lng":131.422329,"prefecture":45,"lines":[11907,11927,11928,99937],"attr":"cool","postal_code":"880-0901","address":"宮崎市東大淀２丁目","voronoi":{"type":"Feature","geometry":{"type":"Polygon","coordinates":[[[131.36416,31.927993],[131.388349,31.92355],[131.446324,31.896462],[131.418013,31.882439],[131.36416,31.927993]]]},"properties":{}},"impl":true},
    {"code":1192703,"id":"4ca52a","name":"田吉","original_name":"田吉","name_kana":"たよし","closed":false,"lat":31.878202,"lng":131.430697,"prefecture":45,"lines":[11927,11928,99937],"attr":"cool","postal_code":"880-0911","address":"宮崎市田吉字赤江３１０-２","voronoi":{"type":"Feature","geometry":{"type":"Polygon","coordinates":[[[131.418013,31.882439],[131.446324,31.896462],[131.447784,31.896412],[131.436818,31.877421],[131.418803,31.873318],[131.418013,31.882439]]]},"properties":{}},"impl":true},
    {"code":1192804,"id":"58e468","name":"南方(宮崎)","original_name":"南方","name_kana":"みなみかた","closed":false,"lat":31.859592,"lng":131.434378,"prefecture":45,"lines":[11928,99937],"attr":"cool","postal_code":"880-0921","address":"宮崎市大字本郷南方","voronoi":{"type":"Feature","geometry":{"type":"Polygon","coordinates":[[[131.411887,31.848405],[131.411867,31.853433],[131.418062,31.864001],[131.435037,31.867213],[131.453265,31.858497],[131.411887,31.848405]]]},"properties":{}},"impl":true},
    {"code":1192805,"id":"25e164","name":"木花","original_name":"木花","name_kana":"きばな","closed":false,"lat":31.831544,"lng":131.43679,"prefecture":45,"lines":[11928,99937],"attr":"cool","postal_code":"889-2151","address":"宮崎市大字熊野","voronoi":{"type":"Feature","geometry":{"type":"Polygon","coordinates":[[[131.410135,31.840516],[131.386522,31.800294],[131.386417,31.799387],[131.468537,31.839797],[131.410135,31.840516]]]},"properties":{}},"impl":true},
    {"code":1192806,"id":"2266ef","name":"運動公園(宮崎)","original_name":"運動公園","name_kana":"うんどうこうえん","closed":false,"lat":31.819678,"lng":131.442629,"prefecture":45,"lines":[11928],"attr":"cool","postal_code":"889-2151","address":"宮崎市大字熊野","voronoi":{"type":"Feature","geometry":{"type":"Polygon","coordinates":[[[131.383874,31.760803],[131.378164,31.763591],[131.386417,31.799387],[131.468537,31.839797],[131.471884,31.840443],[131.383874,31.760803]]]},"properties":{}},"impl":true},
    {"code":1192807,"id":"23598c","name":"曽山寺","original_name":"曽山寺","name_kana":"そさんじ","closed":false,"lat":31.813401,"lng":131.448309,"prefecture":45,"lines":[11928,99937],"attr":"cool","postal_code":"889-2161","address":"宮崎市大字加江田","voronoi":{"type":"Feature","geometry":{"type":"Polygon","coordinates":[[[131.473843,31.841068],[131.471884,31.840443],[131.383874,31.760803],[131.384549,31.76043],[131.423566,31.774014],[131.432374,31.781035],[131.473843,31.841068]]]},"properties":{}},"impl":true},
    {"code":1192808,"id":"f06c55","name":"子供の国","original_name":"子供の国","name_kana":"こどものくに","closed":false,"lat":31.807394,"lng":131.457005,"prefecture":45,"lines":[11928,99937],"attr":"eco","postal_code":"889-2161","address":"宮崎市大字加江田","voronoi":{"type":"Feature","geometry":{"type":"Polygon","coordinates":[[[131.432374,31.781035],[131.473843,31.841068],[131.496511,31.85201],[131.498843,31.852599],[131.454979,31.794159],[131.432374,31.781035]]]},"properties":{}},"impl":true},
    {"code":1192809,"id":"787fa2","name":"青島","original_name":"青島","name_kana":"あおしま","closed":false,"lat":31.799801,"lng":131.467121,"prefecture":45,"lines":[11928,99937],"attr":"eco","postal_code":"889-2162","address":"宮崎市青島２丁目","voronoi":{"type":"Feature","geometry":{"type":"Polygon","coordinates":[[[131.498843,31.852599],[131.454979,31.794159],[131.468329,31.794614],[131.501555,31.820544],[131.552863,31.872337],[131.498843,31.852599]]]},"properties":{}},"impl":true},
    {"code":1192810,"id":"c0c0e4","name":"折生迫","original_name":"折生迫","name_kana":"おりゅうざこ","closed":false,"lat":31.789357,"lng":131.467477,"prefecture":45,"lines":[11928],"attr":"eco","postal_code":"889-2164","address":"宮崎市大字折生迫","voronoi":{"type":"Feature","geometry":{"type":"Polygon","coordinates":[[[131.468329,31.794614],[131.473491,31.7844],[131.471163,31.775154],[131.465099,31.773937],[131.423566,31.774014],[131.432374,31.781035],[131.454979,31.794159],[131.468329,31.794614]]]},"properties":{}},"impl":true},
    {"code":1192811,"id":"75cbc4","name":"内海(宮崎)","original_name":"内海","name_kana":"うちうみ","closed":false,"lat":31.758508,"lng":131.46742,"prefecture":45,"lines":[11928],"attr":"eco","postal_code":"889-2301","address":"宮崎市大字内海","voronoi":{"type":"Feature","geometry":{"type":"Polygon","coordinates":[[[131.390974,31.752915],[131.384549,31.76043],[131.423566,31.774014],[131.465099,31.773937],[131.47466,31.74768],[131.390974,31.752915]]]},"properties":{}},"impl":true},
    {"code":1192812,"id":"c84ef1","name":"小内海","original_name":"小内海","name_kana":"こうちうみ","closed":false,"lat":31.737838,"lng":131.466127,"prefecture":45,"lines":[11928],"attr":"eco","postal_code":"889-2301","address":"宮崎市大字内海","voronoi":{"type":"Feature","geometry":{"type":"Polygon","coordinates":[[[131.390974,31.752915],[131.47466,31.74768],[133.149693,31.224737],[133.258187,31.110184],[133.324621,31.030548],[131.392948,31.749847],[131.390974,31.752915]]]},"properties":{}},"impl":true},
    {"code":1192813,"id":"11b9b4","name":"伊比井","original_name":"伊比井","name_kana":"いびい","closed":false,"lat":31.711069,"lng":131.456159,"prefecture":45,"lines":[11928],"attr":"eco","postal_code":"887-0111","address":"日南市伊比井","voronoi":{"type":"Feature","geometry":{"type":"Polygon","coordinates":[[[133.324621,31.030548],[131.392948,31.749847],[131.429072,31.658887],[131.444436,31.64015],[133.752295,30.525302],[133.324621,31.030548]]]},"properties":{}},"impl":true},
    {"code":1192814,"id":"50a9c5","name":"北郷","original_name":"北郷","name_kana":"きたごう","closed":false,"lat":31.678267,"lng":131.373565,"prefecture":45,"lines":[11928],"attr":"eco","postal_code":"889-2402","address":"宮崎県日南市北郷町郷之原2099","voronoi":{"type":"Feature","geometry":{"type":"Polygon","coordinates":[[[131.383874,31.760803],[131.384549,31.76043],[131.390974,31.752915],[131.392948,31.749847],[131.429072,31.658887],[131.330133,31.661577],[131.241534,31.682505],[131.243828,31.689521],[131.252675,31.708249],[131.273785,31.730171],[131.332468,31.755565],[131.378164,31.763591],[131.383874,31.760803]]]},"properties":{}},"impl":true},
    {"code":1192815,"id":"178c7c","name":"内之田","original_name":"内之田","name_kana":"うちのだ","closed":false,"lat":31.642551,"lng":131.372594,"prefecture":45,"lines":[11928],"attr":"heat","postal_code":"889-2401","address":"宮崎県日南市北郷町大藤2527","voronoi":{"type":"Feature","geometry":{"type":"Polygon","coordinates":[[[131.429072,31.658887],[131.330133,31.661577],[131.382155,31.623961],[131.432146,31.634945],[131.444436,31.64015],[131.429072,31.658887]]]},"properties":{}},"impl":true},
    {"code":1192816,"id":"ab9fbb","name":"飫肥","original_name":"飫肥","name_kana":"おび","closed":false,"lat":31.627216,"lng":131.361506,"prefecture":45,"lines":[11928],"attr":"heat","postal_code":"889-2533","address":"日南市大字星倉","voronoi":{"type":"Feature","geometry":{"type":"Polygon","coordinates":[[[131.22671,31.644713],[131.225293,31.646083],[131.240602,31.680862],[131.241534,31.682505],[131.330133,31.661577],[131.382155,31.623961],[131.333182,31.583872],[131.327329,31.584925],[131.22671,31.644713]]]},"properties":{}},"impl":true},
    {"code":1192817,"id":"9cf4fb","name":"日南","original_name":"日南","name_kana":"にちなん","closed":false,"lat":31.603076,"lng":131.381267,"prefecture":45,"lines":[11928],"attr":"heat","postal_code":"887-0021","address":"日南市中央通り１丁目","voronoi":{"type":"Feature","geometry":{"type":"Polygon","coordinates":[[[131.382155,31.623961],[131.333182,31.583872],[131.341924,31.579275],[131.372243,31.579818],[131.432146,31.634945],[131.382155,31.623961]]]},"properties":{}},"impl":true},
    {"code":1192818,"id":"f99d9a","name":"油津","original_name":"油津","name_kana":"あぶらつ","closed":false,"lat":31.586883,"lng":131.396169,"prefecture":45,"lines":[11928],"attr":"heat","postal_code":"887-0014","address":"日南市岩崎２丁目","voronoi":{"type":"Feature","geometry":{"type":"Polygon","coordinates":[[[133.848802,30.417274],[131.372243,31.579818],[131.432146,31.634945],[131.444436,31.64015],[133.752295,30.525302],[133.848802,30.417274]]]},"properties":{}},"impl":true},
    {"code":1192819,"id":"ba31e1","name":"大堂津","original_name":"大堂津","name_kana":"おおどうつ","closed":false,"lat":31.556897,"lng":131.382093,"prefecture":45,"lines":[11928],"attr":"heat","postal_code":"889-3143","address":"日南市大字下方","voronoi":{"type":"Feature","geometry":{"type":"Polygon","coordinates":[[[133.848802,30.417274],[131.372243,31.579818],[131.341924,31.579275],[131.356383,31.55624],[133.915251,30.343798],[133.848802,30.417274]]]},"properties":{}},"impl":true},
    {"code":1192820,"id":"fa4acd","name":"南郷","original_name":"南郷","name_kana":"なんごう","closed":false,"lat":31.535927,"lng":131.372157,"prefecture":45,"lines":[11928],"attr":"heat","postal_code":"889-3204","address":"宮崎県日南市南郷町中村乙1866-2","voronoi":{"type":"Feature","geometry":{"type":"Polygon","coordinates":[[[131.374869,31.356971],[131.356383,31.55624],[133.915251,30.343798],[134.774293,29.401766],[135.108213,29.024275],[137.591045,23.379765],[134.397625,25.569553],[134.3483,25.604039],[131.374869,31.356971]]]},"properties":{}},"impl":true},
    {"code":1192821,"id":"0284fc","name":"谷之口","original_name":"谷之口","name_kana":"たにのくち","closed":false,"lat":31.533372,"lng":131.344615,"prefecture":45,"lines":[11928],"attr":"heat","postal_code":"889-3203","address":"宮崎県日南市南郷町谷之口","voronoi":{"type":"Feature","geometry":{"type":"Polygon","coordinates":[[[131.341924,31.579275],[131.333182,31.583872],[131.327329,31.584925],[131.322675,31.450213],[131.345028,31.405166],[131.374869,31.356971],[131.356383,31.55624],[131.341924,31.579275]]]},"properties":{}},"impl":true},
    {"code":1192822,"id":"4f204f","name":"榎原","original_name":"榎原","name_kana":"よわら","closed":false,"lat":31.534688,"lng":131.306526,"prefecture":45,"lines":[11928],"attr":"heat","postal_code":"889-3214","address":"宮崎県日南市南郷町榎原114","voronoi":{"type":"Feature","geometry":{"type":"Polygon","coordinates":[[[131.22671,31.644713],[131.292315,31.487446],[131.322675,31.450213],[131.327329,31.584925],[131.22671,31.644713]]]},"properties":{}},"impl":true},
    {"code":1192823,"id":"74f5c7","name":"日向大束","original_name":"日向大束","name_kana":"ひゅうがおおつか","closed":false,"lat":31.510584,"lng":131.248745,"prefecture":45,"lines":[11928],"attr":"heat","postal_code":"889-3531","address":"串間市大字奈留","voronoi":{"type":"Feature","geometry":{"type":"Polygon","coordinates":[[[131.22671,31.644713],[131.225293,31.646083],[131.162435,31.609653],[131.156356,31.589983],[131.176304,31.535056],[131.194424,31.510492],[131.199501,31.506197],[131.292315,31.487446],[131.22671,31.644713]]]},"properties":{}},"impl":true},
    {"code":1192824,"id":"f6ebf7","name":"日向北方","original_name":"日向北方","name_kana":"ひゅうがきたかた","closed":false,"lat":31.483037,"lng":131.24318,"prefecture":45,"lines":[11928],"attr":"heat","postal_code":"888-0004","address":"串間市大字串間","voronoi":{"type":"Feature","geometry":{"type":"Polygon","coordinates":[[[131.199501,31.506197],[131.292315,31.487446],[131.322675,31.450213],[131.345028,31.405166],[131.210613,31.489251],[131.199501,31.506197]]]},"properties":{}},"impl":true},
    {"code":1192825,"id":"fd9ec3","name":"串間","original_name":"串間","name_kana":"くしま","closed":false,"lat":31.462684,"lng":131.230448,"prefecture":45,"lines":[11928],"attr":"heat","postal_code":"888-0001","address":"串間市大字西方","voronoi":{"type":"Feature","geometry":{"type":"Polygon","coordinates":[[[132.960052,26.550036],[131.404277,30.580322],[131.210613,31.489251],[131.345028,31.405166],[131.374869,31.356971],[134.3483,25.604039],[132.960052,26.550036]]]},"properties":{}},"impl":true},
    {"code":1192826,"id":"38a348","name":"福島今町","original_name":"福島今町","name_kana":"ふくしまいままち","closed":false,"lat":31.456906,"lng":131.20333,"prefecture":45,"lines":[11928],"attr":"heat","postal_code":"888-0001","address":"串間市大字西方","voronoi":{"type":"Feature","geometry":{"type":"Polygon","coordinates":[[[131.170399,31.159455],[131.194424,31.510492],[131.199501,31.506197],[131.210613,31.489251],[131.404277,30.580322],[131.170399,31.159455]]]},"properties":{}},"impl":true},
    {"code":1192827,"id":"c87c56","name":"福島高松","original_name":"福島高松","name_kana":"ふくしまたかまつ","closed":false,"lat":31.458619,"lng":131.178301,"prefecture":45,"lines":[11928],"attr":"heat","postal_code":"888-0002","address":"串間市大字高松","voronoi":{"type":"Feature","geometry":{"type":"Polygon","coordinates":[[[131.143356,31.219091],[131.132236,31.272841],[131.125039,31.343182],[131.176304,31.535056],[131.194424,31.510492],[131.170399,31.159455],[131.143356,31.219091]]]},"properties":{}},"impl":true},
    {"code":1192828,"id":"7e2849","name":"大隅夏井","original_name":"大隅夏井","name_kana":"おおすみなつい","closed":false,"lat":31.469801,"lng":131.136449,"prefecture":46,"lines":[11928],"attr":"heat","postal_code":"899-7101","address":"志布志市志布志町夏井","voronoi":{"type":"Feature","geometry":{"type":"Polygon","coordinates":[[[131.156356,31.589983],[131.176304,31.535056],[131.125039,31.343182],[131.110992,31.393317],[131.120755,31.516868],[131.152209,31.586053],[131.156356,31.589983]]]},"properties":{}},"impl":true},
    {"code":1192829,"id":"ff5a4c","name":"志布志","original_name":"志布志","name_kana":"しぶし","closed":false,"lat":31.47285,"lng":131.097864,"prefecture":46,"lines":[11928,10917,10920],"attr":"heat","postal_code":"899-7103","address":"志布志市志布志町志布志","voronoi":{"type":"Feature","geometry":{"type":"Polygon","coordinates":[[[131.077577,31.452275],[131.110992,31.393317],[131.120755,31.516868],[131.094448,31.492683],[131.077577,31.452275]]]},"properties":{}},"impl":true}
  ],
  "impl":true
}