{
  "code":99306,
  "id":385,
  "name":"秩父鉄道",
  "name_kana":"ちちぶてつどう",
  "name_formal":"秩父鉄道秩父本線",
  "station_size":37,
  "company_code":120,
  "closed":false,
  "station_list":[
    {"code":2100237,"id":4650,"name":"羽生","original_name":"羽生","name_kana":"はにゅう","closed":false,"lat":36.170345,"lng":139.533949,"prefecture":11,"lines":[21002,99306],"attr":"cool","postal_code":"348-0053","address":"羽生市南１","voronoi":{"type":"Feature","geometry":{"type":"Polygon","coordinates":[[[139.539862,36.191422],[139.580997,36.199374],[139.520622,36.132435],[139.521825,36.161497],[139.539862,36.191422]]]},"properties":{}},"extra":false},
    {"code":9930602,"id":6664,"name":"西羽生","original_name":"西羽生","name_kana":"にしはにゅう","closed":false,"lat":36.17635,"lng":139.523986,"prefecture":11,"lines":[99306],"attr":"cool","postal_code":"348-0054","address":"羽生市西５丁目","voronoi":{"type":"Feature","geometry":{"type":"Polygon","coordinates":[[[139.509804,36.193771],[139.539862,36.191422],[139.521825,36.161497],[139.509804,36.193771]]]},"properties":{}},"extra":false},
    {"code":9930603,"id":6665,"name":"新郷(埼玉)","original_name":"新郷","name_kana":"しんごう","closed":false,"lat":36.171317,"lng":139.510474,"prefecture":11,"lines":[99306],"attr":"cool","postal_code":"348-0041","address":"羽生市大字上新郷","voronoi":{"type":"Feature","geometry":{"type":"Polygon","coordinates":[[[139.520622,36.132435],[139.516632,36.123899],[139.484579,36.204576],[139.509804,36.193771],[139.521825,36.161497],[139.520622,36.132435]]]},"properties":{}},"extra":false},
    {"code":9930604,"id":6666,"name":"武州荒木","original_name":"武州荒木","name_kana":"ぶしゅうあらき","closed":false,"lat":36.162614,"lng":139.488569,"prefecture":11,"lines":[99306],"attr":"cool","postal_code":"361-0011","address":"行田市荒木","voronoi":{"type":"Feature","geometry":{"type":"Polygon","coordinates":[[[139.444615,36.199455],[139.461352,36.207007],[139.476389,36.209992],[139.478497,36.209575],[139.484579,36.204576],[139.516632,36.123899],[139.515714,36.119076],[139.504471,36.120779],[139.444615,36.199455]]]},"properties":{}},"extra":false},
    {"code":9930605,"id":6667,"name":"東行田","original_name":"東行田","name_kana":"ひがしぎょうだ","closed":false,"lat":36.147265,"lng":139.468394,"prefecture":11,"lines":[99306],"attr":"cool","postal_code":"361-0022","address":"行田市桜町２丁目","voronoi":{"type":"Feature","geometry":{"type":"Polygon","coordinates":[[[139.444615,36.199455],[139.443861,36.199301],[139.472602,36.121071],[139.482286,36.117724],[139.504471,36.120779],[139.444615,36.199455]]]},"properties":{}},"extra":false},
    {"code":9930606,"id":6668,"name":"行田市","original_name":"行田市","name_kana":"ぎょうだし","closed":false,"lat":36.143759,"lng":139.458851,"prefecture":11,"lines":[99306],"attr":"cool","postal_code":"361-0078","address":"行田市中央","voronoi":{"type":"Feature","geometry":{"type":"Polygon","coordinates":[[[139.456354,36.123359],[139.43119,36.194219],[139.43528,36.198331],[139.443861,36.199301],[139.472602,36.121071],[139.456354,36.123359]]]},"properties":{}},"extra":false},
    {"code":9930607,"id":6669,"name":"持田","original_name":"持田","name_kana":"もちだ","closed":false,"lat":36.137615,"lng":139.44155,"prefecture":11,"lines":[99306],"attr":"cool","postal_code":"361-0057","address":"行田市城西４丁目","voronoi":{"type":"Feature","geometry":{"type":"Polygon","coordinates":[[[139.43119,36.194219],[139.429327,36.192867],[139.433591,36.127035],[139.449008,36.120899],[139.456354,36.123359],[139.43119,36.194219]]]},"properties":{}},"extra":false},
    {"code":9930636,"id":9316,"name":"ソシオ流通センター","original_name":"ソシオ流通センター","name_kana":"そしおりゅうつうせんたー","closed":false,"lat":36.1365,"lng":139.424333,"prefecture":11,"lines":[99306],"attr":"cool","postal_code":"360-0022","address":"埼玉県熊谷市戸出102番地1","open_date":"2017-04-01","voronoi":{"type":"Feature","geometry":{"type":"Polygon","coordinates":[[[139.405059,36.117235],[139.409428,36.165867],[139.427447,36.191901],[139.429327,36.192867],[139.433591,36.127035],[139.405059,36.117235]]]},"properties":{}},"extra":false},
    {"code":100504,"id":1662,"name":"熊谷","original_name":"熊谷","name_kana":"くまがや","closed":false,"lat":36.139627,"lng":139.389528,"prefecture":11,"lines":[1005,11323,99306,21020],"attr":"cool","postal_code":"360-0037","address":"熊谷市筑波２丁目","voronoi":{"type":"Feature","geometry":{"type":"Polygon","coordinates":[[[139.368211,36.0946],[139.391774,36.158275],[139.409428,36.165867],[139.405059,36.117235],[139.389392,36.091328],[139.368211,36.0946]]]},"properties":{}},"extra":false},
    {"code":9930609,"id":6670,"name":"上熊谷","original_name":"上熊谷","name_kana":"かみくまがや","closed":false,"lat":36.142657,"lng":139.38134,"prefecture":11,"lines":[99306,21020],"attr":"cool","postal_code":"360-0822","address":"熊谷市宮本町","voronoi":{"type":"Feature","geometry":{"type":"Polygon","coordinates":[[[139.391774,36.158275],[139.379508,36.15615],[139.363098,36.114954],[139.360665,36.095095],[139.368211,36.0946],[139.391774,36.158275]]]},"properties":{}},"extra":false},
    {"code":9930610,"id":6671,"name":"石原(埼玉)","original_name":"石原","name_kana":"いしわら","closed":false,"lat":36.147612,"lng":139.368901,"prefecture":11,"lines":[99306],"attr":"cool","postal_code":"360-0816","address":"熊谷市大字石原","voronoi":{"type":"Feature","geometry":{"type":"Polygon","coordinates":[[[139.359151,36.163407],[139.363098,36.114954],[139.379508,36.15615],[139.359151,36.163407]]]},"properties":{}},"extra":false},
    {"code":9930611,"id":6672,"name":"ひろせ野鳥の森","original_name":"ひろせ野鳥の森","name_kana":"ひろせやちょうのもり","closed":false,"lat":36.146242,"lng":139.352086,"prefecture":11,"lines":[99306],"attr":"cool","postal_code":"360-0833","address":"熊谷市広瀬１０４０-１","voronoi":{"type":"Feature","geometry":{"type":"Polygon","coordinates":[[[139.359151,36.163407],[139.363098,36.114954],[139.360665,36.095095],[139.357324,36.094339],[139.346031,36.095058],[139.340791,36.160089],[139.353202,36.169708],[139.359151,36.163407]]]},"properties":{}},"extra":false},
    {"code":9930612,"id":6673,"name":"大麻生","original_name":"大麻生","name_kana":"おおあそう","closed":false,"lat":36.144612,"lng":139.331859,"prefecture":11,"lines":[99306],"attr":"cool","postal_code":"360-0835","address":"熊谷市大字大麻生","voronoi":{"type":"Feature","geometry":{"type":"Polygon","coordinates":[[[139.316716,36.15875],[139.320429,36.094649],[139.338317,36.094014],[139.346031,36.095058],[139.340791,36.160089],[139.316716,36.15875]]]},"properties":{}},"extra":false},
    {"code":9930613,"id":6674,"name":"明戸","original_name":"明戸","name_kana":"あけと","closed":false,"lat":36.142958,"lng":139.303306,"prefecture":11,"lines":[99306],"attr":"cool","postal_code":"369-1102","address":"深谷市瀬山字中里前","voronoi":{"type":"Feature","geometry":{"type":"Polygon","coordinates":[[[139.302923,36.090229],[139.294198,36.094688],[139.291654,36.166862],[139.301794,36.17148],[139.316716,36.15875],[139.320429,36.094649],[139.302923,36.090229]]]},"properties":{}},"extra":false},
    {"code":9930614,"id":6675,"name":"武川","original_name":"武川","name_kana":"たけかわ","closed":false,"lat":36.142197,"lng":139.281714,"prefecture":11,"lines":[99306],"attr":"cool","postal_code":"369-1108","address":"深谷市田中","voronoi":{"type":"Feature","geometry":{"type":"Polygon","coordinates":[[[139.294198,36.094688],[139.291654,36.166862],[139.261983,36.166594],[139.283423,36.097448],[139.294198,36.094688]]]},"properties":{}},"extra":false},
    {"code":9930615,"id":6676,"name":"永田(埼玉)","original_name":"永田","name_kana":"ながた","closed":false,"lat":36.135314,"lng":139.259516,"prefecture":11,"lines":[99306],"attr":"cool","postal_code":"369-1243","address":"深谷市永田","voronoi":{"type":"Feature","geometry":{"type":"Polygon","coordinates":[[[139.278202,36.097386],[139.268043,36.102701],[139.241485,36.168274],[139.25046,36.171068],[139.261983,36.166594],[139.283423,36.097448],[139.278202,36.097386]]]},"properties":{}},"extra":false},
    {"code":9930637,"id":9336,"name":"ふかや花園","original_name":"ふかや花園","name_kana":"ふかやはなぞの","closed":false,"lat":36.132056,"lng":139.251472,"prefecture":11,"lines":[99306],"attr":"cool","postal_code":"369-1244","address":"深谷市黒田113","open_date":"2018-10-20","voronoi":{"type":"Feature","geometry":{"type":"Polygon","coordinates":[[[139.267104,36.103047],[139.23769,36.123376],[139.233712,36.160628],[139.236604,36.167356],[139.241485,36.168274],[139.268043,36.102701],[139.267104,36.103047]]]},"properties":{}},"extra":false},
    {"code":9930616,"id":6677,"name":"小前田","original_name":"小前田","name_kana":"おまえだ","closed":false,"lat":36.12895,"lng":139.222386,"prefecture":11,"lines":[99306],"attr":"cool","postal_code":"369-1246","address":"深谷市小前田","voronoi":{"type":"Feature","geometry":{"type":"Polygon","coordinates":[[[139.233712,36.160628],[139.214412,36.14387],[139.214806,36.122009],[139.222616,36.114937],[139.23769,36.123376],[139.233712,36.160628]]]},"properties":{}},"extra":false},
    {"code":9930617,"id":6678,"name":"桜沢(埼玉)","original_name":"桜沢","name_kana":"さくらざわ","closed":false,"lat":36.128672,"lng":139.206981,"prefecture":11,"lines":[99306],"attr":"cool","postal_code":"369-1202","address":"大里郡寄居町大字桜沢","voronoi":{"type":"Feature","geometry":{"type":"Polygon","coordinates":[[[139.206515,36.12108],[139.198485,36.125877],[139.188749,36.137529],[139.214412,36.14387],[139.214806,36.122009],[139.206515,36.12108]]]},"properties":{}},"extra":false},
    {"code":1131808,"id":1578,"name":"寄居","original_name":"寄居","name_kana":"よりい","closed":false,"lat":36.118013,"lng":139.194224,"prefecture":11,"lines":[11318,21001,99306],"attr":"cool","postal_code":"369-1203","address":"大里郡寄居町大字寄居","voronoi":{"type":"Feature","geometry":{"type":"Polygon","coordinates":[[[139.195465,36.107188],[139.172238,36.106139],[139.180182,36.139091],[139.188749,36.137529],[139.198485,36.125877],[139.195465,36.107188]]]},"properties":{}},"extra":false},
    {"code":9930619,"id":6679,"name":"波久礼","original_name":"波久礼","name_kana":"はぐれ","closed":false,"lat":36.126728,"lng":139.158078,"prefecture":11,"lines":[99306],"attr":"heat","postal_code":"369-1300","address":"秩父郡長瀞町大字末野","voronoi":{"type":"Feature","geometry":{"type":"Polygon","coordinates":[[[139.172238,36.106139],[139.15496,36.08506],[139.146954,36.09392],[139.138691,36.106006],[139.137736,36.108981],[139.143753,36.158597],[139.14952,36.160545],[139.174961,36.147304],[139.180182,36.139091],[139.172238,36.106139]]]},"properties":{}},"extra":false},
    {"code":9930620,"id":6680,"name":"樋口","original_name":"樋口","name_kana":"ひぐち","closed":false,"lat":36.131076,"lng":139.122226,"prefecture":11,"lines":[99306],"attr":"heat","postal_code":"369-1302","address":"秩父郡長瀞町野上下郷","voronoi":{"type":"Feature","geometry":{"type":"Polygon","coordinates":[[[139.089199,36.154879],[139.079827,36.142709],[139.137736,36.108981],[139.143753,36.158597],[139.105783,36.166983],[139.096361,36.161703],[139.089199,36.154879]]]},"properties":{}},"extra":false},
    {"code":9930621,"id":6681,"name":"野上","original_name":"野上","name_kana":"のがみ","closed":false,"lat":36.11157,"lng":139.110865,"prefecture":11,"lines":[99306],"attr":"heat","postal_code":"369-1304","address":"秩父郡長瀞町大字本野上","voronoi":{"type":"Feature","geometry":{"type":"Polygon","coordinates":[[[139.042254,36.113854],[139.076617,36.100299],[139.138691,36.106006],[139.137736,36.108981],[139.079827,36.142709],[139.042254,36.113854]]]},"properties":{}},"extra":false},
    {"code":9930622,"id":6682,"name":"長瀞","original_name":"長瀞","name_kana":"ながとろ","closed":false,"lat":36.095462,"lng":139.112346,"prefecture":11,"lines":[99306],"attr":"heat","postal_code":"369-1305","address":"秩父郡長瀞町大字長瀞","voronoi":{"type":"Feature","geometry":{"type":"Polygon","coordinates":[[[139.138691,36.106006],[139.076617,36.100299],[139.083822,36.095349],[139.100131,36.089668],[139.146954,36.09392],[139.138691,36.106006]]]},"properties":{}},"extra":false},
    {"code":9930623,"id":6683,"name":"上長瀞","original_name":"上長瀞","name_kana":"かみながとろ","closed":false,"lat":36.086169,"lng":139.11319,"prefecture":11,"lines":[99306],"attr":"heat","postal_code":"369-1305","address":"秩父郡長瀞町大字長瀞","voronoi":{"type":"Feature","geometry":{"type":"Polygon","coordinates":[[[139.15496,36.08506],[139.146954,36.09392],[139.100131,36.089668],[139.14002,36.056911],[139.159124,36.051337],[139.15496,36.08506]]]},"properties":{}},"extra":false},
    {"code":9930624,"id":6684,"name":"親鼻","original_name":"親鼻","name_kana":"おやはな","closed":false,"lat":36.077539,"lng":139.106103,"prefecture":11,"lines":[99306],"attr":"heat","postal_code":"369-1412","address":"秩父郡皆野町大字皆野","voronoi":{"type":"Feature","geometry":{"type":"Polygon","coordinates":[[[139.10853,36.061437],[139.083822,36.095349],[139.100131,36.089668],[139.14002,36.056911],[139.10853,36.061437]]]},"properties":{}},"extra":false},
    {"code":9930625,"id":6685,"name":"皆野","original_name":"皆野","name_kana":"みなの","closed":false,"lat":36.068682,"lng":139.093947,"prefecture":11,"lines":[99306],"attr":"heat","postal_code":"369-1400","address":"秩父郡皆野町原","voronoi":{"type":"Feature","geometry":{"type":"Polygon","coordinates":[[[139.057506,36.043544],[139.01133,36.043429],[138.993719,36.059589],[138.965841,36.08917],[139.042254,36.113854],[139.076617,36.100299],[139.083822,36.095349],[139.10853,36.061437],[139.057506,36.043544]]]},"properties":{}},"extra":false},
    {"code":9930626,"id":6686,"name":"和銅黒谷","original_name":"和銅黒谷","name_kana":"わどうくろや","closed":false,"lat":36.046671,"lng":139.101666,"prefecture":11,"lines":[99306],"attr":"heat","postal_code":"368-0001","address":"秩父市大字黒谷","voronoi":{"type":"Feature","geometry":{"type":"Polygon","coordinates":[[[139.14002,36.056911],[139.159124,36.051337],[139.167565,36.035426],[139.139066,36.021488],[139.057506,36.043544],[139.10853,36.061437],[139.14002,36.056911]]]},"properties":{}},"extra":false},
    {"code":9930627,"id":6687,"name":"大野原","original_name":"大野原","name_kana":"おおのはら","closed":false,"lat":36.018586,"lng":139.094071,"prefecture":11,"lines":[99306],"attr":"eco","postal_code":"368-0005","address":"秩父市大字大野原","voronoi":{"type":"Feature","geometry":{"type":"Polygon","coordinates":[[[139.139066,36.021488],[139.057506,36.043544],[139.01133,36.043429],[139.01346,36.03983],[139.10412,36.002994],[139.122602,36.00509],[139.139066,36.021488]]]},"properties":{}},"extra":false},
    {"code":9930628,"id":6688,"name":"秩父","original_name":"秩父","name_kana":"ちちぶ","closed":false,"lat":35.99883,"lng":139.086044,"prefecture":11,"lines":[99306],"attr":"eco","postal_code":"368-0046","address":"秩父市宮側町","voronoi":{"type":"Feature","geometry":{"type":"Polygon","coordinates":[[[139.03091,36.015878],[139.092517,35.992708],[139.10412,36.002994],[139.01346,36.03983],[139.015446,36.03521],[139.03091,36.015878]]]},"properties":{}},"extra":false},
    {"code":9930629,"id":6689,"name":"御花畑","original_name":"御花畑","name_kana":"おはなばたけ","closed":false,"lat":35.992369,"lng":139.083614,"prefecture":11,"lines":[99306],"attr":"eco","postal_code":"368-0042","address":"秩父市東町","voronoi":{"type":"Feature","geometry":{"type":"Polygon","coordinates":[[[139.063149,35.991799],[139.030913,36.015874],[139.03091,36.015878],[139.092517,35.992708],[139.091688,35.990983],[139.063149,35.991799]]]},"properties":{}},"extra":false},
    {"code":9930630,"id":6690,"name":"影森","original_name":"影森","name_kana":"かげもり","closed":false,"lat":35.972015,"lng":139.068413,"prefecture":11,"lines":[99306],"attr":"eco","postal_code":"369-1872","address":"秩父市大字上影森","voronoi":{"type":"Feature","geometry":{"type":"Polygon","coordinates":[[[139.105066,35.931086],[139.106242,35.913394],[139.03687,36.001504],[139.030913,36.015874],[139.063149,35.991799],[139.085909,35.972711],[139.105066,35.931086]]]},"properties":{}},"extra":false},
    {"code":9930631,"id":6691,"name":"浦山口","original_name":"浦山口","name_kana":"うらやまぐち","closed":false,"lat":35.963922,"lng":139.058134,"prefecture":11,"lines":[99306],"attr":"eco","postal_code":"369-1801","address":"秩父市荒川久那","voronoi":{"type":"Feature","geometry":{"type":"Polygon","coordinates":[[[139.106242,35.913394],[139.03687,36.001504],[139.06581,35.883691],[139.095213,35.891077],[139.102522,35.893802],[139.108528,35.896659],[139.108764,35.897793],[139.106242,35.913394]]]},"properties":{}},"extra":false},
    {"code":9930632,"id":6692,"name":"武州中川","original_name":"武州中川","name_kana":"ぶしゅうなかがわ","closed":false,"lat":35.958347,"lng":139.035439,"prefecture":11,"lines":[99306],"attr":"eco","postal_code":"369-1802","address":"秩父市荒川上田野","voronoi":{"type":"Feature","geometry":{"type":"Polygon","coordinates":[[[139.014909,35.99771],[139.015446,36.03521],[139.03091,36.015878],[139.030913,36.015874],[139.03687,36.001504],[139.06581,35.883691],[139.054191,35.878893],[139.014909,35.99771]]]},"properties":{}},"extra":false},
    {"code":9930633,"id":6693,"name":"武州日野","original_name":"武州日野","name_kana":"ぶしゅうひの","closed":false,"lat":35.953867,"lng":139.021888,"prefecture":11,"lines":[99306],"attr":"eco","postal_code":"369-1803","address":"秩父市荒川日野","voronoi":{"type":"Feature","geometry":{"type":"Polygon","coordinates":[[[139.014909,35.99771],[138.987675,35.844338],[139.054191,35.878893],[139.014909,35.99771]]]},"properties":{}},"extra":false},
    {"code":9930634,"id":6694,"name":"白久","original_name":"白久","name_kana":"しろく","closed":false,"lat":35.95895,"lng":138.993263,"prefecture":11,"lines":[99306],"attr":"eco","postal_code":"369-1912","address":"秩父市荒川白久","voronoi":{"type":"Feature","geometry":{"type":"Polygon","coordinates":[[[139.014909,35.99771],[138.987675,35.844338],[138.976484,35.836581],[138.993719,36.059589],[139.01133,36.043429],[139.01346,36.03983],[139.015446,36.03521],[139.014909,35.99771]]]},"properties":{}},"extra":false},
    {"code":9930635,"id":6695,"name":"三峰口","original_name":"三峰口","name_kana":"みつみねぐち","closed":false,"lat":35.960075,"lng":138.978706,"prefecture":11,"lines":[99306],"attr":"eco","postal_code":"369-1912","address":"秩父市荒川白久","voronoi":{"type":"Feature","geometry":{"type":"Polygon","coordinates":[[[138.993719,36.059589],[138.965841,36.08917],[138.925747,36.103532],[138.910542,36.101004],[138.891093,36.091721],[138.75367,35.986338],[138.751802,35.933185],[138.898062,35.793147],[138.918435,35.791034],[138.976484,35.836581],[138.993719,36.059589]]]},"properties":{}},"extra":false}
  ],
  "extra":false
}